     3.04           OBSERVATION DATA    M: Mixed            RINEX VERSION / TYPE
RTKCONV demo5 b34i                      20250404 111507 UTC PGM / RUN BY / DATE 
format: u-blox UBX                                          COMMENT             
log: D:\20242\demo5_b34i\data\HoDenLu\rieng\d2\hdl2_2m.ubx  COMMENT             
                                                            MARKER NAME         
                                                            MARKER NUMBER       
                                                            MARKER TYPE         
                                                            OBSERVER / AGENCY   
                                                            REC # / TYPE / VERS 
                                                            ANT # / TYPE        
 -1627730.6172  5730981.6476  2269814.4069                  APPROX POSITION XYZ 
        0.0000        0.0000        0.0000                  ANTENNA: DELTA H/E/N
G    8 C1C L1C D1C S1C C2X L2X D2X S2X                      SYS / # / OBS TYPES 
  2025    04    04    10    54   23.0040000     GPS         TIME OF FIRST OBS   
  2025    04    04    11    14   25.0050000     GPS         TIME OF LAST OBS    
G L1C                                                       SYS / PHASE SHIFT   
G L2X  0.00000                                              SYS / PHASE SHIFT   
  0                                                         GLONASS SLOT / FRQ #
 C1C    0.000 C1P    0.000 C2C    0.000 C2P    0.000        GLONASS COD/PHS/BIS 
                                                            END OF HEADER       
> 2025 04 04 10 54 23.0040000  0  9                     
G05  22315692.502   117269781.9551      -1965.363          45.000    22315693.046    91379037.0181      -1531.297          38.000  
G06  25416533.213   133564822.2141      -2782.736          39.000    25416548.819   104076514.6761      -2168.446          40.000  
G12  25048720.782   131631939.4541      -3673.755          40.000    25048727.255   102570372.4181      -2862.811          37.000  
G11  23559402.829   123805499.5161      -1933.882          45.000    23559405.806    96471828.2551      -1507.063          37.000  
G20  23372346.801   122822544.9391      -2959.526          44.000                                                                  
G13  21822153.654   114676199.2591        387.225          45.000                                                                  
G30  26712114.517   140373136.4371       -666.055          26.000    26712140.355                        -518.406          20.000  
G15  23246455.215   122160968.8261       1884.786          44.000    23246457.788    95190348.8471       1469.251          36.000  
G29  24037426.411   126317565.8461       1650.387          42.000    24037429.420    98429260.6341       1285.840          37.000  
> 2025 04 04 10 54 24.0040000  0  9                     
G05  22316066.555   117271747.185       -1964.989          44.000    22316067.042    91380568.358       -1530.875          38.000  
G06  25417062.688   133567604.596       -2782.428          41.000    25417078.330   104078682.780       -2168.371          39.000  
G12  25049419.916   131635613.165       -3673.639          40.000    25049426.254   102573235.073       -2862.201          37.000  
G11  23559770.727   123807433.366       -1933.657          45.000    23559773.864    96473335.139       -1506.792          38.000  
G20  23372909.843   122825504.199       -2959.214          39.000                                                                  
G13  21822080.062   114675812.085         387.251          45.000                                                                  
G30  26712241.381   140373802.047        -665.242          25.000    26712267.344                        -520.259          20.000  
G15  23246096.486   122159083.855        1884.937          44.000    23246099.099    95188880.049        1468.831          36.000  
G29  24037112.213   126315915.293        1650.477          42.000    24037115.333    98427974.458        1286.231          37.000  
> 2025 04 04 10 54 25.0040000  0  9                     
G05  22316440.495   117273712.569       -1965.397          44.000    22316441.044    91382099.828       -1531.247          38.000  
G06  25417592.145   133570387.047       -2781.648          40.000    25417607.920   104080850.945       -2168.181          37.000  
G12  25050119.054   131639286.863       -3673.456          40.000    25050125.325   102576097.704       -2862.628          37.000  
G11  23560138.641   123809367.337       -1933.891          45.000    23560141.879    96474842.144       -1507.028          38.000  
G20  23373472.975   122828463.331       -2959.009          41.000                                                                  
G13  21822006.536   114675425.414         386.490          45.000                                                                  
G30  26712368.845   140374467.819        -665.708          25.000    26712392.980                        -519.499          19.000  
G15  23245737.889   122157199.160        1884.694          44.000    23245740.377    95187411.461        1468.318          36.000  
G29  24036798.145   126314264.945        1650.454          41.000    24036801.262    98426688.520        1285.740          37.000  
> 2025 04 04 10 54 26.0040000  0  9                     
G05  22316814.435   117275677.831       -1965.316          45.000    22316815.041    91383631.220       -1531.616          38.000  
G06  25418121.597   133573169.434       -2782.026          40.000    25418137.424   104083019.035       -2168.396          37.000  
G12  25050818.050   131642960.249       -3673.438          40.000    25050824.455   102578960.057       -2861.603          37.000  
G11  23560506.598   123811301.109       -1933.718          43.000    23560510.008    96476348.989       -1507.326          32.000  
G20  23374035.988   122831422.052       -2958.593          44.000                                                                  
G13  21821932.950   114675038.973         386.273          45.000                                                                  
G30  26712493.663   140375133.574        -665.530          24.000    26712517.985                        -518.316          20.000  
G15  23245379.178   122155314.425        1884.745          44.000    23245381.706    95185942.876        1468.226          36.000  
G29  24036484.079   126312614.600        1650.616          43.000    24036487.246    98425402.514        1286.133          37.000  
> 2025 04 04 10 54 27.0040000  0  9                     
G05  22317188.352   117277643.305       -1965.403          45.000    22317189.107    91385162.736       -1531.329          38.000  
G06  25418651.032   133575951.883       -2782.471          41.000    25418666.887   104085187.196       -2168.418          36.000  
G12  25051517.073   131646633.628       -3673.352          40.000    25051523.594   102581822.463       -2862.531          37.000  
G11  23560874.675   123813235.058       -1933.769          43.000    23560877.949    96477855.952       -1507.391          31.000  
G20  23374599.020   122834380.808       -2958.635          45.000                                                                  
G13  21821859.520   114674653.110         385.792          45.000                                                                  
G15  23245020.457   122153429.990        1884.303          44.000    23245023.045    95184474.436        1468.878          36.000  
G29  24036170.242   126310964.560        1650.005          43.000    24036173.161    98424116.767        1285.594          37.000  
G30                                                                  26712645.639                        -527.369          18.000  
> 2025 04 04 10 54 28.0040000  0  9                     
G05  22317562.366   117279608.831       -1965.335          45.000    22317563.139    91386694.346       -1531.749          38.000  
G06  25419180.549   133578734.398       -2782.606          41.000    25419196.344   104087355.402       -2168.254          36.000  
G12  25052216.071   131650306.923       -3673.358          40.000    25052222.631   102584684.773       -2862.036          38.000  
G11  23561242.829   123815169.122       -1933.976          41.000    23561246.029    96479363.036       -1507.497          31.000  
G20  23375162.133   122837339.510       -2958.781          45.000                                                                  
G13  21821786.188   114674267.704         385.094          45.000                                                                  
G30  26712750.362   140376449.5731       -666.109          25.000    26712772.221                        -520.380          18.000  
G15  23244661.843   122151545.724        1884.075          44.000    23244664.436    95183006.199        1468.675          36.000  
G29  24035856.368   126309314.722        1650.008          42.000    24035859.130    98422831.171        1285.559          37.000  
> 2025 04 04 10 54 29.0040000  0 10                     
G05  22317936.556   117281574.639       -1965.920          46.000    22317937.208    91388226.146       -1532.060          38.000  
G06  25419710.026   133581517.110       -2782.529          41.000    25419725.895   104089523.761       -2168.796          36.000  
G12  25052915.157   131653980.265       -3673.254          39.000    25052921.607   102587547.134       -2862.463          37.000  
G11  23561610.867   123817103.293       -1934.125          40.000    23561614.092    96480870.210       -1507.350          32.000  
G20  23375725.205   122840298.136       -2958.645          45.000                                                                  
G13  21821712.925   114673882.868         384.577          45.000                                                                  
G30  26712878.350   140377115.913        -666.881          26.000    26712898.767                        -522.832          17.000  
G15  23244303.327   122149661.806        1883.741          44.000    23244305.984    95181538.280        1467.490          36.000  
G25  25179168.124                       -2740.602          22.000                                                                  
G29  24035542.450   126307665.180        1649.396          43.000    24035545.239    98421545.847        1285.166          37.000  
> 2025 04 04 10 54 30.0040000  0 10                     
G05  22318310.643   117283540.612       -1965.250          45.000    22318311.227    91389758.082       -1531.155          38.000  
G06  25420239.590   133584299.988       -2782.163          41.000    25420255.451   104091692.249       -2168.357          36.000  
G12  25053614.264   131657653.605       -3672.534          39.000    25053620.627   102590409.471       -2861.902          38.000  
G11  23561978.937   123819037.638       -1933.969          41.000    23561982.321    96482377.455       -1506.667          32.000  
G20  23376288.296   122843256.733       -2957.787          45.000                                                                  
G13  21821639.783   114673498.617         384.719          46.000                                                                  
G30  26713004.476   140377782.371        -666.013          26.000    26713024.758                        -516.573          16.000  
G15  23243944.802   122147778.185        1884.346          44.000    23243947.375    95180070.509        1467.998          36.000  
G25  25179687.601                       -2740.602          21.000                                                                  
G29  24035228.663   126306015.953        1649.640          42.000    24035231.486    98420260.715        1285.695          37.000  
> 2025 04 04 10 54 31.0040000  0 12                     
G05  22318684.657   117285506.151       -1965.608          46.000    22318685.213    91391289.646       -1531.293          38.000  
G06  25420769.135   133587082.349       -2782.341          40.000    25420784.895   104093860.291       -2168.268          36.000  
G12  25054313.270   131661326.307       -3672.797          39.000    25054319.471   102593271.319       -2862.219          37.000  
G11  23562346.987   123820971.429       -1934.033          41.000    23562350.284    96483884.308       -1507.219          31.000  
G19  26366943.056                       -5293.266          26.000                                                                  
G20  23376851.176   122846214.644       -2957.942          46.000                                                                  
G13  21821566.677   114673114.234         384.099          45.000                                                                  
G30  26713130.893   140378448.517        -666.751          27.000    26713151.733                        -513.462          17.000  
G15  23243586.179   122145894.196        1883.832          45.000    23243588.904    95178602.450        1467.870          36.000  
G25  25180218.246                       -2740.602          20.000                                                                  
G23  26906132.598                         704.543          21.000                                                                  
G29  24034914.801   126304366.339        1649.279          42.000    24034917.612    98418975.326        1284.830          37.000  
> 2025 04 04 10 54 32.0040000  0 11                     
G05  22319058.773   117287471.877       -1965.773          46.000    22319059.336    91392821.414       -1531.664          38.000  
G06  25421298.566   133589864.870       -2782.819          40.000    25421314.480   104096028.505       -2168.663          37.000  
G12  25055012.111   131664999.037       -3672.626          39.000    25055018.387   102596133.170       -2861.517          37.000  
G11  23562714.922   123822905.402       -1933.995          40.000    23562718.356    96485391.320       -1507.124          30.000  
G19  26367941.514                       -5293.266          23.000                                                                  
G20  23377414.048   122849172.526       -2957.976          46.000                                                                  
G13  21821493.700   114672730.455         383.483          46.000                                                                  
G30  26713259.718   140379114.831        -666.636          27.000    26713277.024                        -517.023          18.000  
G15  23243227.677   122144010.525        1883.329          44.000    23243230.254    95177134.633        1467.489          36.000  
G25  25180739.340                       -2740.602          21.000                                                                  
G29  24034600.956   126302717.035        1648.941          42.000    24034603.745    98417690.132        1284.916          37.000  
> 2025 04 04 10 54 33.0040000  0 10                     
G05  22319432.893   117289437.847       -1966.169          46.000    22319433.413    91394353.343       -1532.194          38.000  
G06  25421828.094   133592647.541       -2782.748          40.000    25421844.061   104098196.807       -2168.607          36.000  
G12  25055711.096   131668671.777       -3672.803          39.000    25055717.359   102598995.054       -2862.109          37.000  
G11  23563082.977   123824839.573       -1934.486          40.000    23563086.296    96486898.446       -1508.515          31.000  
G20  23377977.096   122852130.408       -2957.989          46.000                                                                  
G13  21821420.866   114672347.246         382.769          46.000                                                                  
G30  26713387.114   140379781.329        -666.512          28.000    26713402.658                        -531.840          18.000  
G15  23242869.204   122142127.154        1882.964          44.000    23242871.762    95175667.094        1467.191          36.000  
G25  25181250.802                       -2740.602          21.000                                                                  
G29  24034287.231   126301068.030        1648.549          42.000    24034289.869    98416405.211        1284.577          37.000  
> 2025 04 04 10 54 34.0040000  0  9                     
G05  22319807.230   117291404.414       -1966.474          46.000    22319807.604    91395885.726       -1532.276          38.000  
G06  25422357.749   133595430.803       -2783.049          40.000    25422373.725   104100365.564       -2168.545          35.000  
G12  25056409.992   131672344.967       -3672.742          39.000    25056416.457   102601857.254       -2861.853          37.000  
G11  23563451.000   123826774.287       -1934.530          40.000    23563454.496    96488405.948       -1507.150          32.000  
G20  23378540.061   122855088.672       -2957.951          46.000                                                                  
G13  21821348.158   114671965.000         382.238          46.000                                                                  
G30  26713517.095   140380448.605        -667.723          28.000    26713531.436                        -521.149          18.000  
G15  23242510.997   122140244.494        1882.601          44.000    23242513.486    95174200.115        1466.896          36.000  
G29  24033973.601   126299419.736        1648.478          41.000    24033976.207    98415120.845        1284.336          37.000  
> 2025 04 04 10 54 35.0040000  0 11                     
G05  22320181.509   117293370.992       -1966.703          46.000    22320181.748    91397418.135       -1532.795          38.000  
G06  25422887.366   133598213.996       -2783.364          40.000    25422903.412   104102534.291       -2168.699          35.000  
G12  25057108.933   131676017.929       -3672.912          39.000    25057115.465   102604719.334       -2861.884          37.000  
G11  23563818.997   123828708.964       -1935.027          40.000    23563822.693    96489913.510       -1508.445          32.000  
G19  26370960.377                       -5293.266          18.000                                                                  
G20  23379102.929   122858046.705       -2958.288          45.000                                                                  
G13  21821275.638   114671583.132         381.456          46.000                                                                  
G30  26713646.220   140381115.793        -667.520          28.000    26713659.234                        -517.254          18.000  
G15  23242152.730   122138361.905        1882.457          44.000    23242155.185    95172733.149        1466.573          36.000  
G23  26905641.687                         700.515          17.000                                                                  
G29  24033659.963   126297771.562        1647.911          41.000    24033662.524    98413836.540        1284.070          38.000  
> 2025 04 04 10 54 36.0040000  0 11                     
G05  22320555.845   117295337.776       -1966.865          46.000    22320556.045    91398950.685       -1532.766          38.000  
G06  25423417.068   133600997.381       -2783.601          39.000    25423433.126   104104703.220       -2168.924          35.000  
G12  25057807.820   131679690.952       -3672.955          39.000    25057814.446   102607581.396       -2861.670          37.000  
G11  23564187.012   123830643.864       -1934.900          39.000    23564191.012    96491421.243       -1507.496          32.000  
G19  26371963.344                       -5293.266          17.000                                                                  
G20  23379665.775   122861004.755       -2957.953          45.000                                                                  
G13  21821202.962   114671201.815         381.122          46.000                                                                  
G30  26713774.666   140381783.249        -667.256          28.000    26713786.008                        -510.727          19.000  
G15  23241794.412   122136479.627        1882.451          44.000    23241796.977    95171266.454        1466.820          36.000  
G23  26905512.402                         700.515          16.000                                                                  
G29  24033346.295   126296123.651        1647.970          42.000    24033348.978    98412552.460        1283.786          38.000  
> 2025 04 04 10 54 37.0040000  0 11                     
G05  22320930.132   117297304.665       -1967.111          46.000    22320930.351    91400483.319       -1532.903          38.000  
G06  25423946.731   133603780.755       -2783.303          43.000    25423962.830   104106872.075       -2169.220          38.000  
G12  25058506.683   131683363.855       -3672.931          39.000    25058513.374   102610443.466       -2862.219          37.000  
G11  23564555.080   123832578.777       -1934.984          40.000    23564559.304    96492929.010       -1507.729          33.000  
G19  26372976.192                       -5293.266          16.000                                                                  
G20  23380228.616   122863962.643       -2957.836          43.000                                                                  
G13  21821130.476   114670820.983         380.653          46.000                                                                  
G30  26713900.400   140382450.775        -667.410          29.000    26713910.534                        -519.057          21.000  
G15  23241436.218   122134597.586        1881.921          44.000    23241438.768    95169799.917        1466.658          36.000  
G23  26905379.169                         722.243          15.000                                                                  
G29  24033032.709   126294475.921        1647.977          42.000    24033035.384    98411268.517        1283.979          38.000  
> 2025 04 04 10 54 38.0040000  0 11                     
G05  22321304.382   117299271.686       -1967.081          45.000    22321304.623    91402016.059       -1532.894          38.000  
G06  25424476.470   133606564.208       -2783.433          42.000    25424492.430   104109040.999       -2169.001          38.000  
G12  25059205.505   131687036.715       -3672.955          39.000    25059212.208   102613305.413       -2862.292          37.000  
G11  23564923.263   123834513.756       -1935.242          39.000    23564927.679    96494436.786       -1507.960          33.000  
G19  26373986.907                       -5293.266          15.000                                                                  
G20  23380791.473   122866920.398       -2957.739          43.000                                                                  
G13  21821058.218   114670440.604         380.207          46.000                                                                  
G30  26714025.675   140383118.550        -667.799          28.000    26714036.430                        -519.640          22.000  
G15  23241077.961   122132715.738        1881.661          44.000    23241080.615    95168333.559        1466.553          36.000  
G23  26905246.543                         722.243          14.000                                                                  
G29  24032719.225   126292828.441        1647.365          41.000    24032721.852    98409984.789        1283.797          37.000  
> 2025 04 04 10 54 39.0040000  0 11                     
G05  22321678.721   117301238.645       -1967.211          45.000    22321678.927    91403548.787       -1533.260          39.000  
G06  25425006.118   133609347.568       -2783.542          42.000    25425022.002   104111209.838       -2168.620          39.000  
G12  25059904.213   131690709.334       -3672.711          39.000    25059911.175   102616167.187       -2861.914          37.000  
G11  23565291.321   123836448.616       -1935.134          38.000    23565295.956    96495944.468       -1509.057          32.000  
G19  26374989.874                       -5293.266          15.000                                                                  
G20  23381354.412   122869877.865       -2957.509          41.000                                                                  
G13  21820985.865   114670060.557         379.691          46.000                                                                  
G30  26714149.518   140383786.251        -668.033          29.000    26714163.719                        -516.233          23.000  
G15  23240719.816   122130833.931        1881.581          43.000    23240722.612    95166867.241        1466.181          36.000  
G23  26905104.580                         722.243          14.000                                                                  
G29  24032405.628   126291181.012        1647.153          42.000    24032408.298    98408701.067        1283.046          37.000  
> 2025 04 04 10 54 40.0040000  0 12                     
G05  22322053.060   117303205.904       -1967.451          45.000    22322053.254    91405081.704       -1533.498          38.000  
G06  25425535.766   133612131.188       -2783.797          42.000    25425551.774   104113378.911       -2169.329          39.000  
G12  25060603.016   131694382.062       -3672.705          39.000    25060610.001   102619029.027       -2861.938          37.000  
G11  23565659.418   123838383.725       -1935.507          37.000    23565664.223    96497452.354       -1508.376          32.000  
G19  26375996.300                       -5293.266          16.000                                                                  
G20  23381917.263   122872835.399       -2957.358          42.000                                                                  
G13  21820913.752   114669681.146         379.114          46.000                                                                  
G30  26714276.618   140384454.239        -668.119          28.000    26714291.352                        -519.784          24.000  
G15  23240361.710   122128952.534        1881.029          43.000    23240364.595    95165401.201        1465.910          36.000  
G23  26904971.969                         722.243          15.000                                                                  
G29  24032092.145   126289533.955        1646.723          42.000    24032094.891    98407417.627        1283.304          37.000  
G24  27590225.932                         710.847          16.000                                                                  
> 2025 04 04 10 54 41.0040000  0 11                     
G05  22322427.432   117305173.529       -1967.955          45.000    22322427.736    91406614.909       -1533.554          39.000  
G06  25426065.505   133614915.140       -2784.176          42.000    25426081.614   104115548.200       -2169.676          39.000  
G12  25061301.859   131698054.931       -3673.065          40.000    25061309.039   102621891.027       -2861.707          37.000  
G11  23566027.625   123840319.164       -1935.747          38.000    23566032.600    96498960.445       -1508.857          32.000  
G19  26377004.481                       -5293.266          15.000                                                                  
G20  23382480.142   122875793.108       -2957.704          42.000                                                                  
G13  21820841.760   114669302.472         378.368          46.000                                                                  
G30  26714401.043   140385122.728        -669.054          27.000    26714418.786                        -523.440          25.000  
G15  23240003.778   122127071.583        1880.648          44.000    23240006.640    95163935.551        1465.128          35.000  
G29  24031778.766   126287887.356        1646.286          42.000    24031781.584    98406134.583        1283.111          37.000  
G24  27590095.797                         710.847          15.000                                                                  
> 2025 04 04 10 54 42.0040000  0 10                     
G05  22322801.915   117307141.554       -1968.001          45.000    22322802.252    91408148.446       -1533.664          38.000  
G06  25426595.372   133617699.416       -2784.450          42.000    25426611.387   104117717.780       -2169.917          39.000  
G12  25062000.906   131701728.029       -3672.827          40.000    25062008.036   102624753.185       -2862.207          37.000  
G11  23566395.846   123842254.899       -1935.278          38.000    23566401.113    96500468.832       -1507.902          32.000  
G20  23383043.109   122878750.952       -2957.626          43.000                                                                  
G13  21820769.825   114668924.553         377.785          46.000                                                                  
G30  26714527.863   140385791.518        -668.919          27.000    26714545.380                        -520.837          24.000  
G15  23239645.869   122125191.137        1880.352          43.000    23239648.724    95162470.255        1465.490          36.000  
G29  24031465.485   126286241.282        1646.145          42.000    24031468.302    98404851.917        1282.725          37.000  
G24  27589953.727                         710.847          14.000                                                                  
> 2025 04 04 10 54 43.0040000  0 10                     
G05  22323176.421   117309109.908       -1968.805          45.000    22323176.808    91409682.186       -1533.745          38.000  
G06  25427125.272   133620483.946       -2784.756          42.000    25427141.323   104119887.550       -2169.802          38.000  
G12  25062699.838   131705401.248       -3673.358          40.000    25062706.903   102627615.414       -2861.932          37.000  
G11  23566764.110   123844190.888       -1936.335          39.000    23566769.503    96501977.315       -1508.791          32.000  
G20  23383606.099   122881708.877       -2958.173          45.000                                                                  
G13  21820698.044   114668547.304         376.708          46.000                                                                  
G30  26714656.030   140386460.680        -669.750          27.000    26714672.870                        -521.260          24.000  
G15  23239288.131   122123311.076        1879.850          43.000    23239290.905    95161005.285        1464.541          36.000  
G29  24031152.361   126284595.580        1645.178          43.000    24031155.086    98403569.574        1282.129          37.000  
G24  27589824.874                         710.847          14.000                                                                  
> 2025 04 04 10 54 44.0040000  0 10                     
G05  22323551.055   117311078.723       -1969.033          45.000    22323551.415    91411216.375       -1534.654          38.000  
G06  25427655.165   133623268.963       -2785.643          43.000    25427671.341   104122057.620       -2170.646          36.000  
G12  25063398.866   131709074.782       -3673.926          40.000    25063405.952   102630477.935       -2862.616          37.000  
G11  23567132.599   123846127.313       -1936.820          40.000    23567138.248    96503486.204       -1509.293          35.000  
G20  23384169.095   122884667.033       -2958.446          46.000                                                                  
G13  21820626.361   114668170.916         375.837          46.000                                                                  
G30  26714785.797   140387130.374        -670.461          27.000    26714801.544                        -524.301          23.000  
G15  23238930.526   122121431.642        1878.952          44.000    23238933.133    95159540.783        1464.028          36.000  
G29  24030839.325   126282950.461        1644.528          44.000    24030841.961    98402287.655        1281.444          37.000  
G24  27589685.772                         710.847          13.000                                                                  
> 2025 04 04 10 54 45.0040000  0  9                     
G05  22323925.856   117313048.208       -1970.229          45.000    22323926.147    91412751.049       -1535.107          38.000  
G06  25428185.239   133626054.528       -2785.983          43.000    25428201.359   104124228.178       -2170.952          37.000  
G12  25064098.058   131712748.750       -3674.097          40.000    25064105.093   102633340.765       -2862.952          37.000  
G11  23567501.187   123848064.377       -1937.271          40.000    23567507.073    96504995.614       -1509.591          35.000  
G20  23384732.004   122887625.597       -2958.935          46.000                                                                  
G13  21820555.022   114667795.516         374.931          46.000                                                                  
G30  26714913.965   140387800.693        -670.254          27.000    26714930.265                        -523.905          22.000  
G15  23238573.016   122119552.942        1878.216          44.000    23238575.585    95158076.855        1463.651          36.000  
G29  24030526.398   126281306.084        1643.719          43.000    24030529.049    98401006.338        1280.800          38.000  
> 2025 04 04 10 54 46.0040000  0 10                     
G05  22324300.781   117315017.882       -1969.628          45.000    22324301.008    91414285.865       -1534.909          39.000  
G06  25428715.296   133628840.253       -2785.803          43.000    25428731.611   104126398.889       -2171.143          37.000  
G12  25064797.280   131716422.724       -3673.822          40.000    25064804.198   102636203.609       -2862.848          37.000  
G11  23567869.772   123850001.573       -1937.467          40.000    23567875.866    96506505.125       -1509.637          35.000  
G20  23385294.939   122890584.176       -2958.645          47.000                                                                  
G13  21820483.775   114667420.683         374.528          45.000                                                                  
G30  26715040.894   140388471.289        -670.668          28.000    26715058.387                        -521.938          21.000  
G15  23238215.567   122117674.517        1878.302          44.000    23238218.074    95156613.170        1463.231          36.000  
G23  26904106.563                         699.196          14.000                                                                  
G29  24030213.616   126279661.981        1644.140          43.000    24030216.202    98399725.224        1280.988          38.000  
> 2025 04 04 10 54 47.0040000  0 10                     
G05  22324675.601   117316987.531       -1969.696          46.000    22324675.793    91415820.646       -1534.456          38.000  
G06  25429245.381   133631625.844       -2785.515          43.000    25429261.777   104128569.483       -2170.520          38.000  
G12  25065496.422   131720096.432       -3673.468          41.000    25065503.340   102639066.225       -2862.097          38.000  
G11  23568238.370   123851938.692       -1936.871          40.000    23568244.591    96508014.572       -1509.709          35.000  
G20  23385857.900   122893542.420       -2957.934          46.000                                                                  
G13  21820412.613   114667046.102         374.504          46.000                                                                  
G30  26715171.349   140389141.770        -670.041          28.000    26715186.537                        -534.006          21.000  
G15  23237858.117   122115796.106        1878.387          43.000    23237860.652    95155149.480        1463.789          36.000  
G23  26903968.410                         699.196          16.000                                                                  
G29  24029900.744   126278017.934        1644.109          43.000    24029903.401    98398444.145        1281.112          38.000  
> 2025 04 04 10 54 48.0040000  0 10                     
G05  22325050.478   117318957.317       -1969.816          46.000    22325050.621    91417355.507       -1534.143          38.000  
G06  25429775.561   133634411.525       -2785.260          43.000    25429791.944   104130740.149       -2170.694          38.000  
G12  25066195.444   131723770.069       -3673.053          41.000    25066202.394   102641928.812       -2862.470          37.000  
G11  23568606.936   123853875.847       -1936.345          41.000    23568613.293    96509523.997       -1508.760          36.000  
G20  23386420.960   122896500.573       -2957.346          45.000                                                                  
G13  21820341.390   114666672.054         374.313          45.000                                                                  
G30  26715298.974   140389812.456        -670.260          28.000    26715313.244                        -524.561          19.000  
G15  23237500.706   122113917.914        1878.528          43.000    23237503.145    95153685.953        1464.109          36.000  
G23  26903831.885                         711.281          15.000                                                                  
G29  24029588.011   126276374.109        1643.982          43.000    24029590.578    98397163.220        1281.314          38.000  
> 2025 04 04 10 54 49.0040000  0 10                     
G05  22325425.281   117320927.034       -1970.256          46.000    22325425.441    91418890.394       -1535.347          38.000  
G06  25430305.645   133637197.123       -2785.684          43.000    25430322.130   104132910.724       -2170.801          37.000  
G12  25066894.527   131727443.497       -3674.170          41.000    25066901.378   102644791.241       -2863.293          37.000  
G11  23568975.498   123855812.948       -1937.777          41.000    23568981.951    96511033.423       -1509.683          36.000  
G20  23386983.720   122899458.456       -2958.613          44.000                                                                  
G13  21820270.226   114666298.331         372.931          45.000                                                                  
G30  26715428.234   140390483.133        -670.740          28.000    26715440.811                        -527.706          19.000  
G15  23237143.291   122112039.791        1877.865          43.000    23237145.684    95152222.505        1462.906          36.000  
G23  26903690.562                         711.281          15.000                                                                  
G29  24029275.317   126274730.304        1643.213          43.000    24029277.764    98395882.342        1280.623          38.000  
> 2025 04 04 10 54 50.0040000  0 10                     
G05  22325800.122   117322897.084       -1970.107          46.000    22325800.363    91420425.485       -1535.236          38.000  
G06  25430835.772   133639982.952       -2785.443          43.000    25430852.281   104135081.542       -2170.764          38.000  
G12  25067593.562   131731117.013       -3673.279          41.000    25067600.440   102647653.709       -2862.347          37.000  
G11  23569344.166   123857750.310       -1937.283          41.000    23569350.702    96512543.063       -1509.712          36.000  
G20  23387546.490   122902416.411       -2957.989          44.000                                                                  
G13  21820199.262   114665925.256         372.997          45.000                                                                  
G30  26715556.374   140391154.150        -671.675          28.000    26715568.304                        -522.259          18.000  
G15  23236785.946   122110162.111        1877.503          42.000    23236788.293    95150759.347        1463.407          35.000  
G23  26900612.394                         713.734          23.000                                                                  
G29  24028962.532   126273086.964        1643.138          43.000    24028965.027    98394601.818        1280.472          38.000  
> 2025 04 04 10 54 51.0040000  0 10                     
G05  22326174.951   117324867.135       -1970.018          46.000    22326175.266    91421960.602       -1535.286          38.000  
G06  25431365.858   133642768.761       -2785.735          41.000    25431382.471   104137252.305       -2170.790          37.000  
G12  25068292.462   131734790.381       -3673.425          41.000    25068299.510   102650516.091       -2862.622          37.000  
G11  23569712.824   123859687.616       -1937.300          41.000    23569719.530    96514052.653       -1509.698          36.000  
G20  23388109.365   122905374.154       -2957.668          45.000                                                                  
G13  21820128.291   114665552.570         372.418          46.000                                                                  
G30  26715684.760   140391825.201        -671.749          27.000    26715697.335                        -524.670          18.000  
G15  23236428.614   122108284.494        1877.377          43.000    23236431.037    95149296.302        1462.908          36.000  
G23  26900984.455                         717.452          28.000                                                                  
G29  24028649.880   126271443.672        1643.277          42.000    24028652.364    98393321.357        1280.104          38.000  
> 2025 04 04 10 54 52.0040000  0  9                     
G05  22326549.942   117326837.580       -1970.573          46.000    22326550.246    91423495.988       -1535.195          38.000  
G06  25431896.039   133645554.901       -2786.288          41.000    25431912.783   104139423.328       -2171.060          36.000  
G12  25068991.529   131738463.912       -3673.474          41.000    25068998.587   102653378.581       -2862.329          37.000  
G11  23570081.509   123861625.286       -1937.682          41.000    23570088.228    96515562.527       -1509.815          35.000  
G20  23388672.306   122908332.063       -2957.875          45.000                                                                  
G13  21820057.458   114665180.626         371.556          45.000                                                                  
G30  26715812.430   140392496.620        -671.672          28.000    26715826.174                        -519.514          19.000  
G15  23236071.353   122106407.383        1876.879          43.000    23236073.802    95147833.620        1462.729          36.000  
G29  24028337.330   126269800.879        1642.722          42.000    24028339.745    98392041.250        1280.063          38.000  
> 2025 04 04 10 54 53.0040000  0  9                     
G05  22326924.988   117328808.312       -1970.893          46.000    22326925.237    91425031.639       -1535.518          38.000  
G06  25432426.280   133648341.304       -2786.611          41.000    25432443.054   104141594.572       -2171.475          36.000  
G12  25069690.567   131742137.587       -3673.584          41.000    25069697.643   102656241.190       -2862.769          37.000  
G11  23570450.241   123863563.207       -1938.116          41.000    23570457.050    96517072.587       -1509.975          36.000  
G20  23389235.129   122911290.021       -2958.203          44.000                                                                  
G13  21819986.777   114664809.327         370.993          45.000                                                                  
G30  26715940.579   140393168.348        -671.731          28.000    26715953.845                        -531.314          19.000  
G15  23235714.138   122104530.654        1876.413          42.000    23235716.663    95146371.248        1462.469          36.000  
G29  24028024.844   126268158.461        1642.285          42.000    24028027.285    98390761.462        1279.707          38.000  
> 2025 04 04 10 54 54.0040000  0  9                     
G05  22327300.161   117330779.361       -1971.332          46.000    22327300.304    91426567.525       -1536.276          38.000  
G06  25432956.453   133651127.992       -2787.011          41.000    25432973.450   104143765.999       -2171.740          37.000  
G12  25070389.527   131745811.374       -3673.932          41.000    25070396.811   102659103.873       -2862.512          37.000  
G11  23570819.136   123865501.388       -1938.416          40.000    23570825.887    96518582.884       -1510.524          36.000  
G20  23389798.051   122914248.087       -2958.370          45.000                                                                  
G13  21819916.273   114664438.725         370.251          45.000                                                                  
G30  26716067.092   140393840.464        -672.512          29.000    26716082.373                        -518.771          19.000  
G15  23235357.092   122102654.351        1876.081          42.000    23235359.661    95144909.218        1461.873          36.000  
G29  24027712.313   126266516.475        1642.126          42.000    24027714.857    98389481.997        1279.583          39.000  
> 2025 04 04 10 54 55.0040000  0  9                     
G05  22327675.320   117332750.731       -1971.423          46.000    22327675.490    91428103.644       -1536.068          38.000  
G06  25433486.784   133653914.912       -2786.781          41.000    25433503.703   104145937.641       -2171.935          37.000  
G12  25071088.687   131749485.281       -3673.694          41.000    25071095.895   102661966.674       -2863.019          37.000  
G11  23571187.912   123867439.845       -1938.639          40.000    23571194.814    96520093.362       -1510.315          36.000  
G20  23390360.961   122917206.231       -2958.086          46.000                                                                  
G13  21819845.854   114664068.800         369.720          46.000                                                                  
G30  26716195.873   140394512.913        -672.658          28.000    26716210.107                        -522.310          18.000  
G15  23235000.218   122100778.483        1875.776          43.000    23235002.738    95143447.494        1461.932          36.000  
G29  24027399.916   126264874.929        1641.216          42.000    24027402.508    98388202.879        1279.045          39.000  
> 2025 04 04 10 54 56.0040000  0 11                     
G05  22328050.388   117334722.052       -1971.065          44.000    22328050.699    91429639.764       -1535.668          38.000  
G06  25434017.141   133656701.770       -2786.723          40.000    25434034.095   104148109.251       -2171.552          34.000  
G12  25071787.766   131753158.984       -3673.565          40.000    25071795.009   102664829.304       -2862.634          37.000  
G11  23571556.838   123869378.313       -1938.564          39.000    23571563.663    96521603.818       -1510.187          35.000  
G19  26391233.368                       -5277.437          25.000                                                                  
G20  23390923.707   122920164.174       -2957.762          47.000                                                                  
G13  21819775.502   114663699.188         369.562          46.000                                                                  
G30  26716325.265   140395185.385        -672.568          28.000    26716338.466                        -521.184          19.000  
G15  23234643.138   122098902.644        1875.822          42.000    23234645.802    95141985.817        1461.711          36.000  
G29  24027087.686   126263233.419        1641.597          43.000    24027090.142    98386923.754        1279.354          39.000  
G24  27587511.566                         698.305          21.000                                                                  
> 2025 04 04 10 54 57.0040000  0 10                     
G05  22328425.568   117336693.535       -1971.553          45.000    22328425.842    91431175.972       -1536.557          38.000  
G06  25434547.504   133659488.738       -2786.932          41.000    25434564.419   104150280.906       -2171.561          38.000  
G12  25072486.754   131756832.588       -3673.565          41.000    25072494.049   102667691.856       -2862.677          36.000  
G11  23571925.644   123871316.819       -1938.609          39.000    23571932.503    96523114.334       -1510.368          34.000  
G19  26392245.572                       -5277.437          22.000                                                                  
G20  23391486.556   122923121.964       -2957.630          45.000                                                                  
G13  21819705.130   114663330.066         368.859          46.000                                                                  
G30  26716453.172   140395857.910        -672.125          28.000    26716466.235                        -518.835          20.000  
G15  23234286.083   122097027.030        1875.619          42.000    23234288.884    95140524.316        1461.459          36.000  
G29  24026775.324   126261592.112        1641.373          43.000    24026777.816    98385644.857        1278.990          38.000  
> 2025 04 04 10 54 58.0040000  0  9                     
G05  22328800.778   117338665.285       -1971.566          45.000    22328801.114    91432712.430       -1536.474          39.000  
G06  25435077.953   133662275.944       -2786.633          39.000    25435094.789   104152452.767       -2171.767          38.000  
G12  25073185.868   131760506.364       -3673.755          41.000    25073192.991   102670554.524       -2862.415          37.000  
G11  23572294.505   123873255.536       -1938.616          39.000    23572301.389    96524625.009       -1510.219          34.000  
G20  23392049.428   122926079.815       -2957.620          46.000                                                                  
G13  21819634.900   114662961.632         368.291          45.000                                                                  
G30  26716580.856   140396530.887        -672.819          28.000    26716594.234                        -529.950          21.000  
G15  23233929.100   122095151.842        1875.279          42.000    23233932.183    95139063.133        1461.301          36.000  
G29  24026463.105   126259951.245        1641.033          43.000    24026465.557    98384366.232        1279.019          38.000  
> 2025 04 04 10 54 59.0040000  0 10                     
G05  22329175.978   117340637.278       -1971.848          46.000    22329176.252    91434249.034       -1536.476          39.000  
G06  25435608.404   133665063.294       -2787.177          39.000    25435625.281   104154624.757       -2172.349          37.000  
G12  25073884.960   131764180.123       -3673.602          41.000    25073892.089   102673417.172       -2862.537          37.000  
G11  23572663.471   123875194.358       -1939.081          37.000    23572670.386    96526135.771       -1510.448          34.000  
G20  23392612.150   122929037.615       -2957.635          46.000                                                                  
G13  21819564.933   114662593.791         367.645          46.000                                                                  
G30  26716708.732   140397204.094        -672.435          30.000    26716722.540                        -526.221          23.000  
G15  23233572.281   122093276.966        1874.724          42.000    23233575.417    95137602.169        1461.293          37.000  
G29  24026150.916   126258310.705        1640.559          43.000    24026153.416    98383087.885        1278.451          39.000  
G24  27587114.107                         706.972          17.000                                                                  
> 2025 04 04 10 55 00.0040000  0 11                     
G05  22329551.325   117342609.498       -1972.586          45.000    22329551.472    91435785.826       -1536.833          39.000  
G06  25436138.874   133667850.827       -2787.824          41.000    25436155.731   104156796.833       -2172.142          37.000  
G12  25074584.036   131767853.948       -3674.310          41.000    25074591.215   102676279.904       -2862.939          37.000  
G11  23573032.311   123877133.550       -1939.180          37.000    23573039.415    96527646.897       -1510.681          30.000  
G19  26395262.427                       -5277.437          17.000                                                                  
G20  23393174.980   122931995.486       -2957.968          45.000                                                                  
G13  21819494.927   114662226.522         366.832          45.000                                                                  
G30  26716836.593   140397877.478        -673.801          30.000    26716850.409                        -523.618          24.000  
G15  23233215.570   122091402.429        1874.071          43.000    23233218.674    95136141.509        1460.430          37.000  
G29  24025838.844   126256670.468        1639.702          42.000    24025841.338    98381809.789        1278.011          39.000  
G24  27586973.024                         706.972          15.000                                                                  
> 2025 04 04 10 55 01.0040000  0 11                     
G05  22329926.610   117344582.028       -1972.476          44.000    22329926.777    91437322.899       -1537.322          39.000  
G06  25436669.421   133670638.661       -2787.927          44.000    25436686.181   104158969.142       -2172.170          39.000  
G12  25075283.158   131771527.896       -3673.999          40.000    25075290.397   102679142.729       -2862.732          37.000  
G11  23573401.441   123879072.978       -1939.394          40.000    23573408.212    96529158.131       -1511.372          31.000  
G19  26396264.529                       -5277.437          15.000                                                                  
G20  23393737.779   122934953.405       -2957.729          44.000                                                                  
G13  21819425.068   114661859.962         366.478          46.000                                                                  
G30  26716964.673   140398551.228        -673.871          30.000    26716979.251                        -528.000          23.000  
G15  23232858.970   122089528.320        1874.136          43.000    23232861.958    95134681.160        1460.258          36.000  
G29  24025526.737   126255030.673        1639.748          42.000    24025529.322    98380532.029        1277.925          38.000  
G24  27586845.255                         706.972          16.000                                                                  
> 2025 04 04 10 55 02.0040000  0 12                     
G05  22330302.010   117346554.569       -1973.183          45.000    22330302.223    91438859.916       -1537.490          39.000  
G06  25437199.978   133673426.463       -2788.407          41.000    25437216.763   104161141.492       -2172.614          38.000  
G12  25075982.259   131775201.617       -3674.042          41.000    25075989.442   102682005.373       -2862.939          37.000  
G11  23573770.512   123881012.040       -1939.756          37.000    23573777.255    96530669.069       -1511.270          32.000  
G19  26397276.220                       -5277.437          16.000                                                                  
G20  23394300.547   122937911.058       -2957.967          46.000                                                                  
G13  21819355.382   114661493.731         365.455          45.000                                                                  
G30  26717092.718   140399225.046        -673.839          31.000    26717108.189                        -522.657          22.000  
G15  23232502.336   122087654.283        1873.448          43.000    23232505.323    95133220.882        1460.140          36.000  
G23  26898860.072                         708.383          23.000                                                                  
G29  24025214.749   126253390.960        1639.000          42.000    24025217.254    98379254.375        1276.836          38.000  
G24  27586713.259                         706.972          17.000                                                                  
> 2025 04 04 10 55 03.0040000  0 12                     
G05  22330677.475   117348527.314       -1973.150          44.000    22330677.630    91440397.119       -1537.602          39.000  
G06  25437730.519   133676214.361       -2788.415          41.000    25437747.195   104163313.831       -2172.342          37.000  
G12  25076681.370   131778875.361       -3673.627          41.000    25076688.508   102684868.041       -2862.854          37.000  
G11  23574139.572   123882951.432       -1939.630          41.000    23574146.399    96532180.307       -1511.454          36.000  
G19  26398281.463                       -5277.437          16.000                                                                  
G20  23394863.374   122940868.664       -2957.504          43.000                                                                  
G13  21819285.699   114661128.077         365.385          46.000                                                                  
G30  26717220.820   140399899.041        -674.031          30.000    26717236.783                        -534.457          21.000  
G15  23232145.597   122085780.551        1873.541          43.000    23232148.823    95131760.843        1460.174          36.000  
G23  26898714.014                         708.383          21.000                                                                  
G29  24024902.770   126251751.540        1639.172          42.000    24024905.270    98377976.884        1277.398          38.000  
G24  27586576.426                         706.972          17.000                                                                  
> 2025 04 04 10 55 04.0040000  0 11                     
G05  22331052.855   117350499.756       -1972.449          45.000    22331053.148    91441934.081       -1536.669          39.000  
G06  25438260.947   133679001.921       -2787.442          42.000    25438277.614   104165485.955       -2171.726          38.000  
G12  25077380.325   131782548.631       -3673.071          41.000    25077387.564   102687730.348       -2862.286          37.000  
G11  23574508.547   123884890.573       -1938.943          43.000    23574515.428    96533691.319       -1511.008          39.000  
G19  26399284.210                       -5277.437          16.000                                                                  
G20  23395426.207   122943825.795       -2956.486          40.000                                                                  
G13  21819216.207   114660762.488         365.638          45.000                                                                  
G30  26717349.033   140400572.843        -673.611          29.000    26717366.280                        -526.363          22.000  
G15  23231789.047   122083906.645        1874.002          43.000    23231792.173    95130300.671        1460.313          36.000  
G29  24024590.733   126250111.934        1639.805          43.000    24024593.246    98376699.294        1277.469          38.000  
G24  27586441.144                         706.972          16.000                                                                  
> 2025 04 04 10 55 05.0040000  0 12                     
G05  22331428.106   117352472.145       -1972.644          44.000    22331428.542    91443471.024       -1537.033          39.000  
G06  25438791.397   133681789.426       -2787.638          38.000    25438808.154   104167658.155       -2172.932          37.000  
G12  25078079.230   131786221.703       -3673.212          41.000    25078086.496   102690592.443       -2861.938          37.000  
G11  23574877.550   123886829.777       -1939.287          39.000    23574884.533    96535202.361       -1511.412          36.000  
G19  26400290.200                       -5277.437          17.000                                                                  
G20  23395988.956   122946782.795       -2957.247          44.000                                                                  
G13  21819146.662   114660397.264         364.726          46.000                                                                  
G30  26717477.182   140401246.587        -674.077          30.000    26717493.819                        -530.618          22.000  
G15  23231432.566   122082032.832        1873.426          43.000    23231435.685    95128840.559        1459.782          36.000  
G23  26898439.542                         708.383          18.000                                                                  
G29  24024278.732   126248472.406        1639.115          43.000    24024281.249    98375421.725        1277.280          38.000  
G24  27586304.815                         706.972          15.000                                                                  
> 2025 04 04 10 55 06.0040000  0 13                     
G05  22331803.552   117354445.176       -1972.963          45.000    22331804.074    91445008.483       -1537.955          39.000  
G06  25439321.985   133684577.573       -2788.575          40.000    25439338.693   104169830.658       -2172.572          37.000  
G12  25078778.296   131789895.179       -3673.468          40.000    25078785.490   102693454.921       -2862.463          37.000  
G11  23575246.704   123888769.381       -1940.014          41.000    23575253.640    96536713.758       -1512.082          35.000  
G19  26401295.175                       -5277.437          18.000                                                                  
G20  23396551.652   122949740.061       -2957.167          43.000                                                                  
G13  21819077.370   114660033.014         363.878          45.000                                                                  
G30  26717605.333   140401921.033        -675.114          29.000    26717622.920                        -525.097          24.000  
G15  23231076.077   122080159.699        1872.947          43.000    23231079.262    95127380.988        1459.717          37.000  
G25  25198525.136                       -2746.938          18.000                                                                  
G23  26898305.912                         708.383          19.000                                                                  
G29  24023966.946   126246833.603        1638.734          43.000    24023969.387    98374144.731        1276.785          38.000  
G24  27586167.775                         706.972          16.000                                                                  
> 2025 04 04 10 55 07.0040000  0 11                     
G05  22332179.092   117356418.741       -1973.876          45.000    22332179.615    91446546.326       -1538.336          39.000  
G06  25439852.651   133687366.116       -2788.947          43.000    25439869.313   104172003.494       -2172.933          39.000  
G12  25079477.405   131793568.999       -3673.993          41.000    25079484.625   102696317.649       -2863.220          37.000  
G11  23575616.000   123890709.421       -1940.324          40.000    23575622.787    96538225.470       -1511.626          35.000  
G20  23397114.395   122952697.633       -2958.064          43.000                                                                  
G13  21819008.205   114659669.646         363.008          45.000                                                                  
G30  26717733.712   140402595.954        -675.271          29.000    26717752.046                        -525.879          24.000  
G15  23230719.735   122078287.209        1872.286          43.000    23230722.949    95125921.928        1458.483          36.000  
G23  26898172.044                         708.383          19.000                                                                  
G29  24023655.182   126245195.400        1637.848          43.000    24023657.667    98372868.239        1276.287          39.000  
G24  27586031.309                         706.972          16.000                                                                  
> 2025 04 04 10 55 08.0040000  0 12                     
G05  22332554.710   117358392.838       -1974.299          45.000    22332555.365    91448084.590       -1538.776          39.000  
G06  25440383.350   133690155.221       -2789.111          43.000    25440400.062   104174176.862       -2173.583          40.000  
G12  25080176.566   131797243.190       -3674.500          41.000    25080183.764   102699180.659       -2863.458          37.000  
G11  23575985.236   123892650.010       -1940.878          43.000    23575992.109    96539737.618       -1512.611          37.000  
G19  26402229.165                       -5272.001          21.000                                                                  
G20  23397677.107   122955655.529       -2957.911          43.000                                                                  
G13  21818939.284   114659307.202         361.962          45.000                                                                  
G30  26717862.205   140403271.524        -675.949          29.000    26717880.761                        -527.853          23.000  
G15  23230363.511   122076415.376        1871.666          43.000    23230366.740    95124463.331        1458.595          36.000  
G23  26898042.486                         708.383          18.000                                                                  
G29  24023343.532   126243557.866        1637.289          43.000    24023346.149    98371592.234        1275.905          39.000  
G24  27585898.149                         706.972          15.000                                                                  
> 2025 04 04 10 55 09.0040000  0 11                     
G05  22332930.492   117360367.617       -1974.981          45.000    22332931.213    91449623.352       -1538.945          39.000  
G06  25440914.264   133692944.885       -2789.679          41.000    25440930.903   104176350.656       -2174.089          40.000  
G12  25080875.837   131800917.837       -3674.701          41.000    25080883.029   102702044.025       -2863.422          37.000  
G11  23576354.725   123894591.224       -1941.327          44.000    23576361.488    96541250.272       -1512.836          39.000  
G20  23398240.034   122958613.841       -2958.280          44.000                                                                  
G13  21818870.511   114658945.779         361.201          45.000                                                                  
G30  26717990.688   140403947.718        -676.561          29.000    26718009.511                        -529.746          23.000  
G15  23230007.409   122074544.302        1870.914          43.000    23230010.683    95123005.360        1458.067          36.000  
G23  26897909.258                         708.383          17.000                                                                  
G29  24023032.136   126241921.084        1636.589          43.000    24023034.683    98370316.811        1275.413          39.000  
G24  27585765.155                         706.972          14.000                                                                  
> 2025 04 04 10 55 10.0040000  0 11                     
G05  22333306.437   117362342.669       -1975.362          45.000    22333307.144    91451162.361       -1538.958          39.000  
G06  25441445.248   133695734.834       -2790.277          41.000    25441461.696   104178524.596       -2174.327          40.000  
G12  25081575.088   131804592.658       -3675.037          41.000    25081582.226   102704907.519       -2863.879          36.000  
G11  23576724.301   123896532.742       -1941.985          45.000    23576730.906    96542763.141       -1513.104          39.000  
G20  23398802.930   122961572.228       -2958.537          43.000                                                                  
G13  21818801.837   114658585.044         360.190          45.000                                                                  
G30  26718119.271   140404624.324        -677.319          29.000    26718137.036                        -528.264          23.000  
G15  23229651.501   122072673.626        1870.326          43.000    23229654.616    95121547.685        1457.839          36.000  
G25  25200604.791                       -2746.938          19.000                                                                  
G23  26897772.079                         708.383          15.000                                                                  
G29  24022720.792   126240284.721        1635.748          43.000    24022723.255    98369041.740        1274.762          39.000  
> 2025 04 04 10 55 11.0040000  0 11                     
G05  22333682.381   117364318.160       -1975.885          44.000    22333683.181    91452701.712       -1539.927          39.000  
G06  25441976.233   133698525.063       -2790.531          43.000    25441992.618   104180698.801       -2174.103          37.000  
G12  25082274.514   131808267.663       -3675.262          41.000    25082281.549   102707771.159       -2864.117          36.000  
G11  23577093.877   123898474.590       -1941.939          44.000    23577100.378    96544276.268       -1513.240          39.000  
G20  23399365.899   122964530.822       -2958.603          43.000                                                                  
G13  21818733.266   114658225.068         359.594          45.000                                                                  
G30  26718248.137   140405301.302        -676.461          29.000    26718267.460                        -526.792          22.000  
G15  23229295.484   122070803.471        1869.697          42.000    23229298.730    95120090.458        1456.513          36.000  
G23  26897636.842                         708.383          17.000                                                                  
G29  24022409.363   126238648.859        1635.515          43.000    24022412.010    98367767.020        1274.748          38.000  
G24  27585417.056                         708.938          23.000                                                                  
> 2025 04 04 10 55 12.0040000  0 10                     
G05  22334058.316   117366293.736       -1975.707          45.000    22334059.147    91454241.120       -1539.428          39.000  
G06  25442507.223   133701315.489       -2790.373          37.000    25442523.660   104182873.145       -2173.942          34.000  
G12  25082973.687   131811942.545       -3674.689          41.000    25082980.751   102710634.703       -2863.287          36.000  
G11  23577463.382   123900416.504       -1942.185          44.000    23577469.817    96545789.464       -1513.562          38.000  
G20  23399928.735   122967489.232       -2958.295          43.000                                                                  
G13  21818664.770   114657865.548         359.258          45.000                                                                  
G30  26718377.114   140405978.470        -677.686          28.000    26718397.534                        -520.454          20.000  
G15  23228939.670   122068933.506        1869.877          42.000    23228942.758    95118633.327        1456.706          36.000  
G29  24022098.161   126237013.190        1635.307          42.000    24022100.709    98366492.505        1274.489          38.000  
G24  27585282.040                         708.938          20.000                                                                  
> 2025 04 04 10 55 13.0040000  0  9                     
G05  22334434.190   117368269.311       -1975.388          45.000    22334435.141    91455780.525       -1538.799          39.000  
G06  25443038.201   133704105.797       -2790.629          43.000    25443054.683   104185047.424       -2174.546          39.000  
G12  25083672.966   131815617.267       -3674.298          41.000    25083679.993   102713498.124       -2863.202          36.000  
G11  23577832.928   123902358.353       -1941.563          44.000    23577839.322    96547302.567       -1513.097          39.000  
G20  23400491.637   122970447.438       -2957.725          43.000                                                                  
G13  21818596.489   114657506.396         358.941          45.000                                                                  
G30  26718505.946   140406655.566        -676.831          28.000    26718527.089                        -525.216          20.000  
G15  23228583.875   122067063.655        1869.889          42.000    23228586.888    95117176.284        1457.471          36.000  
G29  24021786.873   126235377.611        1635.709          43.000    24021789.432    98365218.028        1274.551          39.000  
> 2025 04 04 10 55 14.0040000  0 11                     
G05  22334810.231   117370245.379       -1976.303          45.000    22334811.112    91457320.314       -1539.607          39.000  
G06  25443569.315   133706896.535       -2790.970          42.000    25443585.708   104187222.028       -2174.883          40.000  
G12  25084372.332   131819292.299       -3675.519          41.000    25084379.299   102716361.757       -2863.525          36.000  
G11  23578202.631   123904300.636       -1942.429          44.000    23578208.916    96548816.043       -1513.537          39.000  
G19  26408315.912                       -5291.614          22.000                                                                  
G20  23401054.596   122973405.935       -2958.678          43.000                                                                  
G13  21818528.297   114657148.085         357.860          45.000                                                                  
G30  26718635.028   140407333.234        -677.945          28.000    26718656.295                        -537.848          21.000  
G15  23228228.200   122065194.371        1868.932          43.000    23228231.213    95115719.722        1456.419          36.000  
G23  26899211.156                         730.500          23.000                                                                  
G29  24021475.817   126233742.626        1634.752          43.000    24021478.308    98363944.016        1273.863          39.000  
> 2025 04 04 10 55 15.0040000  0 10                     
G05  22335186.279   117372221.954       -1977.034          45.000    22335187.181    91458860.476       -1540.006          39.000  
G06  25444100.510   133709687.721       -2791.590          41.000    25444116.900   104189397.003       -2175.327          40.000  
G12  25085071.832   131822967.596       -3675.470          41.000    25085078.616   102719225.629       -2863.892          36.000  
G11  23578572.311   123906243.373       -1943.070          44.000    23578578.530    96550329.833       -1513.902          39.000  
G20  23401617.625   122976364.634       -2958.712          43.000                                                                  
G13  21818460.206   114656790.637         356.969          45.000                                                                  
G30  26718764.064   140408011.403        -678.411          28.000    26718784.184                        -529.184          22.000  
G15  23227872.577   122063325.687        1868.206          43.000    23227875.702    95114263.605        1455.742          36.000  
G29  24021164.705   126232108.224        1634.202          43.000    24021167.298    98362670.471        1272.911          39.000  
G24  27584886.529                         708.938          18.000                                                                  
> 2025 04 04 10 55 16.0040000  0 11                     
G05  22335562.508   117374199.258       -1977.409          45.000    22335563.433    91460401.266       -1540.841          39.000  
G06  25444631.772   133712479.576       -2792.135          42.000    25444648.053   104191572.445       -2175.574          39.000  
G12  25085771.373   131826643.410       -3675.696          41.000    25085778.152   102722089.932       -2864.313          36.000  
G11  23578942.200   123908186.803       -1943.649          43.000    23578948.392    96551844.194       -1514.206          38.000  
G20  23402180.773   122979323.885       -2959.348          43.000                                                                  
G13  21818392.330   114656434.284         355.919          45.000                                                                  
G30  26718893.177   140408690.416        -679.254          28.000    26718913.127                        -531.544          23.000  
G15  23227517.144   122061457.813        1867.855          43.000    23227520.331    95112808.139        1455.447          36.000  
G23  26899434.978                         693.648          21.000                                                                  
G29  24020853.878   126230474.649        1633.581          43.000    24020856.389    98361397.556        1272.695          39.000  
G24  27584745.571                         708.938          16.000                                                                  
> 2025 04 04 10 55 17.0040000  0 10                     
G05  22335938.922   117376176.989       -1978.392          45.000    22335939.873    91461942.362       -1541.429          39.000  
G06  25445163.124   133715271.792       -2792.512          43.000    25445179.338   104193748.182       -2176.062          40.000  
G12  25086470.946   131830319.475       -3676.208          41.000    25086477.622   102724954.398       -2865.088          36.000  
G11  23579312.266   123910130.678       -1944.324          41.000    23579318.327    96553358.898       -1515.025          37.000  
G20  23402743.975   122982283.268       -2959.458          43.000                                                                  
G13  21818324.614   114656078.682         355.101          45.000                                                                  
G30  26719022.677   140409369.748        -679.582          28.000    26719042.493                        -524.931          24.000  
G15  23227161.746   122059590.443        1867.232          41.000    23227164.987    95111353.050        1454.941          36.000  
G29  24020543.031   126228841.583        1632.837          43.000    24020545.646    98360125.040        1271.851          39.000  
G24  27584610.984                         708.938          13.000                                                                  
> 2025 04 04 10 55 18.0040000  0 10                     
G05  22336315.386   117378155.083       -1978.259          45.000    22336316.346    91463483.739       -1541.444          39.000  
G06  25445694.611   133718064.338       -2792.533          42.000    25445710.795   104195924.265       -2176.501          40.000  
G12  25087170.480   131833995.717       -3676.276          42.000    25087177.099   102727818.997       -2864.905          36.000  
G11  23579682.331   123912074.823       -1944.217          42.000    23579688.296    96554873.858       -1515.717          36.000  
G20  23403307.173   122985242.879       -2959.496          43.000                                                                  
G13  21818257.116   114655723.880         354.497          45.000                                                                  
G30  26719151.763   140410049.587        -679.600          29.000    26719170.250                        -529.777          25.000  
G15  23226806.529   122057723.622        1866.451          42.000    23226809.738    95109898.380        1454.476          37.000  
G29  24020232.383   126227209.025        1632.305          43.000    24020234.968    98358852.915        1272.001          39.000  
G24  27584483.969                         708.938          15.000                                                                  
> 2025 04 04 10 55 19.0040000  0 11                     
G05  22336691.855   117380133.714       -1979.029          44.000    22336692.948    91465025.550       -1542.271          39.000  
G06  25446226.003   133720857.370       -2793.352          42.000    25446242.339   104198100.655       -2177.076          40.000  
G12  25087870.191   131837672.289       -3676.971          41.000    25087876.666   102730683.862       -2865.363          36.000  
G11  23580052.451   123914019.437       -1944.972          41.000    23580058.360    96556389.149       -1515.778          35.000  
G20  23403870.425   122988202.723       -2960.085          42.000                                                                  
G13  21818189.742   114655369.912         353.343          45.000                                                                  
G30  26719281.113   140410729.906        -680.781          30.000    26719299.262   109411063.6991       -530.689          26.000  
G15  23226451.280   122055857.375        1865.916          43.000    23226454.584    95108444.157        1454.188          36.000  
G23  26899070.539                         693.648          18.000                                                                  
G29  24019921.815   126225577.055        1631.467          43.000    24019924.444    98357581.255        1271.294          39.000  
G24  27584362.354                         708.938          16.000                                                                  
> 2025 04 04 10 55 20.0040000  0 10                     
G05  22337068.452   117382112.679       -1978.987          45.000    22337069.514    91466567.587       -1542.136          39.000  
G06  25446757.571   133723650.677       -2792.996          42.000    25446773.881   104200277.241       -2176.492          39.000  
G12  25088569.907   131841348.979       -3676.465          41.000    25088576.278   102733548.805       -2864.398          36.000  
G11  23580422.696   123915964.342       -1945.084          41.000    23580428.448    96557904.595       -1515.560          36.000  
G20  23404433.611   122991162.658       -2959.688          42.000                                                                  
G13  21818122.467   114655016.655         353.063          45.000                                                                  
G30  26719410.445   140411410.613        -680.595          29.000    26719427.184   109411594.070        -530.526          26.000  
G15  23226096.168   122053991.550        1865.725          43.000    23226099.397    95106990.240        1454.624          36.000  
G29  24019611.325   126223945.517        1631.580          43.000    24019613.917    98356309.945        1271.062          39.000  
G24  27584221.473                         708.938          16.000                                                                  
> 2025 04 04 10 55 21.0040000  0 10                     
G05  22337445.139   117384091.648       -1979.366          45.000    22337446.139    91468109.645       -1542.406          39.000  
G06  25447289.129   133726443.978       -2793.483          41.000    25447305.572   104202453.845       -2176.685          39.000  
G12  25089269.531   131845025.495       -3676.672          41.000    25089275.853   102736413.651       -2865.052          36.000  
G11  23580792.949   123917909.166       -1944.921          41.000    23580798.628    96559420.074       -1515.584          36.000  
G20  23404996.811   122994122.389       -2959.613          42.000                                                                  
G13  21818055.309   114654663.790         352.576          45.000                                                                  
G30  26719539.862   140412091.327        -681.132          31.000    26719557.588   109412124.576        -531.229          26.000  
G15  23225741.085   122052125.840        1865.344          43.000    23225744.466    95105536.507        1453.163          36.000  
G29  24019300.918   126222314.120        1631.023          43.000    24019303.472    98355038.697        1271.076          39.000  
G24  27584083.937                         708.938          16.000                                                                  
> 2025 04 04 10 55 22.0040000  0  9                     
G05  22337821.861   117386071.128       -1979.602          45.000    22337822.810    91469652.089       -1542.373          39.000  
G06  25447820.775   133729237.699       -2793.820          41.000    25447837.214   104204630.800       -2177.096          39.000  
G12  25089969.231   131848702.348       -3676.733          41.000    25089975.521   102739278.700       -2864.532          36.000  
G11  23581163.073   123919854.507       -1945.345          41.000    23581168.827    96560935.949       -1515.885          35.000  
G20  23405560.065   122997082.413       -2959.907          42.000                                                                  
G13  21817988.251   114654311.769         351.720          45.000                                                                  
G30  26719669.249   140412772.644        -682.478          31.000    26719687.091   109412655.368        -530.692          25.000  
G15  23225386.145   122050260.734        1865.114          43.000    23225389.546    95104083.182        1453.182          37.000  
G29  24018990.581   126220683.293        1630.936          42.000    24018993.058    98353767.940        1270.555          39.000  
> 2025 04 04 10 55 23.0040000  0  9                     
G05  22338198.665   117388050.833       -1980.120          46.000    22338199.571    91471194.748       -1543.207          39.000  
G06  25448352.496   133732031.640       -2794.422          42.000    25448368.828   104206807.863       -2177.542          39.000  
G12  25090668.908   131852379.206       -3677.270          41.000    25090675.248   102742143.793       -2864.948          36.000  
G11  23581533.411   123921799.949       -1945.819          41.000    23581539.074    96562451.847       -1516.012          36.000  
G20  23406123.308   123000042.374       -2960.270          44.000                                                                  
G13  21817921.317   114653960.319         350.821          45.000                                                                  
G30  26719798.894   140413454.085        -682.664          30.000    26719815.977                        -531.325          26.000  
G15  23225031.289   122048395.947        1864.279          43.000    23225034.610    95102630.080        1452.389          37.000  
G29  24018680.299   126219052.802        1629.670          42.000    24018682.878    98352497.408        1270.409          39.000  
> 2025 04 04 10 55 24.0040000  0  9                     
G05  22338575.450   117390030.743       -1979.991          45.000    22338576.282    91472737.523       -1542.994          39.000  
G06  25448884.126   133734825.650       -2794.289          39.000    25448900.483   104208985.033       -2176.960          38.000  
G12  25091368.666   131856056.064       -3676.813          41.000    25091374.952   102745008.882       -2865.137          36.000  
G11  23581903.801   123923745.496       -1945.399          40.000    23581909.225    96563967.861       -1516.067          37.000  
G20  23406686.485   123003002.237       -2959.631          44.000                                                                  
G13  21817854.412   114653609.469         350.573          45.000                                                                  
G30  26719928.630   140414135.791        -681.991          30.000    26719946.534                        -531.098          26.000  
G15  23224676.537   122046531.459        1864.491          43.000    23224679.814    95101177.256        1452.684          36.000  
G29  24018370.082   126217422.598        1630.250          41.000    24018372.640    98351227.137        1270.061          39.000  
> 2025 04 04 10 55 25.0040000  0  9                     
G05  22338952.291   117392010.955       -1980.282          45.000    22338953.209    91474280.540       -1542.959          39.000  
G06  25449415.840   133737620.019       -2794.891          39.000    25449432.171   104211162.435       -2177.400          38.000  
G12  25092068.399   131859733.071       -3676.892          41.000    25092074.737   102747874.086       -2865.338          36.000  
G11  23582274.066   123925691.398       -1946.195          43.000    23582279.478    96565484.138       -1516.137          39.000  
G20  23407249.708   123005962.336       -2960.085          39.000                                                                  
G13  21817787.630   114653259.281         349.989          45.000                                                                  
G30  26720058.306   140414817.905        -682.393          29.000    26720077.416                        -532.159          26.000  
G15  23224321.774   122044667.414        1863.697          43.000    23224325.165    95099724.739        1452.241          36.000  
G29  24018059.879   126215792.810        1629.681          42.000    24018062.513    98349957.173        1269.903          39.000  
> 2025 04 04 10 55 26.0040000  0  9                     
G05  22339329.221   117393991.517       -1980.874          45.000    22339330.212    91475823.859       -1543.722          39.000  
G06  25449947.749   133740414.641       -2794.882          42.000    25449964.019   104213340.058       -2177.470          39.000  
G12  25092768.129   131863410.210       -3677.454          40.000    25092774.486   102750739.397       -2865.668          36.000  
G11  23582644.518   123927637.809       -1946.541          41.000    23582649.954    96567000.876       -1517.236          35.000  
G20  23407813.044   123008922.486       -2960.448          45.000                                                                  
G13  21817721.139   114652909.822         348.790          45.000                                                                  
G30  26720188.106   140415500.346        -683.049          30.000    26720207.521                        -531.961          26.000  
G15  23223967.105   122042803.798        1862.940          43.000    23223970.586    95098272.598        1451.561          37.000  
G29  24017749.775   126214163.474        1628.893          43.000    24017752.495    98348687.575        1269.149          39.000  
> 2025 04 04 10 55 27.0040000  0  9                     
G05  22339706.315   117395972.536       -1980.958          45.000    22339707.278    91477367.488       -1543.872          39.000  
G06  25450479.688   133743209.702       -2794.833          39.000    25450495.911   104215518.120       -2178.637          32.000  
G12  25093467.934   131867087.648       -3677.826          39.000    25093474.232   102753604.908       -2865.509          36.000  
G11  23583014.957   123929584.221       -1946.811          42.000    23583020.300    96568517.523       -1516.770          37.000  
G20  23408376.393   123011882.871       -2960.307          45.000                                                                  
G13  21817654.864   114652561.187         348.665          46.000                                                                  
G30  26720318.009   140416183.327        -683.171          29.000    26720338.681                        -530.534          25.000  
G15  23223612.540   122040940.770        1862.828          43.000    23223616.006    95096820.891        1451.357          34.000  
G29  24017439.840   126212534.719        1628.466          43.000    24017442.576    98347418.412        1269.136          39.000  
> 2025 04 04 10 55 28.0040000  0  9                     
G05  22340083.319   117397954.016       -1981.762          45.000    22340084.322    91478911.491       -1544.239          39.000  
G06  25451011.716   133746005.057       -2795.703          38.000    25451027.875   104217696.291       -2178.575          36.000  
G12  25094167.673   131870765.292       -3677.704          40.000    25094174.045   102756470.634       -2866.193          36.000  
G11  23583385.538   123931531.371       -1947.502          44.000    23583390.787    96570034.763       -1517.303          40.000  
G20  23408939.747   123014843.463       -2960.615          43.000                                                                  
G13  21817588.583   114652213.366         347.330          46.000                                                                  
G30  26720448.101   140416866.754        -683.981          29.000    26720468.149   109415849.7411       -532.556          26.000  
G15  23223258.193   122039078.268        1862.079          44.000    23223261.643    95095369.564        1451.257          36.000  
G29  24017130.023   126210906.484        1627.964          42.000    24017132.725    98346149.666        1268.408          39.000  
> 2025 04 04 10 55 29.0040000  0  9                     
G05  22340460.455   117399936.029       -1982.497          46.000    22340461.445    91480455.940       -1544.717          39.000  
G06  25451543.741   133748801.065       -2796.738          42.000    25451559.868   104219874.931       -2178.816          38.000  
G12  25094867.526   131874443.319       -3678.278          41.000    25094873.918   102759336.640       -2866.400          36.000  
G11  23583756.154   123933478.851       -1947.835          43.000    23583761.324    96571552.367       -1518.217          40.000  
G20  23409503.233   123017804.355       -2960.989          43.000                                                                  
G13  21817522.634   114651866.461         346.102          44.000                                                                  
G30  26720578.172   140417550.702        -684.072          28.000    26720597.772   109416382.762        -533.289          26.000  
G15  23222903.892   122037216.388        1861.645          44.000    23222907.364    95093918.795        1450.344          37.000  
G29  24016820.364   126209278.927        1627.139          41.000    24016823.025    98344881.437        1268.001          39.000  
> 2025 04 04 10 55 30.0040000  0 10                     
G05  22340837.712   117401918.526       -1982.625          46.000    22340838.774    91482000.743       -1545.079          39.000  
G06  25452075.914   133751597.426       -2796.642          44.000    25452092.092   104222053.943       -2179.077          39.000  
G12  25095567.412   131878121.620       -3678.271          41.000    25095573.725   102762202.839       -2866.205          36.000  
G11  23584126.847   123935426.860       -1948.313          45.000    23584132.011    96573070.245       -1517.931          38.000  
G20  23410066.706   123020765.536       -2961.145          44.000                                                                  
G13  21817456.774   114651520.405         345.886          42.000                                                                  
G30  26720708.086   140418235.297        -684.667          27.000    26720728.016   109416916.153        -533.512          26.000  
G15  23222549.687   122035355.152        1861.158          44.000    23222553.120    95092468.443        1450.488          37.000  
G25  25211055.876                       -2757.664          21.000                                                                  
G29  24016510.760   126207651.924        1626.762          42.000    24016513.487    98343613.635        1267.706          39.000  
> 2025 04 04 10 55 31.0040000  0 11                     
G05  22341215.066   117403901.243       -1983.194          45.000    22341216.101    91483545.714       -1545.254          39.000  
G06  25452608.056   133754393.984       -2796.920          44.000    25452624.335   104224233.157       -2179.885          34.000  
G12  25096267.430   131881799.955       -3678.265          41.000    25096273.624   102765069.058       -2866.181          36.000  
G11  23584497.685   123937375.022       -1948.356          44.000    23584502.650    96574588.282       -1518.367          40.000  
G19  26425108.674                       -5298.977          17.000                                                                  
G20  23410630.215   123023726.685       -2961.099          43.000                                                                  
G13  21817391.044   114651174.889         345.054          44.000                                                                  
G30  26720838.235   140418920.096        -685.098          27.000    26720858.036   109417449.697        -533.999          26.000  
G15  23222195.583   122033494.229        1860.569          44.000    23222199.086    95091018.379        1450.481          38.000  
G23  26896296.555                         703.694          17.000                                                                  
G29  24016201.299   126206025.268        1626.177          42.000    24016204.003    98342346.126        1267.447          39.000  
> 2025 04 04 10 55 32.0040000  0 10                     
G05  22341592.488   117405884.521       -1983.456          45.000    22341593.427    91485091.125       -1545.781          40.000  
G06  25453140.313   133757191.081       -2797.365          43.000    25453156.548   104226412.625       -2179.804          38.000  
G12  25096967.368   131885478.693       -3678.888          40.000    25096973.643   102767935.593       -2866.760          35.000  
G11  23584868.626   123939323.680       -1948.930          44.000    23584873.426    96576106.742       -1518.269          37.000  
G19  26426107.311                       -5298.977          17.000                                                                  
G20  23411193.751   123026688.152       -2961.642          43.000                                                                  
G13  21817325.546   114650830.343         344.122          45.000                                                                  
G30  26720968.617   140419605.484        -685.987          27.000    26720988.087   109417983.739        -533.996          26.000  
G15  23221841.691   122031633.949        1860.002          44.000    23221845.168    95089568.854        1448.941          38.000  
G29  24015891.907   126204399.266        1625.598          42.000    24015894.521    98341079.132        1266.605          39.000  
> 2025 04 04 10 55 33.0040000  0 10                     
G05  22341969.939   117407868.072       -1983.565          45.000    22341970.874    91486636.742       -1545.563          39.000  
G06  25453672.513   133759988.355       -2797.396          43.000    25453688.835   104228592.344       -2179.690          36.000  
G12  25097667.240   131889157.472       -3678.723          40.000    25097673.703   102770802.195       -2866.418          35.000  
G11  23585239.490   123941272.616       -1949.045          44.000    23585244.209    96577625.348       -1518.821          37.000  
G19  26427115.283                       -5298.977          17.000                                                                  
G20  23411757.318   123029649.689       -2961.639          43.000                                                                  
G13  21817260.108   114650486.504         343.737          42.000                                                                  
G30  26721099.300   140420291.124        -686.158          29.000    26721117.834   109418518.086        -534.992          25.000  
G15  23221487.677   122029774.060        1859.776          44.000    23221491.389    95088119.606        1449.217          38.000  
G29  24015582.462   126202773.640        1625.669          42.000    24015585.188    98339812.419        1266.661          39.000  
> 2025 04 04 10 55 34.0040000  0 11                     
G05  22342347.317   117409851.717       -1983.687          45.000    22342348.332    91488182.449       -1545.861          39.000  
G06  25454204.764   133762785.701       -2797.450          43.000    25454221.145   104230772.103       -2179.720          35.000  
G12  25098367.291   131892836.170       -3678.857          41.000    25098373.697   102773668.713       -2866.681          35.000  
G11  23585610.365   123943221.570       -1948.846          44.000    23585615.062    96579144.040       -1518.897          38.000  
G19  26428118.750                       -5298.977          15.000                                                                  
G20  23412320.806   123032611.091       -2961.350          42.000                                                                  
G13  21817194.769   114650143.058         343.459          42.000                                                                  
G30  26721229.714   140420976.860        -685.402          29.000    26721248.586   109419052.442        -535.077          24.000  
G15  23221133.774   122027914.385        1859.540          44.000    23221137.557    95086670.514        1448.909          37.000  
G29  24015273.070   126201148.226        1625.435          42.000    24015275.912    98338545.859        1266.394          39.000  
G25                                                                  25213169.234                       -2148.621          25.000  
> 2025 04 04 10 55 35.0040000  0 11                     
G05  22342724.762   117411835.200       -1983.271          46.000    22342725.845    91489728.025       -1545.389          39.000  
G06  25454737.104   133765582.839       -2796.806          43.000    25454753.523   104232951.705       -2179.160          36.000  
G12  25099067.076   131896514.481       -3678.106          40.000    25099073.615   102776534.945       -2866.321          35.000  
G11  23585981.201   123945170.318       -1948.599          44.000    23585985.873    96580662.554       -1519.028          38.000  
G19  26429126.352                       -5298.977          12.000                                                                  
G20  23412884.302   123035572.078       -2960.849          42.000                                                                  
G13  21817129.433   114649799.810         343.145          43.000                                                                  
G30  26721360.047   140421662.498        -685.374          30.000    26721378.816                        -533.015          23.000  
G15  23220779.915   122026054.624        1859.816          44.000    23220783.712    95085221.359        1448.918          37.000  
G29  24014963.663   126199522.728        1625.418          42.000    24014966.585    98337279.267        1266.351          39.000  
G25                                                                  25213693.015                       -2147.556          25.000  
> 2025 04 04 10 55 36.0040000  0 11                     
G05  22343102.083   117413818.579       -1983.004          46.000    22343103.263    91491273.517       -1545.102          39.000  
G06  25455269.416   133768379.830       -2796.617          43.000    25455285.800   104235131.240       -2179.659          35.000  
G12  25099766.900   131900192.517       -3677.399          40.000    25099773.560   102779400.927       -2865.705          35.000  
G11  23586351.907   123947118.923       -1948.255          44.000    23586356.600    96582180.941       -1518.327          38.000  
G19  26430133.740                       -5298.977          12.000                                                                  
G20  23413447.633   123038532.742       -2960.310          43.000                                                                  
G13  21817064.134   114649456.828         343.202          43.000                                                                  
G30  26721490.464   140422348.060        -685.230          30.000    26721507.279                        -535.504          23.000  
G15  23220425.993   122024194.882        1860.002          44.000    23220429.898    95083772.190        1449.335          37.000  
G29  24014654.304   126197897.233        1625.767          42.000    24014657.299    98336012.653        1266.503          39.000  
G25                                                                  25214216.305                       -2149.266          25.000  
> 2025 04 04 10 55 37.0040000  0 11                     
G05  22343479.573   117415802.072       -1983.855          46.000    22343480.754    91492819.108       -1546.143          39.000  
G06  25455801.739   133771176.907       -2797.294          41.000    25455818.078   104237310.768       -2179.471          35.000  
G12  25100466.726   131903870.449       -3678.162          40.000    25100473.458   102782266.856       -2866.016          35.000  
G11  23586722.724   123949067.605       -1948.939          44.000    23586727.479    96583699.384       -1518.819          38.000  
G19  26431142.344                       -5298.977          11.000                                                                  
G20  23414011.008   123041493.272       -2960.686          43.000                                                                  
G13  21816999.005   114649114.319         341.983          43.000                                                                  
G30  26721620.768   140423033.758        -685.370          29.000    26721638.079                        -533.937          23.000  
G15  23220072.118   122022335.334        1859.197          44.000    23220076.212    95082323.192        1448.845          38.000  
G25  25214699.039                       -2757.859          21.000    25214739.100                       -2149.326          25.000  
G29  24014344.966   126196271.956        1624.843          44.000    24014348.066    98334746.186        1266.202          39.000  
> 2025 04 04 10 55 38.0040000  0 10                     
G05  22343857.137   117417786.036       -1984.233          46.000    22343858.248    91494365.063       -1546.317          39.000  
G06  25456334.149   133773974.430       -2797.795          42.000    25456350.417   104239490.617       -2180.210          40.000  
G12  25101166.678   131907548.688       -3678.400          41.000    25101173.473   102785133.001       -2866.205          35.000  
G11  23587093.668   123951016.708       -1949.343          43.000    23587098.331    96585218.176       -1518.944          37.000  
G20  23414574.411   123044454.041       -2960.696          43.000                                                                  
G13  21816934.080   114648772.674         341.375          43.000                                                                  
G30  26721751.119   140423720.044        -686.444          29.000    26721768.751                        -542.755          22.000  
G15  23219718.358   122020476.374        1858.777          44.000    23219722.517    95080874.664        1448.418          37.000  
G25  25215214.752                       -2757.859          21.000    25215263.422                       -2149.154          25.000  
G29  24014035.687   126194647.236        1624.661          42.000    24014038.997    98333480.191        1266.155          39.000  
> 2025 04 04 10 55 39.0040000  0 10                     
G05  22344234.734   117419770.214       -1985.606          46.000    22344235.782    91495911.163       -1546.990          39.000  
G06  25456866.618   133776772.105       -2799.120          42.000    25456882.749   104241670.612       -2181.110          39.000  
G12  25101866.548   131911226.932       -3679.382          41.000    25101873.466   102787999.201       -2866.888          35.000  
G11  23587464.591   123952965.983       -1950.536          44.000    23587469.208    96586737.095       -1520.210          38.000  
G20  23415137.728   123047414.807       -2962.107          43.000                                                                  
G13  21816869.153   114648431.606         339.788          43.000                                                                  
G30  26721881.640   140424406.493        -686.836          28.000    26721899.126                        -533.546          22.000  
G15  23219364.677   122018617.767        1857.070          44.000    23219368.905    95079426.391        1447.161          38.000  
G29  24013726.629   126193022.856        1623.101          43.000    24013729.948    98332214.462        1264.550          39.000  
G25                                                                  25215787.324                       -2150.012          24.000  
> 2025 04 04 10 55 40.0040000  0 11                     
G05  22344612.212   117421753.890       -1983.568          46.000    22344613.280    91497456.880       -1545.681          39.000  
G06  25457398.956   133779569.193       -2796.891          42.000    25457414.942   104243850.170       -2179.436          40.000  
G12  25102566.296   131914904.504       -3677.423          40.000    25102573.352   102790864.821       -2865.295          35.000  
G11  23587835.431   123954914.717       -1948.544          44.000    23587840.003    96588255.577       -1518.366          38.000  
G20  23415700.985   123050374.848       -2959.730          44.000                                                                  
G13  21816804.272   114648090.402         341.279          43.000                                                                  
G30  26722011.953   140425092.534        -685.619          27.000    26722029.053                        -536.172          22.000  
G15  23219010.937   122016758.716        1859.078          44.000    23219015.208    95077977.785        1448.911          38.000  
G23  26893517.733                         700.938          14.000                                                                  
G29  24013417.381   126191398.078        1625.008          43.000    24013420.738    98330948.388        1266.000          39.000  
G25                                                                  25216311.085                       -2148.442          23.000  
> 2025 04 04 10 55 41.0040000  0 11                     
G05  22344989.771   117423737.544       -1983.641          46.000    22344990.703    91499002.588       -1545.699          39.000  
G06  25457931.188   133782366.237       -2797.328          42.000    25457947.122   104246029.687       -2179.504          39.000  
G12  25103266.112   131918581.848       -3677.319          41.000    25103273.144   102793730.279       -2865.039          35.000  
G11  23588206.326   123956863.410       -1948.728          44.000    23588210.746    96589774.052       -1518.755          38.000  
G20  23416264.226   123053334.633       -2959.642          43.000                                                                  
G13  21816739.508   114647749.540         340.766          43.000                                                                  
G30  26722142.297   140425778.544        -685.840          27.000    26722158.550                        -530.258          22.000  
G15  23218657.240   122014899.782        1858.782          44.000    23218661.405    95076529.282        1448.162          37.000  
G23  26893376.209                         700.938          11.000                                                                  
G29  24013108.146   126189773.394        1624.488          43.000    24013111.668    98329682.398        1265.931          38.000  
G25                                                                  25216836.414                       -2150.146          22.000  
> 2025 04 04 10 55 42.0040000  0 10                     
G05  22345367.241   117425720.876       -1983.300          46.000    22345368.137    91500548.032       -1545.206          40.000  
G06  25458463.441   133785162.906       -2796.666          42.000    25458479.283   104248208.915       -2179.101          39.000  
G12  25103965.849   131922258.655       -3676.684          42.000    25103972.873   102796595.348       -2865.082          35.000  
G11  23588577.074   123958811.721       -1948.210          44.000    23588581.422    96591292.197       -1518.196          38.000  
G20  23416827.400   123056293.822       -2958.943          43.000                                                                  
G13  21816674.718   114647408.736         340.729          43.000                                                                  
G30  26722272.687   140426464.252        -685.697          27.000    26722289.276                        -528.725          22.000  
G15  23218303.434   122013040.573        1859.309          44.000    23218307.752    95075080.538        1449.123          37.000  
G23  26893248.273                         700.938          14.000                                                                  
G29  24012798.850   126188148.479        1624.767          43.000    24012802.399    98328416.229        1266.092          38.000  
> 2025 04 04 10 55 43.0040000  0  9                     
G05  22345744.569   117427703.706       -1982.622          46.000    22345745.562    91502093.123       -1545.251          39.000  
G06  25458995.527   133787959.069       -2796.141          40.000    25459011.202   104250387.678       -2178.493          39.000  
G12  25104665.397   131925934.735       -3676.007          41.000    25104672.416   102799459.846       -2864.569          35.000  
G11  23588947.700   123960759.456       -1947.965          43.000    23588951.958    96592809.980       -1517.815          35.000  
G20  23417390.401   123059252.302       -2958.362          43.000                                                                  
G13  21816609.900   114647067.720         340.854          44.000                                                                  
G30  26722402.861   140427149.501        -685.336          27.000    26722418.477                        -533.590          22.000  
G15  23217949.566   122011181.007        1859.578          44.000    23217953.911    95073631.530        1449.384          37.000  
G29  24012489.478   126186523.129        1625.366          43.000    24012493.242    98327149.722        1266.671          39.000  
> 2025 04 04 10 55 44.0040000  0 11                     
G05  22346121.948   117429686.534       -1983.350          46.000    22346122.836    91503638.165       -1545.046          39.000  
G06  25459527.715   133790755.109       -2795.475          39.000    25459543.271   104252566.535       -2179.146          35.000  
G12  25105364.864   131929610.621       -3675.879          41.000    25105371.822   102802324.161       -2864.319          35.000  
G11  23589318.284   123962707.105       -1947.939          46.000    23589322.495    96594327.516       -1517.722          41.000  
G20  23417953.274   123062210.466       -2958.347          44.000                                                                  
G13  21816545.038   114646727.153         340.111          47.000                                                                  
G30  26722533.260   140427834.662        -685.596          27.000    26722547.790                        -531.162          22.000  
G15  23217595.776   122009321.497        1859.167          43.000    23217600.083    95072182.599        1448.802          37.000  
G25  25218387.498                       -2760.241          21.000                                                                  
G23  26893538.710                         699.984          22.000                                                                  
G29  24012180.270   126184897.855        1624.998          43.000    24012184.085    98325883.300        1266.183          39.000  
> 2025 04 04 10 55 45.0040000  0 10                     
G05  22346499.449   117431669.842       -1983.595          46.000    22346500.181    91505183.628       -1545.669          39.000  
G06  25460059.944   133793551.658       -2796.606          39.000    25460075.318   104254745.578       -2179.219          38.000  
G12  25106064.441   131933286.829       -3676.105          42.000    25106071.379   102805188.755       -2864.673          35.000  
G11  23589688.951   123964655.171       -1948.343          44.000    23589693.155    96595845.426       -1518.234          39.000  
G20  23418516.278   123065168.991       -2958.725          43.000                                                                  
G13  21816480.488   114646387.409         339.341          47.000                                                                  
G15  23217242.076   122007462.606        1858.419          44.000    23217246.379    95070734.113        1448.483          38.000  
G25  25218917.397                       -2762.542          22.000                                                                  
G29  24011871.121   126183273.229        1624.498          42.000    24011874.887    98324617.318        1265.873          39.000  
G30                                                                  26722677.280                        -531.701          22.000  
> 2025 04 04 10 55 46.0040000  0 10                     
G05  22346877.042   117433653.488       -1983.909          45.000    22346877.556    91506729.288       -1545.322          39.000  
G06  25460592.118   133796348.386       -2796.604          40.000    25460607.499   104256924.852       -2179.561          35.000  
G12  25106763.935   131936963.149       -3675.909          41.000    25106771.011   102808053.396       -2864.386          35.000  
G11  23590059.975   123966603.893       -1948.825          35.000    23590063.930                       -1518.857          26.000  
G20  23419079.261   123068127.595       -2958.199          45.000                                                                  
G13  21816416.025   114646048.354         338.872          46.000                                                                  
G15  23216888.445   122005604.142        1858.314          44.000    23216892.770    95069285.973        1448.187          37.000  
G25  25219443.623                       -2757.313          22.000                                                                  
G29  24011562.047   126181648.997        1624.202          43.000    24011565.795    98323351.735        1265.293          39.000  
G30                                                                  26722809.568                        -535.280          24.000  
> 2025 04 04 10 55 47.0040000  0 10                     
G05  22347254.587   117435637.234       -1984.377          46.000    22347255.121    91508275.103       -1546.349          39.000  
G06  25461124.413   133799145.000       -2795.406          31.000    25461139.726   104259104.191       -2178.797          28.000  
G12  25107463.546   131940639.387       -3676.220          42.000    25107470.637   102810918.030       -2864.282          35.000  
G11  23590430.932   123968552.200       -1948.551          41.000    23590434.196                       -1519.223          31.000  
G20  23419642.230   123071086.083       -2958.545          46.000                                                                  
G13  21816351.638   114645709.723         337.936          43.000                                                                  
G15  23216534.823   122003745.910        1857.855          44.000    23216539.279    95067837.996        1448.427          38.000  
G25  25219969.340                       -2758.788          21.000                                                                  
G29  24011252.966   126180024.999        1623.698          43.000    24011256.663    98322086.267        1265.403          39.000  
G30                                                                  26722940.923                        -531.052          22.000  
> 2025 04 04 10 55 48.0040000  0  9                     
G05  22347632.299   117437621.667       -1985.044          45.000    22347632.725    91509821.419       -1546.484          39.000  
G06  25461656.852   133801942.564       -2797.671          43.000    25461672.005   104261283.982       -2179.828          38.000  
G12  25108163.282   131944315.994       -3676.587          41.000    25108170.371   102813782.968       -2865.167          35.000  
G11  23590801.926   123970501.390       -1949.519          42.000    23590804.168    96600399.0681      -1518.405          34.000  
G20  23420205.305   123074044.930       -2959.186          43.000                                                                  
G13  21816287.518   114645363.7283        337.074          40.000                                                                  
G30  26723033.937                        -683.258          22.000    26723070.095                        -540.651          21.000  
G15  23216181.367   122001888.527        1855.855          37.000    23216185.886    95066390.642        1447.272          32.000  
G29  24010944.072   126178401.699        1623.025          43.000    24010947.740    98320821.375        1264.560          40.000  
> 2025 04 04 10 55 49.0040000  0 11                     
G05  22348009.795   117439606.135       -1983.962          46.000    22348010.400    91511367.734       -1546.069          39.000  
G06  25462189.188   133804740.125       -2797.183          44.000    25462204.303   104263463.950       -2180.041          38.000  
G12  25108862.926   131947992.746       -3676.160          33.000    25108870.131   102816647.949       -2865.131          30.000  
G11  23591172.886   123972450.549       -1948.857          42.000    23591175.760    96601917.897       -1518.631          35.000  
G20  23420768.288   123077003.717       -2958.504          45.000                                                                  
G13  21816223.226   114645026.1211        337.085          47.000                                                                  
G15  23215827.942   122000031.181        1857.245          36.000    23215832.603    95064943.421        1447.605          28.000  
G23  26892856.383                         724.032          12.000                                                                  
G29  24010635.313   126176778.630        1623.490          44.000    24010638.897    98319556.671        1265.203          40.000  
G24  27581896.778                         703.692          17.000                                                                  
G30                                                                  26723200.920                        -535.947          23.000  
> 2025 04 04 10 55 50.0040000  0 11                     
G05  22348387.438   117441590.470       -1984.052          45.000    22348387.961    91512914.014       -1546.109          39.000  
G06  25462721.434   133807537.400       -2797.099          44.000    25462736.491   104265643.654       -2179.862          38.000  
G12  25109562.628   131951669.002       -3676.361          35.000    25109569.851   102819512.489       -2864.325          29.000  
G11  23591543.811   123974399.496       -1948.855          42.000    23591548.567    96603436.519       -1518.858          36.000  
G20  23421331.243   123079962.065       -2958.112          40.000                                                                  
G13  21816159.080   114644689.232         336.724          47.000                                                                  
G15  23215474.612   121998173.980        1857.715          33.000    23215479.131    95063496.251        1447.032          28.000  
G23  26892722.488                         712.680          11.000                                                                  
G29  24010326.468   126175155.557        1623.152          44.000    24010330.008    98318291.887        1264.934          40.000  
G24  27581774.394                         703.692          15.000                                                                  
G30                                                                  26723330.852                        -536.268          25.000  
> 2025 04 04 10 55 51.0040000  0 12                     
G05  22348765.016   117443574.966       -1984.692          46.000    22348765.623    91514460.326       -1546.686          39.000  
G06  25463253.659   133810334.785       -2797.906          43.000    25463268.832   104267823.392       -2179.580          38.000  
G12  25110262.176   131955345.194       -3676.025          34.000    25110269.454   102822377.129       -2864.960          29.000  
G11  23591914.675   123976348.524       -1949.366          42.000    23591919.671    96604955.254       -1518.896          37.000  
G20  23421894.298   123082920.320       -2958.445          41.000                                                                  
G13  21816094.989   114644352.868         335.660          48.000                                                                  
G15  23215121.253   121996316.769        1856.188          33.000    23215125.722    95062049.049        1447.374          28.000  
G23  26892585.776                         712.680          12.000                                                                  
G29  24010017.719   126173532.692        1622.471          44.000    24010021.219    98317027.321        1264.302          39.000  
G24  27581642.921                         703.692          15.000                                                                  
G30                                                                  26723460.933                        -535.812          26.000  
G25                                                                  25222081.296                       -2144.410          17.000  
> 2025 04 04 10 55 52.0040000  0 12                     
G05  22349142.697   117445559.961       -1985.057          47.000    22349143.370    91516007.117       -1547.057          39.000  
G06  25463786.128   133813132.647       -2797.756          43.000    25463801.286   104270003.582       -2180.474          40.000  
G12  25110961.868   131959021.674       -3676.086          32.000    25110969.103   102825241.961       -2865.045          28.000  
G11  23592285.703   123978298.080       -1949.777          42.000    23592290.277    96606474.390       -1518.787          38.000  
G20  23422457.280   123085878.842       -2958.389          43.000                                                                  
G13  21816031.134   114644017.391         335.209          47.000                                                                  
G15  23214768.495   121994460.222        1856.550          38.000    23214772.423    95060602.343        1447.466          28.000  
G23  26892452.241                         712.680          12.000                                                                  
G29  24009709.066   126171910.437        1622.176          43.000    24009712.581    98315763.250        1263.995          40.000  
G24  27581505.169                         703.692          14.000                                                                  
G30                                                                  26723591.021                        -536.563          26.000  
G25                                                                  25222604.471                       -2145.986          15.000  
> 2025 04 04 10 55 53.0040000  0 11                     
G05  22349520.293   117447544.842       -1984.751          46.000    22349521.008    91517553.800       -1546.860          38.000  
G06  25464318.440   133815930.372       -2797.714          43.000    25464333.618   104272183.613       -2180.524          40.000  
G12  25111661.386   131962697.876       -3676.135          33.000    25111668.519   102828106.511       -2864.075          27.000  
G11  23592656.629   123980247.441       -1949.393          42.000    23592660.873    96607993.363       -1518.869          37.000  
G20  23423020.337   123088837.071       -2958.277          43.000                                                                  
G13  21815967.473   114643682.147         335.077          46.000                                                                  
G30  26723723.296                        -684.304          28.000    26723720.331                        -536.309          26.000  
G15  23214415.597   121992603.817        1856.287          38.000    23214419.427    95059155.850        1446.339          32.000  
G23  26892316.841                         712.680          12.000                                                                  
G29  24009400.461   126170288.194        1622.150          43.000    24009403.933    98314499.168        1264.347          40.000  
G24  27581367.375                         703.692          13.000                                                                  
> 2025 04 04 10 55 54.0040000  0 10                     
G05  22349897.966   117449529.841       -1985.530          47.000    22349898.790    91519100.528       -1547.253          39.000  
G06  25464850.824   133818728.143       -2798.282          43.000    25464865.969   104274363.683       -2180.502          40.000  
G12  25112360.993   131966374.056       -3677.246          33.000    25112368.083   102830971.075       -2864.301          27.000  
G11  23593027.686   123982196.896       -1950.056          41.000    23593032.240    96609512.406       -1519.299          35.000  
G20  23423583.303   123091795.126       -2958.170          43.000                                                                  
G13  21815903.723   114643347.425         333.852          47.000                                                                  
G30  26723861.435                        -684.304          27.000    26723851.567                        -536.118          26.000  
G15  23214062.481   121990747.504        1856.184          37.000    23214066.458    95057709.443        1446.250          31.000  
G29  24009091.830   126168666.138        1621.470          44.000    24009095.268    98313235.241        1263.493          39.000  
G24  27581234.675                         703.692          12.000                                                                  
> 2025 04 04 10 55 55.0040000  0 12                     
G05  22350275.814   117451515.454       -1985.886          47.000    22350276.518    91520647.781       -1547.977          37.000  
G06  25465383.290   133821526.489       -2798.541          43.000    25465398.490   104276544.202       -2180.596          40.000  
G12  25113060.567   131970050.649       -3677.563          32.000    25113067.589   102833835.886       -2864.936          26.000  
G11  23593398.784   123984146.884       -1950.285          42.000    23593403.352    96611031.897       -1519.538          38.000  
G19  26448339.643                       -5292.166          12.000                                                                  
G20  23424146.258   123094753.615       -2958.727          43.000                                                                  
G13  21815840.243   114643013.681         333.153          46.000                                                                  
G15  23213709.627   121988891.958        1855.600          38.000    23213713.692    95056263.526        1445.514          29.000  
G23  26892048.311                         712.680          12.000                                                                  
G29  24008783.441   126167044.838        1621.055          44.000    24008786.694    98311971.895        1262.858          39.000  
G24  27581099.520                         703.692          13.000                                                                  
G30                                                                  26723981.911                        -537.394          26.000  
> 2025 04 04 10 55 56.0040000  0 11                     
G05  22350653.679   117453501.470       -1986.340          46.000    22350654.396    91522195.336       -1547.813          36.000  
G06  25465915.897   133824325.194       -2798.870          43.000    25465931.223   104278725.051       -2181.053          39.000  
G12  25113760.192   131973727.385       -3677.728          31.000    25113767.086   102836700.888       -2865.436          26.000  
G11  23593769.843   123986097.280       -1950.821          42.000    23593774.373    96612551.668       -1520.054          37.000  
G19  26449349.949                       -5292.166          11.000                                                                  
G20  23424709.264   123097712.284       -2958.927          43.000                                                                  
G13  21815776.862   114642680.680         332.499          48.000                                                                  
G15  23213356.855   121987036.964        1854.058          31.000    23213360.705    95054818.109        1445.590          31.000  
G23  26891911.011                         712.680          13.000                                                                  
G29  24008474.967   126165424.041        1620.322          44.000    24008478.215    98310708.911        1262.895          39.000  
G30                                                                  26724112.431                        -536.219          25.000  
> 2025 04 04 10 55 57.0040000  0 11                     
G05  22351031.736   117455487.767       -1986.151          46.000    22351032.328    91523743.067       -1547.685          37.000  
G06  25466448.508   133827124.113       -2798.874          43.000    25466463.769   104280906.027       -2181.114          39.000  
G12  25114459.900   131977404.153       -3676.941          32.000    25114466.663   102839565.978       -2865.094          27.000  
G11  23594141.004   123988047.865       -1950.310          42.000    23594145.470    96614071.616       -1520.190          37.000  
G19  26450359.350                       -5292.166          11.000                                                                  
G20  23425272.152   123100670.921       -2958.481          43.000                                                                  
G13  21815713.522   114642348.353         332.306          47.000                                                                  
G30  26724224.926   140436749.8053       -689.402          27.000    26724242.949                        -536.891          24.000  
G15  23213004.181   121985182.286        1854.476          32.000    23213007.778    95053372.910        1446.104          32.000  
G23  26891774.315                         712.680          11.000                                                                  
G29  24008166.549   126163803.612        1620.427          43.000    24008169.892    98309446.252        1262.450          39.000  
> 2025 04 04 10 55 58.0040000  0 10                     
G05  22351409.710   117457473.959       -1986.328          46.000    22351410.261    91525290.719       -1547.557          37.000  
G06  25466981.048   133829922.903       -2798.719          43.000    25466996.311   104283086.902       -2181.267          40.000  
G12  25115159.318   131981080.641       -3676.276          29.000    25115166.408   102842430.864       -2864.771          27.000  
G11  23594512.196   123989998.349       -1950.661          42.000    23594516.701    96615591.467       -1520.021          36.000  
G19  26451369.635                       -5292.166          12.000                                                                  
G20  23425835.122   123103629.306       -2958.833          41.000                                                                  
G13  21815650.408   114642016.259         331.737          48.000                                                                  
G15  23212651.516   121983327.629        1854.815          33.000    23212655.031    95051927.770        1444.713          33.000  
G29  24007858.211   126162183.177        1620.668          43.000    24007861.508    98308183.587        1262.996          40.000  
G30                                                                  26724373.876                        -538.448          24.000  
> 2025 04 04 10 55 59.0040000  0 11                     
G05  22351787.767   117459460.272       -1986.756          46.000    22351788.200    91526838.512       -1548.018          37.000  
G06  25467513.644   133832721.817       -2799.140          41.000    25467528.996   104285267.841       -2180.550          37.000  
G12  25115859.080   131984757.071       -3675.238          30.000    25115865.861   102845295.640       -2863.849          25.000  
G11  23594883.310   123991948.840       -1950.994          44.000    23594887.797    96617111.339       -1519.756          36.000  
G19  26452381.478                       -5292.166          15.000                                                                  
G20  23426398.004   123106587.524       -2957.950          45.000                                                                  
G13  21815587.351   114641684.682         331.027          48.000                                                                  
G15  23212298.873   121981473.259        1853.605          37.000    23212302.234    95050482.776        1444.277          31.000  
G23  26891507.719                         712.680          14.000                                                                  
G29  24007549.799   126160562.977        1620.196          43.000    24007553.212    98306921.103        1262.443          40.000  
G30                                                                  26724505.587                        -536.791          25.000  
> 2025 04 04 10 56 00.0040000  0 10                     
G05  22352165.808   117461446.890       -1987.317          46.000    22352166.225    91528386.543       -1548.251          37.000  
G06  25468046.297   133835520.951       -2799.775          40.000    25468061.663   104287448.970       -2181.260          37.000  
G12  25116559.035   131988433.747       -3677.264          30.000    25116565.294   102848160.475       -2864.862          24.000  
G11  23595254.383   123993899.601       -1951.409          42.000    23595259.061    96618631.413       -1520.571          35.000  
G20  23426961.033   123109545.907       -2958.911          43.000                                                                  
G13  21815524.445   114641353.804         330.092          48.000                                                                  
G15  23211946.389   121979619.314        1853.074          37.000    23211949.518    95049038.071        1444.769          30.000  
G23  26891372.095                         712.680          15.000                                                                  
G29  24007241.657   126158943.241        1619.208          43.000    24007244.946    98305658.980        1261.673          40.000  
G30                                                                  26724638.170                        -537.675          26.000  
> 2025 04 04 10 56 01.0040000  0  9                     
G05  22352543.921   117463434.111       -1987.206          46.000    22352544.377    91529935.029       -1548.496          37.000  
G06  25468579.046   133838320.671       -2799.597          41.000    25468594.424   104289630.588       -2181.747          37.000  
G12  25117258.846   131992110.785       -3677.863          30.000    25117265.053   102851025.703       -2865.088          25.000  
G11  23595625.611   123995850.957       -1951.250          45.000    23595630.402    96620151.949       -1520.292          38.000  
G20  23427524.135   123112504.578       -2958.678          43.000                                                                  
G13  21815461.714   114641023.881         329.657          48.000                                                                  
G15  23211593.923   121977765.975        1853.681          37.000    23211596.881    95047594.008        1444.095          29.000  
G29  24006933.578   126157324.186        1619.108          42.000    24006936.804    98304397.363        1261.772          40.000  
G30                                                                  26724770.226                        -538.609          26.000  
> 2025 04 04 10 56 02.0040000  0  9                     
G05  22352922.184   117465421.602       -1987.563          46.000    22352922.630    91531483.689       -1548.604          37.000  
G06  25469111.822   133841120.573       -2799.767          40.000    25469127.242   104291812.369       -2181.943          38.000  
G12  25117958.772   131995787.841       -3677.203          30.000    25117964.764   102853890.947       -2865.515          26.000  
G11  23595996.908   123997802.609       -1951.771          46.000    23596001.616    96621672.696       -1520.555          39.000  
G20  23428087.215   123115463.308       -2958.558          43.000                                                                  
G13  21815399.150   114640694.615         329.046          48.000                                                                  
G15  23211241.362   121975913.127        1852.436          36.000    23211244.380    95046150.180        1443.882          29.000  
G29  24006625.650   126155705.504        1618.921          43.000    24006628.736    98303136.084        1260.712          38.000  
G30                                                                  26724901.347   109434003.2831       -538.071          26.000  
> 2025 04 04 10 56 03.0040000  0  9                     
G05  22353300.471   117467409.610       -1988.272          46.000    22353300.933    91533032.795       -1549.516          37.000  
G06  25469644.741   133843921.011       -2800.864          43.000    25469660.119   104293994.468       -2182.250          39.000  
G12  25118658.349   131999465.255       -3676.843          31.000    25118664.567   102856756.398       -2865.411          27.000  
G11  23596368.295   123999754.686       -1952.159          46.000    23596373.059    96623193.814       -1521.264          40.000  
G20  23428650.311   123118422.371       -2959.407          43.000                                                                  
G13  21815336.666   114640366.229         327.996          47.000                                                                  
G15  23210889.076   121974060.785        1852.043          36.000    23210891.886    95044706.868        1442.708          29.000  
G29  24006317.813   126154087.464        1617.849          43.000    24006320.902    98301875.259        1260.490          39.000  
G30                                                                  26725032.850   109434541.706        -537.850          26.000  
> 2025 04 04 10 56 04.0040000  0  9                     
G05  22353678.882   117469398.219       -1989.121          47.000    22353679.464    91534582.380       -1549.927          37.000  
G06  25470177.699   133846721.972       -2801.433          43.000    25470193.140   104296177.048       -2182.678          40.000  
G12  25119358.301   132003143.012       -3678.210          32.000    25119364.231                       -2866.555          25.000  
G11  23596739.886   124001707.358       -1953.098          45.000    23596744.656    96624715.395       -1522.166          40.000  
G20  23429213.459   123121381.743       -2959.550          43.000                                                                  
G13  21815274.350   114640038.805         326.853          46.000                                                                  
G15  23210536.909   121972209.211        1851.204          36.000    23210539.764    95043264.065        1442.258          28.000  
G29  24006010.078   126152470.119        1616.831          42.000    24006013.112    98300615.003        1259.504          39.000  
G30                                                                  26725166.046   109435080.737        -538.978          25.000  
> 2025 04 04 10 56 05.0040000  0  9                     
G05  22354057.409   117471387.461       -1989.436          47.000    22354057.961    91536132.444       -1550.151          37.000  
G06  25470710.791   133849523.553       -2801.651          42.000    25470726.300   104298360.107       -2182.853          38.000  
G12  25120058.530   132006821.285       -3677.710          33.000    25120065.424                       -2867.911          25.000  
G11  23597111.602   124003660.613       -1953.307          45.000    23597116.244    96626237.386       -1522.056          40.000  
G20  23429776.767   123124341.630       -2959.913          43.000                                                                  
G13  21815212.201   114639712.424         326.062          47.000                                                                  
G15  23210184.762   121970358.415        1850.853          40.000    23210187.641    95041821.805        1442.339          29.000  
G29  24005702.394   126150853.513        1616.379          41.000    24005705.499    98299355.305        1259.722          39.000  
G30                                                                  26725297.686   109435620.281        -540.298          25.000  
> 2025 04 04 10 56 06.0040000  0 10                     
G05  22354436.090   117473377.188       -1990.005          47.000    22354436.596    91537682.864       -1550.592          38.000  
G06  25471244.051   133852325.555       -2802.246          42.000    25471259.454   104300543.488       -2183.715          39.000  
G12  25120758.838   132010499.766       -3677.496          32.000    25120764.901                       -2874.101          22.000  
G11  23597483.361   124005614.318       -1953.988          46.000    23597487.999    96627759.765       -1522.620          40.000  
G19  26458352.526                       -5290.058          16.000                                                                  
G20  23430340.120   123127301.667       -2960.229          44.000                                                                  
G13  21815150.206   114639386.874         325.034          46.000                                                                  
G15  23209832.695   121968508.263        1849.908          37.000    23209835.855    95040380.126        1441.591          30.000  
G29  24005394.741   126149237.516        1615.699          42.000    24005397.902    98298096.075        1259.118          38.000  
G30                                                                  26725430.649   109436160.177        -540.261          26.000  
> 2025 04 04 10 56 07.0040000  0 10                     
G05  22354814.578   117475367.377       -1990.318          47.000    22354815.271    91539233.723       -1551.168          40.000  
G06  25471777.309   133855127.963       -2802.413          42.000    25471792.635   104302727.194       -2183.735          38.000  
G11  23597855.154   124007568.436       -1953.998          46.000    23597859.737    96629282.400       -1522.246          40.000  
G19  26459355.561                       -5290.058          16.000                                                                  
G20  23430903.447   123130261.987       -2960.385          44.000                                                                  
G13  21815088.430   114639062.089         324.443          47.000                                                                  
G15  23209480.833   121966658.653        1850.434          37.000    23209483.954    95038938.906        1441.497          29.000  
G29  24005087.346   126147622.088        1615.042          42.000    24005090.513    98296837.304        1258.287          40.000  
G12                                                                  25121464.535                       -2868.848          30.000  
G30                                                                  26725562.626   109436700.454        -540.875          26.000  
> 2025 04 04 10 56 08.0040000  0 11                     
G05  22355193.260   117477357.868       -1990.792          46.000    22355193.991    91540784.724       -1550.986          39.000  
G06  25472310.684   133857930.555       -2802.272          39.000    25472325.954   104304911.046       -2183.657          37.000  
G12  25122159.216   132017837.4241      -3679.016          41.000    25122162.366   102871054.9251      -2866.730          33.000  
G11  23598227.081   124009522.721       -1954.504          47.000    23598231.518    96630805.264       -1522.821          41.000  
G19  26460360.838                       -5290.058          15.000                                                                  
G20  23431466.744   123133222.309       -2960.099          44.000                                                                  
G13  21815026.969   114638738.198         323.483          40.000                                                                  
G30  26725661.730                        -692.939          23.000    26725694.099                        -537.798          24.000  
G15  23209128.814   121964809.242        1849.649          45.000    23209132.116    95037497.857        1441.116          37.000  
G25  25231036.644                       -2757.000          16.000                                                                  
G29  24004780.022   126146007.015        1614.792          43.000    24004783.166    98295578.832        1258.367          39.000  
> 2025 04 04 10 56 09.0040000  0 11                     
G05  22355572.162   117479348.624       -1990.837          46.000    22355572.802    91542335.990       -1551.767          39.000  
G06  25472844.098   133860733.442       -2802.082          37.000    25472859.415   104307095.149       -2184.527          36.000  
G12  25122859.154   132021516.360       -3678.680          40.000    25122860.188   102873921.738       -2866.364          34.000  
G11  23598599.112   124011477.326       -1955.315          37.000    23598603.588    96632328.533       -1524.885          25.000  
G19  26461359.956                       -5290.058          14.000                                                                  
G20  23432030.148   123136182.732       -2960.349          43.000                                                                  
G13  21814965.399   114638414.607         322.867          46.000                                                                  
G15  23208776.777   121962960.402        1847.937          45.000    23208780.167    95036057.170        1440.583          39.000  
G25  25231554.485                       -2757.000          18.000                                                                  
G29  24004472.686   126144392.315        1614.527          44.000    24004475.830    98294320.604        1258.239          39.000  
G30                                                                  26725826.163                        -543.321          23.000  
> 2025 04 04 10 56 10.0040000  0 11                     
G05  22355951.122   117481339.745       -1991.171          46.000    22355951.648    91543887.484       -1551.544          39.000  
G06  25473377.630   133863536.675       -2803.632          43.000    25473392.748   104309279.426       -2184.444          39.000  
G12  25123559.184   132025195.517       -3678.998          41.000    25123561.224   102876788.565       -2866.986          33.000  
G11  23598971.178   124013432.378       -1955.194          41.000    23598975.610    96633851.723       -1523.421          37.000  
G19  26462362.034                       -5290.058          14.000                                                                  
G20  23432593.557   123139143.238       -2960.704          45.000                                                                  
G13  21814903.932   114638091.921         322.104          47.000                                                                  
G15  23208424.787   121961111.961        1848.202          45.000    23208428.308    95034616.846        1440.314          39.000  
G25  25232066.319                       -2757.000          18.000                                                                  
G29  24004165.575   126142778.150        1613.687          44.000    24004168.659    98293062.820        1257.421          39.000  
G30                                                                  26725958.376                        -543.064          22.000  
> 2025 04 04 10 56 11.0040000  0 11                     
G05  22356330.187   117483331.544       -1992.467          46.000    22356330.617    91545439.534       -1552.434          39.000  
G06  25473911.158   133866340.491       -2804.427          42.000    25473926.282   104311464.221       -2185.089          39.000  
G12  25124259.294   132028875.134       -3680.347          39.000    25124262.592   102879655.790       -2867.737          33.000  
G11  23599343.303   124015387.862       -1955.849          41.000    23599347.670    96635375.444       -1523.644          38.000  
G19  26463375.298                       -5290.058          14.000                                                                  
G20  23433156.923   123142104.226       -2961.407          44.000                                                                  
G13  21814842.697   114637770.282         320.940          47.000                                                                  
G15  23208072.965   121959264.361        1846.675          45.000    23208076.619    95033177.177        1439.178          39.000  
G25  25232593.513                       -2757.000          19.000                                                                  
G29  24003858.637   126141164.710        1612.790          43.000    24003861.607    98291805.607        1256.472          39.000  
G30                                                                  26726091.184                        -542.625          24.000  
> 2025 04 04 10 56 12.0040000  0 11                     
G05  22356709.340   117485323.992       -1992.805          46.000    22356709.647    91546992.101       -1552.677          38.000  
G06  25474444.820   133869144.967       -2804.847          41.000    25474459.844   104313649.553       -2185.672          39.000  
G12  25124959.421   132032555.181       -3680.109          39.000    25124964.584   102882523.400       -2868.030          33.000  
G11  23599715.561   124017344.039       -1956.245          41.000    23599720.000    96636899.782       -1524.492          38.000  
G19  26464380.045                       -5290.058          14.000                                                                  
G20  23433720.426   123145065.639       -2961.571          44.000                                                                  
G13  21814781.762   114637449.684         320.166          47.000                                                                  
G15  23207721.228   121957417.521        1846.037          44.000    23207725.085    95031738.055        1439.102          39.000  
G25  25233119.334                       -2757.000          20.000                                                                  
G29  24003551.707   126139552.075        1612.234          42.000    24003554.680    98290549.009        1256.378          39.000  
G30                                                                  26726223.651                        -541.676          25.000  
> 2025 04 04 10 56 13.0040000  0 11                     
G05  22357088.553   117487316.865       -1993.318          46.000    22357088.945    91548545.017       -1553.261          38.000  
G06  25474978.549   133871949.827       -2805.297          41.000    25474993.525   104315835.143       -2185.667          38.000  
G12  25125659.798   132036235.536       -3680.878          40.000    25125664.906   102885391.194       -2867.975          33.000  
G11  23600087.922   124019300.633       -1957.152          41.000    23600092.336    96638424.375       -1524.967          38.000  
G19  26465385.077                       -5290.058          13.000                                                                  
G20  23434284.077   123148027.249       -2962.015          44.000                                                                  
G13  21814720.919   114637129.893         319.144          47.000                                                                  
G15  23207369.808   121955571.210        1846.012          44.000    23207373.631    95030299.411        1437.997          39.000  
G25  25233646.292                       -2757.000          21.000                                                                  
G29  24003244.896   126137940.004        1611.517          42.000    24003247.785    98289292.839        1255.918          39.000  
G30                                                                  26726356.947                        -543.052          25.000  
> 2025 04 04 10 56 14.0040000  0  9                     
G05  22357468.091   117489310.537       -1994.209          46.000    22357468.326    91550098.536       -1554.372          38.000  
G06  25475512.453   133874755.396       -2805.933          42.000    25475527.331   104318021.334       -2186.557          38.000  
G12  25126360.098   132039916.404       -3681.158          39.000    25126366.127   102888259.427       -2868.542          34.000  
G11  23600460.468   124021257.934       -1957.704          41.000    23600464.780    96639949.583       -1525.739          38.000  
G20  23434847.799   123150989.410       -2962.382          44.000                                                                  
G13  21814660.282   114636811.235         318.145          46.000                                                                  
G15  23207018.465   121953725.810        1844.776          44.000    23207022.375    95028861.429        1437.398          38.000  
G29  24002938.335   126136328.768        1610.681          41.000    24002941.208    98288037.327        1255.665          39.000  
G30                                                                  26726490.139                        -542.985          25.000  
> 2025 04 04 10 56 15.0040000  0  9                     
G05  22357847.556   117491304.469       -1994.120          46.000    22357847.730    91551652.243       -1554.334          38.000  
G06  25476046.333   133877561.209       -2805.887          40.000    25476061.287   104320207.697       -2186.908          38.000  
G12  25127060.458   132043597.377       -3681.018          40.000    25127066.689   102891127.715       -2868.500          34.000  
G11  23600832.981   124023215.482       -1957.510          41.000    23600837.283    96641474.914       -1525.411          38.000  
G20  23435411.491   123153951.613       -2962.234          44.000                                                                  
G13  21814599.762   114636493.258         317.669          46.000                                                                  
G15  23206667.228   121951880.773        1845.032          44.000    23206671.271    95027423.749        1437.506          38.000  
G29  24002631.814   126134717.964        1610.631          41.000    24002634.654    98286782.173        1255.059          39.000  
G30                                                                  26726624.740                        -543.935          25.000  
> 2025 04 04 10 56 16.0040000  0  9                     
G05  22358227.068   117493298.716       -1994.480          46.000    22358227.268    91553206.202       -1554.153          38.000  
G06  25476580.314   133880367.320       -2806.115          40.000    25476595.227   104322394.271       -2186.552          38.000  
G12  25127760.808   132047278.498       -3681.104          40.000    25127767.135   102893996.131       -2868.713          34.000  
G11  23601205.541   124025173.338       -1958.374          41.000    23601209.818    96643000.515       -1525.996          37.000  
G20  23435975.221   123156913.917       -2962.357          44.000                                                                  
G13  21814539.348   114636175.958         316.974          46.000                                                                  
G15  23206316.076   121950036.201        1844.361          44.000    23206320.103    95025986.405        1437.084          38.000  
G29  24002325.378   126133107.559        1610.328          41.000    24002328.157    98285527.313        1254.942          39.000  
G30                                                                  26726758.914                        -540.883          24.000  
> 2025 04 04 10 56 17.0040000  0  9                     
G05  22358606.684   117495293.304       -1994.877          46.000    22358606.782    91554760.424       -1554.679          37.000  
G06  25477114.259   133883173.737       -2806.704          41.000    25477129.122   104324581.097       -2187.074          37.000  
G12  25128461.265   132050959.770       -3681.470          40.000    25128467.828   102896864.663       -2868.848          35.000  
G11  23601578.163   124027131.442       -1958.303          41.000    23601582.502    96644526.333       -1526.041          38.000  
G20  23436538.928   123159876.350       -2962.785          44.000                                                                  
G13  21814479.029   114635859.392         316.105          46.000                                                                  
G15  23205964.992   121948192.079        1843.907          44.000    23205969.017    95024549.438        1436.635          38.000  
G29  24002018.998   126131497.659        1609.599          41.000    24002021.916    98284272.853        1254.005          38.000  
G30                                                                  26726892.141                        -544.365          24.000  
> 2025 04 04 10 56 18.0040000  0  9                     
G05  22358986.381   117497288.363       -1995.147          46.000    22358986.345    91556315.033       -1554.958          38.000  
G06  25477648.350   133885980.571       -2806.903          41.000    25477663.178   104326768.251       -2187.332          38.000  
G12  25129161.899   132054641.302       -3681.592          40.000    25129168.513   102899733.390       -2868.878          35.000  
G11  23601950.949   124029090.028       -1958.592          41.000    23601955.146    96646052.511       -1526.418          38.000  
G20  23437102.630   123162838.994       -2962.541          44.000                                                                  
G13  21814418.946   114635543.657         315.416          46.000                                                                  
G15  23205614.104   121946348.531        1843.418          44.000    23205618.007    95023112.922        1436.309          38.000  
G29  24001712.718   126129888.299        1609.379          41.000    24001715.730    98283018.809        1253.922          38.000  
G30                                                                  26727025.343                        -545.519          24.000  
> 2025 04 04 10 56 19.0040000  0 10                     
G05  22359366.001   117499283.578       -1995.246          46.000    22359365.890    91557869.731       -1554.751          38.000  
G06  25478182.575   133888787.509       -2806.821          41.000    25478197.337   104328955.499       -2187.889          38.000  
G12  25129862.374   132058322.814       -3681.738          40.000    25129869.060   102902602.096       -2868.713          35.000  
G11  23602323.643   124031048.742       -1959.320          41.000    23602327.849    96647578.748       -1526.340          37.000  
G19  26470977.364                       -5284.638          21.000                                                                  
G20  23437666.311   123165801.582       -2962.566          44.000                                                                  
G13  21814359.038   114635228.454         314.823          46.000                                                                  
G15  23205263.269   121944505.247        1843.249          43.000    23205267.096    95021676.601        1436.368          38.000  
G29  24001406.478   126128279.212        1608.773          41.000    24001409.567    98281764.975        1253.640          39.000  
G30                                                                  26727158.130                        -539.204          24.000  
> 2025 04 04 10 56 20.0040000  0  9                     
G05  22359745.901   117501279.423       -1996.006          45.000    22359745.690    91559424.956       -1555.474          38.000  
G06  25478716.874   133891595.062       -2807.917          41.000    25478731.536   104331143.181       -2188.080          38.000  
G12  25130562.963   132062004.717       -3681.909          40.000    25130569.596   102905471.112       -2869.000          35.000  
G11  23602696.544   124033008.002       -1959.549          41.000    23602700.707    96649105.453       -1526.733          37.000  
G20  23438230.184   123168764.556       -2963.083          44.000                                                                  
G13  21814299.245   114634914.240         313.726          46.000                                                                  
G15  23204912.601   121942662.708        1842.040          44.000    23204916.401    95020240.836        1435.583          38.000  
G29  24001100.349   126126670.844        1607.970          41.000    24001103.494    98280511.713        1252.984          39.000  
G30                                                                  26727291.210                        -544.331          24.000  
> 2025 04 04 10 56 21.0040000  0 10                     
G05  22360125.812   117503275.520       -1996.182          46.000    22360125.607    91560980.342       -1555.163          38.000  
G06  25479251.134   133894402.788       -2807.563          41.000    25479265.789   104333331.030       -2187.900          37.000  
G12  25131263.659   132065686.707       -3681.830          40.000    25131270.145   102908340.164       -2868.787          34.000  
G11  23603069.316   124034967.488       -1959.205          41.000    23603073.630    96650632.341       -1526.981          37.000  
G20  23438794.086   123171727.542       -2962.886          44.000                                                                  
G13  21814239.563   114634600.650         313.395          46.000                                                                  
G15  23204561.934   121940820.519        1842.083          44.000    23204565.684    95018805.395        1435.332          38.000  
G25  25237845.009                       -2769.174          24.000                                                                  
G29  24000794.258   126125062.843        1608.122          41.000    24000797.500    98279258.715        1253.005          39.000  
G30                                                                  26727424.889                        -544.058          23.000  
> 2025 04 04 10 56 22.0040000  0 10                     
G05  22360505.575   117505271.484       -1995.956          46.000    22360505.321    91562535.628       -1554.917          38.000  
G06  25479785.319   133897210.334       -2807.380          41.000    25479800.086   104335518.746       -2187.850          38.000  
G12  25131964.175   132069368.327       -3681.274          40.000    25131970.717   102911209.023       -2868.958          34.000  
G11  23603442.241   124036926.812       -1959.195          41.000    23603446.459    96652159.087       -1526.983          38.000  
G20  23439357.793   123174690.185       -2962.356          44.000                                                                  
G13  21814179.926   114634287.310         313.089          46.000                                                                  
G15  23204211.249   121938978.303        1842.249          44.000    23204214.972    95017369.900        1435.247          38.000  
G25  25238370.801                       -2769.855          23.000                                                                  
G29  24000488.215   126123454.807        1607.892          41.000    24000491.452    98278005.723        1253.058          39.000  
G30                                                                  26727558.170                        -539.105          23.000  
> 2025 04 04 10 56 23.0040000  0 11                     
G05  22360885.417   117507267.590       -1996.482          46.000    22360885.203    91564091.065       -1555.840          38.000  
G06  25480319.568   133900018.022       -2807.947          41.000    25480334.319   104337706.560       -2188.313          38.000  
G12  25132664.743   132073049.921       -3681.384          40.000    25132671.202   102914077.776       -2868.390          35.000  
G11  23603815.041   124038886.246       -1959.776          41.000    23603819.296    96653685.912       -1527.030          38.000  
G19  26474991.115                       -5270.233          14.000                                                                  
G20  23439921.498   123177652.745       -2962.745          44.000                                                                  
G13  21814120.314   114633974.493         312.302          47.000                                                                  
G15  23203860.560   121937136.352        1841.608          44.000    23203864.409    95015934.615        1435.110          38.000  
G23  26888420.104                         713.256          15.000                                                                  
G29  24000182.209   126121847.056        1607.476          41.000    24000185.498    98276752.929        1252.569          39.000  
G30                                                                  26727691.771                        -549.172          22.000  
> 2025 04 04 10 56 24.0040000  0 11                     
G05  22361265.292   117509263.956       -1996.413          46.000    22361265.121    91565646.653       -1555.423          38.000  
G06  25480853.923   133902825.908       -2808.007          40.000    25480868.626   104339894.512       -2188.012          38.000  
G12  25133365.316   132076731.596       -3681.763          40.000    25133371.725   102916946.578       -2868.683          34.000  
G11  23604187.972   124040845.866       -1959.688          41.000    23604192.130    96655212.903       -1526.987          38.000  
G19  26475994.742                       -5301.239          13.000                                                                  
G20  23440485.215   123180615.319       -2962.407          44.000                                                                  
G13  21814060.877   114633662.305         311.931          47.000                                                                  
G15  23203510.023   121935294.763        1841.512          44.000    23203513.812    95014499.641        1434.638          38.000  
G23  26888289.563                         700.561          15.000                                                                  
G29  23999876.332   126120239.653        1607.256          41.000    23999879.655    98275500.397        1252.476          39.000  
G30                                                                  26727825.205                        -546.043          22.000  
> 2025 04 04 10 56 25.0040000  0 12                     
G05  22361645.104   117511260.519       -1996.849          46.000    22361645.074    91567202.441       -1556.341          38.000  
G06  25481388.344   133905633.969       -2808.479          40.000    25481403.002   104342082.594       -2188.220          38.000  
G12  25134065.870   132080413.265       -3681.878          40.000    25134072.338   102919815.442       -2869.135          35.000  
G11  23604560.843   124042805.695       -1960.121          42.000    23604565.071    96656740.064       -1527.632          38.000  
G19  26477006.995                       -5301.239          12.000                                                                  
G20  23441048.936   123183577.877       -2962.644          44.000                                                                  
G13  21814001.588   114633350.704         311.175          46.000                                                                  
G15  23203159.562   121933453.498        1841.167          44.000    23203163.393    95013064.890        1434.364          38.000  
G23  26888153.527                         700.561          17.000                                                                  
G29  23999570.467   126118632.582        1606.625          41.000    23999573.798    98274248.132        1252.149          39.000  
G24  27576471.178                         710.845          14.000                                                                  
G30                                                                  26727958.631                        -547.788          22.000  
> 2025 04 04 10 56 26.0040000  0 12                     
G05  22362025.050   117513257.384       -1996.833          46.000    22362024.971    91568758.446       -1556.178          38.000  
G06  25481922.663   133908442.291       -2808.467          40.000    25481937.430   104344270.925       -2188.417          38.000  
G12  25134766.459   132084095.046       -3681.451          40.000    25134772.941   102922684.374       -2869.122          35.000  
G11  23604933.705   124044765.764       -1959.905          42.000    23604938.000    96658267.383       -1527.255          37.000  
G19  26478011.594                       -5301.239          12.000                                                                  
G20  23441612.714   123186540.514       -2962.638          44.000                                                                  
G13  21813942.383   114633039.778         310.785          46.000                                                                  
G15  23202809.207   121931612.655        1840.880          44.000    23202812.969    95011630.474        1434.228          38.000  
G23  26888023.548                         688.109          16.000                                                                  
G29  23999264.636   126117025.911        1606.569          41.000    23999268.067    98272996.200        1251.835          39.000  
G24  27576333.175                         710.845          13.000                                                                  
G30                                                                  26728090.880                        -543.279          23.000  
> 2025 04 04 10 56 27.0040000  0 12                     
G05  22362404.978   117515254.283       -1997.412          46.000    22362404.901    91570314.467       -1556.143          38.000  
G06  25482457.096   133911250.591       -2808.796          40.000    25482471.803   104346459.212       -2188.711          38.000  
G12  25135467.110   132087776.673       -3682.208          40.000    25135473.453   102925553.152       -2869.281          34.000  
G11  23605306.565   124046725.858       -1960.947          42.000    23605310.882    96659794.698       -1527.404          37.000  
G19  26479018.997                       -5288.422          15.000                                                                  
G20  23442176.431   123189502.928       -2962.593          44.000                                                                  
G13  21813883.334   114632729.252         309.817          47.000                                                                  
G15  23202458.941   121929771.952        1840.248          44.000    23202462.655    95010196.171        1433.530          38.000  
G23  26887898.629                         716.186          14.000                                                                  
G29  23998958.901   126115419.379        1606.174          41.000    23998962.433    98271744.375        1251.291          39.000  
G24  27576205.862                         710.845          13.000                                                                  
G30                                                                  26728222.847                        -543.312          23.000  
> 2025 04 04 10 56 28.0040000  0 12                     
G05  22362785.064   117517251.742       -1997.895          46.000    22362784.893    91571870.933       -1556.841          38.000  
G06  25482991.578   133914059.413       -2809.192          40.000    25483006.207   104348647.915       -2189.236          37.000  
G12  25136167.666   132091458.623       -3682.184          41.000    25136173.945   102928422.210       -2869.080          33.000  
G11  23605679.617   124048686.425       -1960.855          42.000    23605684.013    96661322.461       -1528.520          37.000  
G19  26480025.350                       -5288.422          15.000                                                                  
G20  23442740.179   123192465.674       -2962.701          44.000                                                                  
G13  21813824.393   114632419.657         309.112          46.000                                                                  
G15  23202108.771   121927931.918        1839.643          44.000    23202112.381    95008762.361        1433.753          38.000  
G23  26887760.762                         716.186          15.000                                                                  
G29  23998653.198   126113813.522        1605.506          41.000    23998656.875    98270493.058        1250.862          39.000  
G24  27576071.261                         710.845          14.000                                                                  
G30                                                                  26728355.271                        -548.198          23.000  
> 2025 04 04 10 56 29.0040000  0 12                     
G05  22363165.193   117519249.825       -1998.291          46.000    22363165.114    91573427.876       -1557.111          38.000  
G06  25483526.237   133916868.802       -2809.883          40.000    25483540.767   104350837.032       -2189.504          37.000  
G12  25136868.473   132095140.985       -3682.684          41.000    25136874.620   102931291.611       -2869.232          33.000  
G11  23606052.842   124050647.601       -1961.437          41.000    23606057.245    96662850.609       -1528.222          37.000  
G19  26481033.820                       -5288.422          14.000                                                                  
G20  23443303.982   123195428.812       -2963.421          44.000                                                                  
G13  21813765.668   114632111.052         308.122          47.000                                                                  
G15  23201758.638   121926092.603        1838.987          44.000    23201762.259    95007329.157        1432.860          38.000  
G23  26887621.650                         716.186          15.000                                                                  
G29  23998347.798   126112208.382        1604.937          41.000    23998351.416    98269242.317        1250.067          39.000  
G24  27575934.282                         710.845          14.000                                                                  
G30                                                                  26728487.372                        -547.541          24.000  
> 2025 04 04 10 56 30.0040000  0 12                     
G05  22363545.463   117521248.337       -1999.000          46.000    22363545.459    91574985.161       -1557.554          38.000  
G06  25484061.011   133919678.569       -2810.090          40.000    25484075.485   104353026.458       -2189.554          37.000  
G12  25137569.348   132098823.625       -3682.928          41.000    25137575.303   102934161.160       -2869.031          34.000  
G11  23606426.063   124052609.157       -1961.736          41.000    23606430.459    96664379.126       -1528.938          37.000  
G19  26482040.468                       -5288.422          15.000                                                                  
G20  23443867.873   123198392.150       -2963.731          44.000                                                                  
G13  21813707.029   114631803.237         307.354          46.000                                                                  
G15  23201408.718   121924253.824        1838.395          44.000    23201412.244    95005896.359        1432.210          38.000  
G23  26887487.673                         706.176          14.000                                                                  
G29  23998042.351   126110603.813        1604.172          40.000    23998045.970    98267991.980        1250.051          39.000  
G24  27575802.601                         710.845          16.000                                                                  
G30                                                                  26728620.688                        -551.904          25.000  
> 2025 04 04 10 56 31.0040000  0 12                     
G05  22363925.831   117523247.279       -1999.216          45.000    22363925.865    91576542.806       -1558.149          38.000  
G06  25484595.656   133922488.719       -2810.382          40.000    25484610.227   104355216.185       -2190.031          37.000  
G12  25138270.283   132102506.479       -3683.130          40.000    25138276.035   102937030.941       -2870.068          34.000  
G11  23606799.316   124054571.101       -1962.197          41.000    23606803.761    96665907.895       -1529.185          37.000  
G19  26483045.835                       -5288.422          16.000                                                                  
G20  23444431.837   123201355.666       -2963.586          44.000                                                                  
G13  21813648.502   114631496.239         306.603          46.000                                                                  
G15  23201058.939   121922415.580        1838.311          44.000    23201062.270    95004463.966        1432.128          38.000  
G23  26887351.174                         733.397          13.000                                                                  
G29  23997736.997   126108999.749        1603.743          41.000    23997740.718    98266742.069        1249.657          39.000  
G24  27575665.550                         710.845          16.000                                                                  
G30                                                                  26728754.514                        -546.558          25.000  
> 2025 04 04 10 56 32.0040000  0 12                     
G05  22364306.293   117525246.408       -1998.934          46.000    22364306.301    91578100.550       -1557.504          38.000  
G06  25485130.404   133925299.037       -2810.165          40.000    25485145.034   104357406.032       -2189.711          37.000  
G12  25138971.056   132106189.283       -3682.452          40.000    25138976.737   102939900.643       -2869.202          33.000  
G11  23607172.621   124056533.175       -1962.130          41.000    23607176.982    96667436.800       -1528.802          37.000  
G19  26484052.898                       -5288.422          17.000                                                                  
G20  23444995.677   123204319.148       -2963.263          44.000                                                                  
G13  21813590.113   114631189.804         306.305          46.000                                                                  
G15  23200709.080   121920577.639        1838.019          44.000    23200712.367    95003031.796        1432.343          38.000  
G23  26887213.760                         733.397          13.000                                                                  
G29  23997431.914   126107395.977        1603.884          41.000    23997435.568    98265492.390        1249.895          39.000  
G24  27575532.163                         710.845          16.000                                                                  
G30                                                                  26728887.615                        -545.560          25.000  
> 2025 04 04 10 56 33.0040000  0 11                     
G05  22364686.828   117527245.907       -2001.620          46.000    22364686.890    91579658.589       -1559.435          38.000  
G06  25485665.256   133928109.634       -2812.715          39.000    25485679.823   104359596.165       -2191.525          37.000  
G12  25139671.959   132109872.312       -3684.875          41.000    25139677.493   102942770.531       -2871.729          33.000  
G11  23607546.106   124058495.588       -1964.186          41.000    23607550.461    96668965.957       -1530.817          36.000  
G19  26485055.843                       -5288.422          16.000                                                                  
G20  23445559.532   123207282.769       -2965.285          44.000                                                                  
G13  21813531.929   114630884.100         303.589          46.000                                                                  
G15  23200359.414   121918740.184        1835.353          44.000    23200362.642    95001600.022        1430.109          38.000  
G29  23997126.854   126105792.713        1601.199          41.000    23997130.521    98264243.064        1247.906          39.000  
G24  27575394.643                         710.845          13.000                                                                  
G30                                                                  26729021.782                        -550.867          26.000  
> 2025 04 04 10 56 34.0040000  0 11                     
G05  22365067.349   117529245.727       -1998.775          46.000    22365067.482    91581216.920       -1558.146          38.000  
G06  25486200.183   133930920.526       -2809.972          40.000    25486214.741   104361786.478       -2189.188          36.000  
G12  25140372.852   132113555.435       -3682.135          40.000    25140378.239   102945640.525       -2869.135          32.000  
G11  23607919.507   124060458.285       -1961.427          40.000    23607923.873    96670495.339       -1528.658          36.000  
G19  26486063.049                       -5288.422          14.000                                                                  
G20  23446123.395   123210246.499       -2962.771          44.000                                                                  
G13  21813473.857   114630579.109         305.809          46.000                                                                  
G30  26729160.509                        -703.109          27.000    26729156.072   109451425.6621       -547.850          26.000  
G15  23200009.817   121916903.154        1838.080          44.000    23200013.051    95000168.559        1432.517          38.000  
G29  23996821.759   126104189.867        1603.757          41.000    23996825.526    98262994.113        1249.895          39.000  
G24  27575258.533                         710.845          14.000                                                                  
> 2025 04 04 10 56 35.0040000  0 11                     
G05  22365447.680   117531244.813       -1999.126          46.000    22365447.939    91582774.638       -1557.655          38.000  
G06  25486734.931   133933730.673       -2809.940          41.000    25486749.482   104363976.166       -2189.373          36.000  
G12  25141073.556   132117237.610       -3681.958          40.000    25141078.820   102948509.775       -2869.373          33.000  
G11  23608292.778   124062420.222       -1961.746          40.000    23608297.120    96672024.129       -1528.427          36.000  
G19  26487070.967                       -5288.422          13.000                                                                  
G20  23446687.151   123213209.254       -2962.536          44.000                                                                  
G13  21813415.651   114630273.743         305.332          46.000                                                                  
G30  26729272.298   140463273.8593       -702.822          28.000    26729288.425   109451973.670        -547.663          27.000  
G15  23199660.021   121915065.513        1837.708          44.000    23199663.285    94998736.634        1432.109          38.000  
G29  23996516.670   126102586.387        1603.419          41.000    23996520.369    98261744.669        1249.369          39.000  
G24  27575121.726                         710.845          17.000                                                                  
> 2025 04 04 10 56 36.0040000  0 10                     
G05  22365828.134   117533243.759       -1998.715          46.000    22365828.304    91584332.275       -1557.333          38.000  
G06  25487269.579   133936540.603       -2809.559          41.000    25487284.207   104366165.761       -2189.795          35.000  
G12  25141774.145   132120919.484       -3681.531          41.000    25141779.355   102951378.735       -2868.878          33.000  
G11  23608666.023   124064381.975       -1961.525          41.000    23608670.420    96673552.760       -1528.448          37.000  
G19  26488076.268                       -5288.422          12.000                                                                  
G20  23447250.841   123216171.629       -2961.820          44.000                                                                  
G13  21813357.514   114629968.626         305.215          46.000                                                                  
G30  26729401.466   140463977.1022       -703.108          28.000    26729422.189   109452521.604        -547.992          27.000  
G15  23199310.208   121913227.834        1837.896          44.000    23199313.474    94997304.702        1432.036          38.000  
G29  23996211.503   126100982.873        1603.715          41.000    23996215.102    98260495.195        1249.615          39.000  
> 2025 04 04 10 56 37.0040000  0 10                     
G05  22366208.536   117535242.321       -1998.703          46.000    22366208.645    91585889.573       -1557.544          38.000  
G06  25487804.178   133939350.161       -2809.805          41.000    25487818.794   104368355.021       -2189.155          36.000  
G12  25142474.794   132124600.735       -3680.853          40.000    25142479.784   102954247.242       -2868.164          34.000  
G11  23609039.101   124066343.329       -1961.740          40.000    23609043.590    96675081.125       -1528.713          38.000  
G19  26489080.106                       -5288.422          12.000                                                                  
G20  23447814.462   123219133.373       -2961.739          45.000                                                                  
G13  21813299.421   114629663.483         304.735          46.000                                                                  
G30  26729537.988   140464679.9162       -703.042          29.000    26729555.190   109453069.269        -548.207          27.000  
G15  23198960.332   121911389.865        1837.957          44.000    23198963.692    94995872.526        1431.928          38.000  
G29  23995906.252   126099379.096        1603.806          41.000    23995910.011    98259245.482        1249.769          39.000  
> 2025 04 04 10 56 38.0040000  0  9                     
G05  22366588.797   117537241.001       -1998.466          45.000    22366588.947    91587446.988       -1557.325          39.000  
G06  25488338.761   133942159.790       -2809.530          41.000    25488353.363   104370544.254       -2189.197          34.000  
G12  25143175.348   132128281.963       -3680.841          40.000    25143180.285   102957115.726       -2867.938          34.000  
G11  23609412.364   124068304.692       -1961.304          39.000    23609416.737    96676609.447       -1528.411          37.000  
G20  23448378.137   123222095.015       -2961.147          45.000                                                                  
G13  21813241.440   114629358.872         304.472          46.000                                                                  
G30  26729669.167   140465382.3761       -702.490          28.000    26729689.900   109453617.112        -548.051          28.000  
G15  23198610.534   121909552.173        1837.720          44.000    23198614.008    94994440.559        1432.110          39.000  
G29  23995601.103   126097775.592        1603.777          41.000    23995604.862    98257995.994        1249.856          39.000  
> 2025 04 04 10 56 39.0040000  0  9                     
G05  22366969.157   117539239.839       -1998.198          45.000    22366969.315    91589004.517       -1556.870          39.000  
G06  25488873.432   133944969.470       -2808.745          41.000    25488888.138   104372733.604       -2188.651          36.000  
G12  25143875.889   132131963.113       -3680.365          41.000    25143880.743   102959984.164       -2868.134          34.000  
G11  23609785.670   124070266.220       -1961.137          40.000    23609790.014    96678137.932       -1527.890          36.000  
G20  23448941.738   123225056.622       -2960.591          45.000                                                                  
G13  21813183.536   114629054.758         304.673          46.000                                                                  
G30  26729809.766   140466085.632        -702.832          28.000    26729824.945   109454165.045        -548.339          28.000  
G15  23198260.885   121907714.704        1838.156          44.000    23198264.384    94993008.760        1432.252          38.000  
G29  23995296.017   126096172.297        1604.175          41.000    23995299.791    98256746.695        1250.010          39.000  
> 2025 04 04 10 56 40.0040000  0  9                     
G05  22367349.493   117541238.838       -1998.894          45.000    22367349.734    91590562.175       -1557.510          39.000  
G06  25489408.210   133947779.335       -2810.121          39.000    25489422.859   104374923.185       -2189.637          34.000  
G12  25144576.380   132135644.227       -3680.884          40.000    25144581.205   102962852.537       -2868.005          34.000  
G11  23610158.869   124072227.912       -1961.514          41.000    23610163.303    96679666.501       -1528.517          36.000  
G20  23449505.264   123228018.144       -2961.186          45.000                                                                  
G13  21813125.676   114628751.192         303.447          46.000                                                                  
G30  26729945.326   140466789.037        -703.318          28.000    26729959.804   109454713.061        -548.133          28.000  
G15  23197911.200   121905877.521        1837.200          44.000    23197914.772    94991577.192        1432.045          38.000  
G29  23994990.997   126094569.304        1603.196          41.000    23994994.833    98255497.621        1249.116          39.000  
> 2025 04 04 10 56 41.0040000  0  9                     
G05  22367729.777   117543237.619       -1998.861          45.000    22367730.086    91592119.682       -1557.254          39.000  
G06  25489942.783   133950588.909       -2809.444          41.000    25489957.505   104377112.509       -2189.783          35.000  
G12  25145276.765   132139324.976       -3680.786          40.000    25145281.637   102965720.665       -2867.999          34.000  
G11  23610532.147   124074189.340       -1961.076          40.000    23610536.560    96681194.875       -1528.168          36.000  
G20  23450068.786   123230979.233       -2960.972          44.000                                                                  
G13  21813067.792   114628447.783         303.382          45.000                                                                  
G30  26730083.211   140467492.121        -703.005          28.000    26730093.553   109455261.006        -547.579          26.000  
G15  23197561.515   121904040.264        1837.268          44.000    23197565.018    94990145.589        1431.436          37.000  
G29  23994685.857   126092966.241        1603.002          43.000    23994689.706    98254248.479        1248.785          39.000  
> 2025 04 04 10 56 42.0040000  0  9                     
G05  22368110.221   117545236.649       -1999.356          45.000    22368110.511    91593677.379       -1558.047          39.000  
G06  25490477.435   133953398.721       -2810.090          41.000    25490492.107   104379301.923       -2190.081          35.000  
G12  25145977.246   132143005.726       -3680.603          42.000    25145982.056   102968588.799       -2868.451          34.000  
G11  23610905.369   124076150.959       -1962.118          38.000    23610909.881    96682723.491       -1530.037          33.000  
G20  23450632.202   123233940.284       -2961.153          45.000                                                                  
G13  21813010.319   114628145.010         302.239          45.000                                                                  
G30  26730214.887   140468195.638        -703.967          28.000    26730226.771   109455809.253        -549.383          26.000  
G15  23197211.986   121902203.355        1836.481          44.000    23197215.366    94988714.226        1431.200          37.000  
G29  23994380.899   126091363.459        1602.470          43.000    23994384.687    98252999.591        1248.669          38.000  
> 2025 04 04 10 56 43.0040000  0  9                     
G05  22368490.674   117547235.906       -1999.419          45.000    22368490.957    91595235.240       -1558.111          39.000  
G06  25491012.118   133956208.683       -2810.668          36.000    25491026.823   104381491.513       -2191.238          32.000  
G12  25146677.689   132146686.510       -3680.902          40.000    25146682.476   102971456.925       -2867.822          34.000  
G11  23611278.675   124078112.689       -1962.434          38.000    23611282.980                       -1528.165          28.000  
G20  23451195.685   123236901.355       -2961.137          45.000                                                                  
G13  21812952.740   114627842.834         301.817          45.000                                                                  
G15  23196862.472   121900366.782        1836.377          43.000    23196865.750    94987283.180        1430.547          37.000  
G29  23994075.927   126089761.038        1602.560          43.000    23994079.799    98251750.965        1248.424          38.000  
G30                                                                  26730359.393   109456357.515        -547.805          25.000  
> 2025 04 04 10 56 44.0040000  0 10                     
G05  22368871.137   117549235.211       -1999.304          46.000    22368871.537    91596793.159       -1558.193          39.000  
G06  25491546.868   133959018.757       -2809.708          37.000    25491561.497   104383681.133       -2189.565          28.000  
G12  25147378.011   132150367.154       -3680.432          40.000    25147382.828   102974324.998       -2868.176          33.000  
G11  23611652.036   124080074.568       -1961.643          39.000    23611656.192    96685784.6641      -1528.317          35.000  
G19  26495141.675                       -5276.412          22.000                                                                  
G20  23451759.119   123239862.257       -2960.658          44.000                                                                  
G13  21812895.297   114627541.102         301.692          46.000                                                                  
G30  26730479.741                        -703.067          26.000    26730492.759   109456906.007        -548.875          24.000  
G15  23196512.911   121898530.400        1836.468          43.000    23196516.141    94985852.184        1430.996          37.000  
G29  23993770.990   126088158.805        1602.369          43.000    23993774.971    98250502.484        1248.314          39.000  
> 2025 04 04 10 56 45.0040000  0 10                     
G05  22369251.689   117551235.021       -2000.139          45.000    22369252.098    91598351.454       -1558.787          39.000  
G06  25492081.702   133961829.203       -2810.769          35.000    25492096.217   104385871.024       -2190.788          26.000  
G12  25148078.520   132154048.145       -3680.933          40.000    25148083.314   102977193.283       -2868.353          33.000  
G11  23612025.322   124082036.775       -1962.355          44.000    23612029.303    96687313.645       -1529.077          38.000  
G20  23452322.571   123242823.435       -2961.142          46.000                                                                  
G13  21812837.933   114627240.229         300.260          46.000                                                                  
G15  23196163.618   121896694.604        1835.288          43.000    23196166.798    94984421.713        1430.153          37.000  
G23  26883569.587                         699.940          20.000                                                                  
G29  23993466.114   126086557.242        1601.262          43.000    23993470.169    98249254.467        1248.037          39.000  
G30                                                                  26730627.425                        -549.104          23.000  
> 2025 04 04 10 56 46.0040000  0  9                     
G05  22369632.322   117553235.225       -2000.358          46.000    22369632.715    91599910.060       -1558.949          39.000  
G06  25492616.395   133964639.952       -2810.631          40.000    25492631.210   104388061.280       -2190.522          38.000  
G12  25148779.037   132157729.318       -3681.231          40.000    25148783.818   102980061.747       -2868.665          33.000  
G11  23612398.884   124083999.554       -1962.573          33.000    23612403.295    96688844.2221      -1528.742          29.000  
G20  23452886.063   123245784.787       -2961.075          45.000                                                                  
G13  21812780.799   114626940.135         299.901          46.000                                                                  
G15  23195814.232   121894859.364        1835.073          43.000    23195817.499    94982991.646        1430.329          38.000  
G29  23993161.431   126084956.149        1600.576          42.000    23993165.445    98248006.884        1247.234          39.000  
G30                                                                  26730761.263                        -544.402          23.000  
> 2025 04 04 10 56 47.0040000  0 11                     
G05  22370012.985   117555235.459       -1999.870          46.000    22370013.339    91601468.691       -1558.576          39.000  
G06  25493151.228   133967450.753       -2810.205          39.000    25493166.092   104390251.651       -2190.524          37.000  
G12  25149479.536   132161410.321       -3680.994          40.000    25149484.251   102982930.064       -2868.268          34.000  
G11  23612772.382   124085962.205       -1962.520          41.000    23612777.467    96690373.497       -1529.096          38.000  
G19  26498169.967                       -5294.356          16.000                                                                  
G20  23453449.524   123248745.941       -2960.870          44.000                                                                  
G13  21812723.767   114626640.456         299.670          45.000                                                                  
G30  26730879.774   140471720.3603       -704.291          26.000    26730894.662                        -550.119          25.000  
G15  23195464.988   121893024.241        1834.868          44.000    23195468.275    94981561.680        1430.235          38.000  
G29  23992856.764   126083355.162        1600.914          42.000    23992860.820    98246759.354        1247.720          39.000  
G24  27573582.542                         698.984          15.000                                                                  
> 2025 04 04 10 56 48.0040000  0 12                     
G05  22370393.490   117557235.582       -2000.455          45.000    22370394.021    91603027.208       -1558.679          39.000  
G06  25493686.125   133970261.413       -2811.082          41.000    25493700.909   104392441.678       -2190.680          35.000  
G12  25150179.891   132165091.000       -3680.737          40.000    25150184.673   102985798.099       -2868.146          34.000  
G11  23613145.725   124087924.650       -1962.994          39.000    23613150.214    96691902.704       -1529.809          35.000  
G19  26499178.015                       -5294.356          17.000                                                                  
G20  23454012.989   123251706.748       -2960.967          45.000                                                                  
G13  21812666.817   114626341.029         298.826          46.000                                                                  
G30  26731016.903   140472425.1692       -704.809          27.000    26731029.049                        -549.958          25.000  
G15  23195115.620   121891189.093        1834.488          44.000    23195119.078    94980131.727        1429.715          38.000  
G23  26883189.446                         699.940          19.000                                                                  
G29  23992552.064   126081754.205        1600.187          42.000    23992556.191    98245511.870        1247.214          39.000  
G24  27573470.712                         698.984          15.000                                                                  
> 2025 04 04 10 56 49.0040000  0 11                     
G05  22370774.078   117559236.058       -2000.706          45.000    22370774.627    91604586.014       -1558.930          39.000  
G06  25494221.006   133973072.426       -2811.271          41.000    25494235.741   104394632.073       -2190.734          37.000  
G12  25150880.415   132168771.872       -3680.823          40.000    25150885.118   102988666.277       -2868.213          33.000  
G11  23613519.232   124089887.486       -1963.020          41.000    23613523.480    96693432.129       -1529.463          36.000  
G19  26500181.862                       -5294.356          16.000                                                                  
G20  23454576.533   123254667.699       -2961.020          46.000                                                                  
G13  21812609.975   114626042.368         298.381          46.000                                                                  
G30  26731151.393   140473130.4382       -705.370          28.000    26731163.049                        -550.245          25.000  
G15  23194766.512   121889354.465        1834.362          44.000    23194769.964    94978702.156        1429.399          38.000  
G23  26883058.648                         699.940          16.000                                                                  
G29  23992247.388   126080153.732        1600.355          42.000    23992251.637    98244264.787        1246.490          38.000  
> 2025 04 04 10 56 50.0040000  0 11                     
G05  22371154.692   117561236.697       -2000.887          45.000    22371155.358    91606144.944       -1558.787          38.000  
G06  25494755.775   133975883.521       -2811.599          42.000    25494770.666   104396822.543       -2190.707          37.000  
G12  25151580.856   132172452.691       -3681.104          39.000    25151585.485   102991534.438       -2868.048          33.000  
G11  23613892.590   124091850.454       -1963.399          41.000    23613899.065    96694961.712       -1529.500          36.000  
G19  26501192.342                       -5294.356          14.000                                                                  
G20  23455139.985   123257628.586       -2961.102          46.000                                                                  
G13  21812553.230   114625744.234         297.673          46.000                                                                  
G30  26731286.640   140473835.917        -706.177          28.000    26731298.919                        -549.335          25.000  
G15  23194417.332   121887520.097        1834.047          43.000    23194420.826    94977272.773        1429.276          37.000  
G23  26882919.330                         699.940          15.000                                                                  
G29  23991942.848   126078553.508        1599.714          42.000    23991947.058    98243017.852        1246.499          39.000  
> 2025 04 04 10 56 51.0040000  0 11                     
G05  22371535.370   117563237.353       -2000.217          45.000    22371536.061    91607703.925       -1558.468          39.000  
G06  25495290.736   133978694.578       -2810.868          41.000    25495305.618   104399012.984       -2190.015          35.000  
G12  25152281.301   132176133.304       -3680.322          39.000    25152285.804   102994402.521       -2868.134          33.000  
G11  23614266.029   124093813.386       -1962.270          41.000    23614271.808    96696491.344       -1529.306          36.000  
G19  26502201.546                       -5294.356          17.000                                                                  
G20  23455703.329   123260589.232       -2960.144          44.000                                                                  
G13  21812496.566   114625446.481         298.048          46.000                                                                  
G30  26731422.217   140474541.339        -705.102          28.000    26731433.012                        -548.069          26.000  
G15  23194068.257   121885685.856        1834.422          43.000    23194071.792    94975843.497        1429.311          38.000  
G23  26882783.223                         699.940          14.000                                                                  
G29  23991638.328   126076953.434        1600.389          42.000    23991642.650    98241771.041        1247.074          39.000  
> 2025 04 04 10 56 52.0040000  0 11                     
G05  22371915.987   117565237.415       -1999.863          45.000    22371916.615    91609262.428       -1558.473          39.000  
G06  25495825.477   133981505.042       -2810.105          40.000    25495840.462   104401203.083       -2190.481          35.000  
G12  25152981.518   132179813.170       -3679.669          40.000    25152986.090   102997269.904       -2867.236          33.000  
G11  23614639.464   124095775.720       -1962.124          42.000    23614644.289    96698020.392       -1529.158          36.000  
G19  26503206.099                       -5294.356          16.000                                                                  
G20  23456266.601   123263549.044       -2959.551          43.000                                                                  
G13  21812439.955   114625148.533         297.906          46.000                                                                  
G30  26731555.190   140475246.282        -705.535          29.000    26731568.631                        -548.877          26.000  
G15  23193719.131   121883851.133        1834.838          43.000    23193722.598    94974413.862        1429.934          37.000  
G23  26882646.649                         699.940          15.000                                                                  
G29  23991333.688   126075352.885        1600.877          42.000    23991338.089    98240523.852        1247.386          39.000  
> 2025 04 04 10 56 53.0040000  0 11                     
G05  22372296.579   117567237.052       -1999.629          46.000    22372297.150    91610820.593       -1558.173          39.000  
G06  25496360.221   133984315.039       -2809.797          40.000    25496375.181   104403392.653       -2189.980          35.000  
G12  25153681.676   132183492.381       -3678.851          40.000    25153686.173   103000136.838       -2866.754          33.000  
G11  23615012.817   124097737.581       -1961.653          42.000    23615017.822    96699549.121       -1528.326          36.000  
G19  26504213.158                       -5294.356          16.000                                                                  
G20  23456829.658   123266508.228       -2959.027          43.000                                                                  
G13  21812383.248   114624850.541         297.885          45.000                                                                  
G30  26731687.099   140475950.728        -703.979          29.000    26731704.336                        -547.424          25.000  
G15  23193369.950   121882016.114        1834.805          43.000    23193373.273    94972983.974        1430.051          37.000  
G23  26882510.185                         699.940          14.000                                                                  
G29  23991029.019   126073752.034        1600.947          41.000    23991033.399    98239276.447        1247.147          39.000  
> 2025 04 04 10 56 54.0040000  0 11                     
G05  22372676.970   117569236.090       -1999.225          45.000    22372677.575    91612378.277       -1557.830          39.000  
G06  25496894.925   133987124.382       -2808.961          39.000    25496909.749   104405581.725       -2188.739          35.000  
G12  25154381.713   132187170.808       -3678.387          40.000    25154386.121   103003003.157       -2866.095          33.000  
G11  23615386.014   124099698.799       -1961.222          42.000    23615391.105    96701077.327       -1528.380          36.000  
G19  26505220.301                       -5294.356          16.000                                                                  
G20  23457392.665   123269466.555       -2958.148          43.000                                                                  
G13  21812326.560   114624552.335         297.960          45.000                                                                  
G30  26731820.673   140476654.762        -704.693          29.000    26731837.968                        -546.955          25.000  
G15  23193020.746   121880180.607        1835.199          43.000    23193023.959    94971553.731        1429.926          37.000  
G23  26883033.919                         767.299          23.000                                                                  
G29  23990724.213   126072150.692        1601.156          42.000    23990728.606    98238028.642        1247.760          39.000  
> 2025 04 04 10 56 55.0040000  0 10                     
G05  22373057.301   117571235.072       -1998.788          46.000    22373057.991    91613935.924       -1557.618          39.000  
G06  25497429.481   133989933.640       -2809.166          38.000    25497444.353   104407770.740       -2188.560          35.000  
G12  25155081.732   132190848.960       -3677.936          40.000    25155085.998   103005869.220       -2865.533          33.000  
G11  23615759.233   124101659.916       -1960.997          42.000    23615764.229    96702605.480       -1527.914          37.000  
G19  26506228.738                       -5294.356          17.000                                                                  
G20  23457955.637   123272424.624       -2957.888          43.000                                                                  
G13  21812269.854   114624254.416         297.837          45.000                                                                  
G30  26731952.297   140477358.657        -703.701          29.000    26731971.080                        -549.807          23.000  
G15  23192671.488   121878345.171        1835.630          43.000    23192674.619    94970123.493        1430.704          38.000  
G29  23990419.581   126070549.373        1601.388          42.000    23990423.841    98236780.880        1247.977          39.000  
> 2025 04 04 10 56 56.0040000  0 10                     
G05  22373437.654   117573233.877       -1999.073          46.000    22373438.407    91615493.423       -1557.607          39.000  
G06  25497963.990   133992742.654       -2809.128          38.000    25497978.831   104409959.634       -2189.033          34.000  
G12  25155781.599   132194526.772       -3677.936          40.000    25155785.806   103008735.056       -2866.174          33.000  
G11  23616132.471   124103620.840       -1960.974          42.000    23616137.313    96704133.476       -1528.191          37.000  
G19  26507238.495                       -5294.356          17.000                                                                  
G20  23458518.515   123275382.313       -2957.780          43.000                                                                  
G13  21812213.184   114623956.729         297.358          45.000                                                                  
G30  26732083.946   140478062.530        -704.243          28.000    26732105.327                        -548.719          23.000  
G15  23192322.235   121876509.659        1835.289          43.000    23192325.322    94968693.262        1429.833          38.000  
G29  23990114.752   126068948.039        1601.053          42.000    23990119.124    98235533.041        1248.208          39.000  
> 2025 04 04 10 56 57.0050000  0  9                     
G05  22373818.396   117575234.618       -1998.682          45.000    22373819.189    91617052.439       -1557.275          39.000  
G06  25498499.083   133995554.402       -2808.483          39.000    25498513.857   104412150.581       -2188.252          34.000  
G12  25156482.087   132198207.989       -3677.505          40.000    25156486.283   103011603.523       -2865.932          33.000  
G11  23616505.906   124105583.603       -1960.530          42.000    23616510.806    96705662.908       -1528.165          36.000  
G20  23459081.837   123278342.608       -2957.007          43.000                                                                  
G13  21812156.532   114623659.035         297.583          45.000                                                                  
G30  26732218.616   140478767.021        -703.290          28.000    26732240.283                        -546.428          22.000  
G15  23191972.630   121874672.352        1835.749          43.000    23191975.610    94967261.585        1430.174          38.000  
G29  23989809.638   126067345.119        1601.414          42.000    23989814.160    98234284.058        1247.738          39.000  
> 2025 04 04 10 56 58.0050000  0  9                     
G05  22374198.682   117577233.058       -1998.621          45.000    22374199.571    91618609.698       -1557.495          39.000  
G06  25499033.530   133998362.996       -2808.893          39.000    25499048.226   104414339.126       -2188.880          35.000  
G12  25157181.825   132201884.999       -3677.374          40.000    25157185.932   103014468.720       -2864.996          33.000  
G11  23616879.034   124107544.068       -1960.366          42.000    23616883.844    96707190.548       -1527.859          36.000  
G20  23459644.514   123281299.443       -2956.729          43.000                                                                  
G13  21812099.991   114623361.713         296.955          45.000                                                                  
G30  26732353.860   140479470.549        -704.055          29.000    26732372.809                        -547.396          22.000  
G15  23191623.296   121872836.746        1835.412          43.000    23191626.314    94965831.238        1430.198          38.000  
G29  23989504.999   126065743.648        1601.185          42.000    23989509.430    98233036.143        1248.129          39.000  
> 2025 04 04 10 56 59.0050000  0  9                     
G05  22374578.942   117579231.545       -1998.474          45.000    22374579.885    91620166.924       -1556.958          39.000  
G06  25499567.996   134001171.594       -2808.661          39.000    25499582.684   104416527.654       -2188.939          34.000  
G12  25157881.570   132205561.861       -3677.011          40.000    25157885.690   103017333.814       -2864.771          33.000  
G11  23617252.058   124109504.538       -1960.234          43.000    23617256.858    96708718.203       -1528.147          37.000  
G20  23460207.193   123284256.090       -2956.869          43.000                                                                  
G13  21812043.504   114623064.824         296.640          45.000                                                                  
G30  26732488.422   140480174.247        -703.952          29.000    26732507.414                        -551.100          21.000  
G15  23191274.022   121871001.259        1835.213          43.000    23191277.079    94964401.031        1429.415          38.000  
G29  23989200.272   126064142.298        1601.216          42.000    23989204.745    98231788.358        1247.521          39.000  
> 2025 04 04 10 57 00.0050000  0  9                     
G05  22374959.232   117581230.398       -1998.993          45.000    22374960.313    91621724.507       -1557.556          39.000  
G06  25500102.545   134003980.539       -2809.231          39.000    25500117.118   104418716.389       -2188.993          34.000  
G12  25158581.257   132209238.939       -3677.408          40.000    25158585.412   103020199.078       -2864.986          33.000  
G11  23617625.340   124111465.376       -1961.204          43.000    23617629.950    96710246.075       -1527.789          36.000  
G20  23460769.904   123287212.906       -2956.838          43.000                                                                  
G13  21811987.155   114622768.710         295.641          45.000                                                                  
G30  26732621.915   140480878.315        -704.999          28.000    26732641.330                        -549.277          22.000  
G15  23190924.807   121869166.314        1834.402          43.000    23190927.924    94962971.197        1429.317          38.000  
G29  23988895.715   126062541.483        1600.374          42.000    23988900.136    98230540.972        1247.084          39.000  
> 2025 04 04 10 57 01.0050000  0  9                     
G05  22375339.606   117583229.408       -1999.316          45.000    22375340.745    91623282.171       -1558.020          39.000  
G06  25500637.067   134006789.571       -2809.450          41.000    25500651.713   104420905.235       -2189.940          34.000  
G12  25159281.002   132212915.921       -3677.102          40.000    25159285.167   103023064.298       -2865.998          34.000  
G11  23617998.501   124113426.255       -1960.834          41.000    23618003.165    96711774.045       -1528.132          36.000  
G20  23461332.507   123290169.620       -2956.990          44.000                                                                  
G13  21811930.932   114622473.049         295.103          45.000                                                                  
G30  26732755.964   140481582.531        -704.275          28.000    26732774.618                        -545.038          23.000  
G15  23190575.714   121867331.568        1834.143          43.000    23190578.695    94961541.537        1429.334          38.000  
G29  23988591.241   126060940.888        1600.510          41.000    23988595.576    98229293.759        1246.686          39.000  
> 2025 04 04 10 57 02.0050000  0  9                     
G05  22375720.098   117585228.884       -1999.994          45.000    22375721.194    91624840.217       -1558.160          39.000  
G06  25501171.692   134009599.086       -2810.015          42.000    25501186.378   104423094.445       -2189.163          38.000  
G12  25159980.709   132216593.209       -3677.605          40.000    25159984.936   103025929.711       -2865.861          33.000  
G11  23618371.779   124115387.667       -1962.056          42.000    23618376.281    96713302.358       -1528.110          35.000  
G20  23461895.282   123293126.591       -2957.417          44.000                                                                  
G13  21811874.821   114622178.302         294.219          45.000                                                                  
G30  26732890.315   140482287.291        -705.481          28.000    26732907.537                        -550.596          23.000  
G15  23190226.600   121865497.464        1833.530          43.000    23190229.827    94960112.371        1428.799          38.000  
G29  23988286.786   126059340.903        1599.513          41.000    23988291.158    98228047.026        1246.337          39.000  
> 2025 04 04 10 57 03.0050000  0 11                     
G05  22376100.688   117587228.840       -1999.835          45.000    22376101.676    91626398.633       -1558.612          39.000  
G06  25501706.264   134012408.995       -2809.917          42.000    25501721.187   104425284.020       -2189.587          37.000  
G12  25160680.504   132220270.780       -3677.730          40.000    25160684.773   103028795.356       -2865.324          34.000  
G11  23618745.047   124117349.438       -1961.242          42.000    23618749.415    96714831.059       -1528.491          35.000  
G20  23462458.064   123296083.804       -2957.344          45.000                                                                  
G13  21811818.935   114621884.412         293.645          45.000                                                                  
G30  26733024.581   140482992.539        -705.220          27.000    26733040.375                        -548.188          23.000  
G15  23189877.836   121863663.931        1833.311          44.000    23189880.879    94958683.655        1428.314          37.000  
G25  25260027.541                       -2984.672          27.000                                                                  
G23  26880964.492                         721.623          16.000                                                                  
G29  23987982.394   126057741.504        1599.430          41.000    23987986.737    98226800.758        1246.406          39.000  
> 2025 04 04 10 57 04.0050000  0 10                     
G05  22376481.345   117589229.060       -2000.323          45.000    22376482.282    91627957.240       -1558.759          39.000  
G06  25502240.960   134015219.150       -2810.390          42.000    25502255.889   104427473.753       -2189.857          37.000  
G12  25161380.321   132223948.375       -3677.359          39.000    25161384.560   103031661.026       -2865.626          34.000  
G11  23619118.330   124119311.522       -1962.171          42.000    23619122.725    96716359.948       -1529.377          35.000  
G20  23463020.838   123299041.039       -2957.483          45.000                                                                  
G13  21811763.212   114621591.140         292.955          45.000                                                                  
G30  26733158.895   140483698.160        -706.295          27.000    26733172.852                        -549.411          23.000  
G15  23189528.803   121861830.751        1833.158          43.000    23189531.987    94957255.223        1428.307          37.000  
G23  26880836.806                         702.946          15.000                                                                  
G29  23987677.982   126056142.496        1598.524          41.000    23987682.540    98225554.780        1245.897          39.000  
> 2025 04 04 10 57 05.0050000  0 10                     
G05  22376862.061   117591229.484       -2000.513          45.000    22376862.829    91629516.007       -1558.655          39.000  
G06  25502775.707   134018029.417       -2809.972          41.000    25502790.763   104429663.631       -2190.290          37.000  
G12  25162080.058   132227626.027       -3677.348          39.000    25162084.472   103034526.709       -2865.719          34.000  
G11  23619491.809   124121273.749       -1962.270          42.000    23619496.058    96717888.946       -1530.034          35.000  
G20  23463583.461   123301998.237       -2957.065          45.000                                                                  
G13  21811707.573   114621298.449         292.534          45.000                                                                  
G30  26733293.467   140484403.923        -706.149          27.000    26733307.703                        -545.985          24.000  
G15  23189179.994   121859997.931        1832.950          43.000    23189183.134    94955827.039        1428.513          37.000  
G23  26880701.448                         702.946          14.000                                                                  
G29  23987373.632   126054543.779        1598.760          42.000    23987378.255    98224309.035        1245.752          39.000  
> 2025 04 04 10 57 06.0050000  0 12                     
G05  22377242.756   117593230.080       -2000.793          45.000    22377243.576    91631074.915       -1559.027          39.000  
G06  25503310.552   134020839.850       -2809.992          41.000    25503325.556   104431853.524       -2190.167          37.000  
G12  25162779.847   132231303.626       -3677.397          39.000    25162784.326   103037392.391       -2865.643          34.000  
G11  23619865.306   124123236.217       -1962.568          42.000    23619869.476    96719418.224       -1529.250          35.000  
G19  26517316.102                       -5296.830          13.000                                                                  
G20  23464146.197   123304955.396       -2957.348          44.000                                                                  
G13  21811651.929   114621006.317         291.750          45.000                                                                  
G30  26733427.918   140485110.083        -706.754          27.000    26733441.403                        -544.158          22.000  
G15  23188831.367   121858165.400        1832.496          43.000    23188834.467    94954399.117        1427.217          37.000  
G25  25261582.959                       -2762.367          26.000                                                                  
G23  26880569.747                         702.946          12.000                                                                  
G29  23987069.427   126052945.361        1598.079          42.000    23987074.101    98223063.528        1245.159          39.000  
> 2025 04 04 10 57 07.0050000  0 11                     
G05  22377623.601   117595231.024       -2001.263          46.000    22377624.375    91632634.101       -1559.607          39.000  
G06  25503845.398   134023650.697       -2810.850          35.000    25503860.431   104434043.749       -2189.736          33.000  
G12  25163479.675   132234981.403       -3678.166          40.000    25163484.209   103040258.188       -2866.344          34.000  
G11  23620238.630   124125198.691       -1963.047          42.000    23620243.273    96720947.3041      -1529.348          28.000  
G19  26517283.703                       -5295.680          23.000                                                                  
G20  23464709.017   123307912.647       -2957.426          44.000                                                                  
G13  21811596.584   114620714.923         290.789          45.000                                                                  
G30  26733562.689   140485816.460        -707.263          26.000    26733576.122                        -551.531          18.000  
G15  23188482.834   121856333.335        1831.766          43.000    23188485.780    94952971.493        1427.488          37.000  
G25  25262119.099                       -2776.650          25.000                                                                  
G29  23986765.376   126051347.448        1597.413          42.000    23986769.941    98221818.381        1245.109          39.000  
> 2025 04 04 10 57 08.0050000  0 11                     
G05  22378004.440   117597232.225       -2000.995          46.000    22378005.276    91634193.468       -1559.119          39.000  
G06  25504380.185   134026461.693       -2810.527          34.000    25504395.470   104436234.147       -2190.256          33.000  
G12  25164179.402   132238659.161       -3677.372          39.000    25164184.010   103043123.966       -2865.020          34.000  
G11  23620612.070   124127161.630       -1962.470          37.000    23620616.255    96722476.993       -1529.067          28.000  
G19  26518282.906                       -5286.524          21.000                                                                  
G20  23465271.764   123310869.950       -2956.826          44.000                                                                  
G13  21811541.242   114620424.114         290.914          45.000                                                                  
G30  26733697.470   140486523.193        -707.016          27.000                                                                  
G15  23188134.103   121854501.588        1832.029          43.000    23188137.142    94951544.183        1427.663          37.000  
G23  26880487.306                         719.168          20.000                                                                  
G29  23986461.331   126049749.866        1597.909          42.000    23986465.834    98220573.531        1244.898          39.000  
> 2025 04 04 10 57 09.0050000  0  9                     
G05  22378385.342   117599233.516       -2001.257          46.000    22378386.118    91635752.908       -1559.412          39.000  
G06  25504915.149   134029272.685       -2811.182          36.000    25504930.295   104438424.496       -2190.878          32.000  
G12  25164879.116   132242336.877       -3677.408          39.000    25164883.885   103045989.733       -2865.415          34.000  
G11  23620985.575   124129124.529       -1962.888          39.000    23620988.170    96724006.547       -1529.946          27.000  
G20  23465834.577   123313827.107       -2956.918          44.000                                                                  
G13  21811486.024   114620133.832         290.105          45.000                                                                  
G30  26733831.914   140487229.969        -706.958          26.000                                                                  
G15  23187785.446   121852670.102        1831.482          43.000    23187788.521    94950117.068        1427.125          37.000  
G29  23986157.335   126048152.506        1597.219          42.000    23986161.752    98219328.836        1244.486          39.000  
> 2025 04 04 10 57 10.0050000  0 10                     
G05  22378766.271   117601235.071       -2001.886          46.000    22378766.992    91637312.578       -1559.717          39.000  
G06  25505450.311   134032083.975       -2811.731          37.000    25505465.347   104440615.099       -2190.616          33.000  
G12  25165578.935   132246014.611       -3677.900          39.000    25165583.718   103048855.526       -2866.537          34.000  
G11  23621359.231   124131087.682       -1963.631          41.000    23621359.955    96725536.181       -1529.517          26.000  
G20  23466397.350   123316784.317       -2957.361          44.000                                                                  
G13  21811431.046   114619844.180         289.307          45.000                                                                  
G30  26733965.268                        -706.791          25.000                                                                  
G15  23187437.078   121850839.011        1830.687          43.000    23187439.960    94948690.223        1426.947          37.000  
G25  25263709.091                       -2774.899          25.000                                                                  
G29  23985853.405   126046555.508        1596.483          42.000    23985857.861    98218084.455        1243.821          39.000  
> 2025 04 04 10 57 11.0050000  0 11                     
G05  22379147.279   117603237.273       -2002.246          45.000    22379147.986    91638872.743       -1560.339          39.000  
G06  25505985.374   134034895.801       -2811.988          37.000    25506000.461   104442806.219       -2191.155          33.000  
G12  25166278.858   132249692.805       -3678.369          39.000    25166283.628   103051721.651       -2866.234          35.000  
G11  23621732.854   124133051.472       -1964.184          45.000    23621736.974    96727066.335       -1530.290          35.000  
G19  26521310.818                       -5292.506          17.000                                                                  
G20  23466960.056   123319741.880       -2957.778          44.000                                                                  
G13  21811376.118   114619555.564         288.164          46.000                                                                  
G30  26734098.487                        -707.754          26.000                                                                  
G15  23187088.917   121849008.637        1829.873          44.000    23187091.638    94947263.997        1425.949          36.000  
G25  25264235.500   132764453.3923      -2777.393          26.000                                                                  
G29  23985549.469   126044959.309        1595.586          42.000    23985554.084    98216840.634        1243.412          39.000  
> 2025 04 04 10 57 12.0050000  0 11                     
G05  22379528.539   117605240.030       -2003.064          45.000    22379529.050    91640433.338       -1560.767          39.000  
G06  25506520.724   134037708.099       -2812.078          37.000    25506535.672   104444997.711       -2191.808          33.000  
G12  25166978.762   132253371.384       -3678.416          39.000    25166983.615   103054588.020       -2866.393          35.000  
G11  23622106.695   124135015.848       -1964.586          46.000    23622111.712    96728597.092       -1530.718          38.000  
G19  26522321.135                       -5292.506          17.000                                                                  
G20  23467522.998   123322699.845       -2957.895          44.000                                                                  
G13  21811321.355   114619267.852         287.332          45.000                                                                  
G30  26734229.839                        -709.230          26.000                                                                  
G15  23186740.740   121847178.980        1829.116          43.000    23186743.468    94945838.276        1425.813          37.000  
G25  25264761.556   132767230.6282      -2777.350          26.000                                                                  
G29  23985245.950   126043363.737        1594.888          41.000    23985250.404    98215597.343        1243.245          39.000  
> 2025 04 04 10 57 13.0050000  0 11                     
G05  22379909.582   117607243.107       -2003.180          46.000    22379910.226    91641994.177       -1560.986          39.000  
G06  25507055.999   134040520.781       -2812.778          42.000    25507070.840   104447189.399       -2191.943          38.000  
G12  25167678.844   132257050.088       -3678.697          41.000    25167683.708   103057454.592       -2866.521          31.000  
G11  23622480.537   124136980.443       -1965.030          45.000    23622484.631    96730128.024       -1531.344          38.000  
G19  26523321.754                       -5292.506          16.000                                                                  
G20  23468085.924   123325657.886       -2958.001          44.000                                                                  
G13  21811266.754   114618980.861         286.846          42.000                                                                  
G30  26734359.857                        -709.932          26.000                                                                  
G15  23186392.646   121845349.775        1828.856          44.000    23186395.381    94944412.892        1425.306          37.000  
G25  25265289.005   132770008.2792      -2777.783          26.000                                                                  
G29  23984942.370   126041768.651        1594.842          42.000    23984946.913    98214354.428        1242.712          39.000  
> 2025 04 04 10 57 14.0050000  0 11                     
G05  22380290.850   117609246.349       -2003.467          45.000    22380291.365    91643555.132       -1561.084          39.000  
G06  25507591.288   134043333.551       -2812.846          42.000    25507606.041   104449381.135       -2192.117          37.000  
G12  25168378.961   132260728.747       -3679.038          40.000    25168383.656   103060321.079       -2866.517          33.000  
G11  23622854.425   124138945.204       -1964.903          45.000    23622858.334    96731658.915       -1531.158          37.000  
G19  26524328.684                       -5292.506          16.000                                                                  
G20  23468648.811   123328615.835       -2958.119          44.000                                                                  
G13  21811212.332   114618694.439         286.025          41.000                                                                  
G30  26734500.607   140490748.1913       -709.502          28.000                                                                  
G15  23186044.711   121843520.805        1828.695          43.000    23186047.297    94942987.756        1425.155          37.000  
G25  25265806.891   132772785.5081      -2777.240          26.000                                                                  
G29  23984639.002   126040173.844        1594.417          43.000    23984643.416    98213111.714        1242.562          39.000  
> 2025 04 04 10 57 15.0050000  0 11                     
G05  22380672.194   117611249.791       -2003.711          46.000    22380672.640    91645116.268       -1561.530          39.000  
G06  25508126.617   134046146.475       -2813.318          44.000    25508141.344   104451572.939       -2191.696          36.000  
G12  25169078.938   132264407.423       -3679.240          39.000    25169083.613   103063187.542       -2866.677          35.000  
G11  23623228.301   124140910.082       -1965.351          45.000    23623232.163    96733189.986       -1531.153          35.000  
G19  26525329.371                       -5292.506          15.000                                                                  
G20  23469211.591   123331573.763       -2958.052          45.000                                                                  
G13  21811158.045   114618408.591         285.282          40.000                                                                  
G30  26734637.593   140491457.4592       -709.397          27.000                                                                  
G15  23185696.758   121841692.165        1828.061          43.000    23185699.175    94941562.856        1424.344          37.000  
G25  25266337.296   132775563.491       -2778.308          27.000                                                                  
G29  23984335.622   126038579.330        1594.291          43.000    23984340.000    98211869.242        1242.406          39.000  
> 2025 04 04 10 57 16.0050000  0 12                     
G05  22381053.451   117613253.435       -2004.163          45.000    22381054.024    91646677.532       -1561.438          40.000  
G06  25508661.944   134048959.592       -2813.698          43.000    25508676.626   104453765.090       -2192.837          32.000  
G12  25169778.963   132268086.070       -3679.104          39.000    25169783.778   103066054.074       -2867.077          35.000  
G11  23623602.221   124142875.150       -1965.511          45.000    23623606.131    96734721.279       -1532.146          35.000  
G19  26526339.706                       -5292.506          12.000                                                                  
G20  23469774.526   123334531.691       -2958.624          44.000                                                                  
G13  21811103.774   114618123.288         284.516          41.000                                                                  
G30  26734770.670   140492166.9962       -710.265          26.000    26734794.881                        -553.127          25.000  
G15  23185348.819   121839863.851        1827.766          43.000    23185351.227    94940138.222        1424.082          37.000  
G25  25266867.560   132778341.754       -2779.089          27.000                                                                  
G29  23984032.424   126036985.184        1593.409          44.000    23984036.583    98210627.041        1241.892          38.000  
G24  27570322.568                         708.984          15.000                                                                  
> 2025 04 04 10 57 17.0050000  0 12                     
G05  22381434.868   117615257.539       -2004.065          45.000    22381435.458    91648239.171       -1561.310          40.000  
G06  25509197.376   134051773.114       -2813.075          43.000    25509211.956   104455957.477       -2192.541          33.000  
G12  25170478.937   132271764.991       -3678.945          40.000    25170483.824   103068920.751       -2866.510          36.000  
G11  23623976.180   124144840.636       -1965.464          45.000    23623980.193    96736252.822       -1531.160          35.000  
G19  26527348.810                       -5292.506          11.000                                                                  
G20  23470337.455   123337489.839       -2957.777          44.000                                                                  
G13  21811049.599   114617838.873         284.331          41.000                                                                  
G30  26734907.285   140492877.0742       -710.452          26.000    26734925.415                        -552.726          25.000  
G15  23185001.069   121838036.122        1827.734          43.000    23185003.397    94938714.049        1424.036          37.000  
G25  25267396.607   132781120.418       -2778.430          27.000                                                                  
G29  23983729.269   126035391.577        1593.736          43.000    23983733.135    98209385.316        1241.622          38.000  
G24  27570187.989                         708.984          14.000                                                                  
> 2025 04 04 10 57 18.0050000  0 12                     
G05  22381816.417   117617261.998       -2004.809          45.000    22381816.863    91649801.101       -1562.427          40.000  
G06  25509732.826   134054586.982       -2814.448          42.000    25509747.303   104458150.088       -2192.917          33.000  
G12  25171179.042   132275444.073       -3679.336          40.000    25171183.999   103071787.554       -2866.568          36.000  
G11  23624350.274   124146806.449       -1966.039          45.000    23624354.321    96737784.645       -1531.705          35.000  
G19  26528356.401                       -5292.506          12.000                                                                  
G20  23470900.438   123340448.114       -2958.404          44.000                                                                  
G13  21810995.674   114617555.175         283.144          41.000                                                                  
G30  26735046.187   140493587.4792       -711.234          25.000    26735058.922   109475596.8761       -553.980          26.000  
G15  23184653.363   121836208.887        1827.043          43.000    23184655.754    94937290.198        1423.587          37.000  
G25  25267926.980   132783899.406       -2778.986          26.000                                                                  
G29  23983426.081   126033798.447        1592.731          43.000    23983429.884    98208143.894        1241.233          38.000  
G24  27570051.901                         708.984          12.000                                                                  
> 2025 04 04 10 57 19.0050000  0 13                     
G05  22382197.866   117619266.829       -2004.657          45.000    22382198.409    91651363.335       -1562.305          40.000  
G06  25510268.356   134057401.180       -2813.979          42.000    25510282.789   104460342.988       -2193.297          33.000  
G12  25171879.140   132279123.309       -3678.837          40.000    25171884.179   103074654.527       -2866.896          36.000  
G11  23624724.361   124148772.623       -1966.175          45.000    23624728.472    96739316.727       -1531.796          36.000  
G19  26529362.890                       -5292.506          14.000                                                                  
G20  23471463.529   123343406.535       -2958.151          45.000                                                                  
G13  21810941.787   114617272.219         282.836          42.000                                                                  
G30  26735183.825   140494298.274        -710.589          28.000    26735194.715   109476150.736        -554.208          27.000  
G15  23184305.801   121834382.102        1827.225          43.000    23184308.079    94935866.769        1423.570          38.000  
G25  25268457.794   132786678.839       -2779.370          27.000                                                                  
G23  26880471.273                         705.789          21.000                                                                  
G29  23983123.015   126032205.824        1592.692          42.000    23983126.595    98206902.896        1241.089          38.000  
G24  27569906.636                         708.984          14.000                                                                  
> 2025 04 04 10 57 20.0050000  0 12                     
G05  22382579.486   117621271.672       -2005.029          45.000    22382579.903    91652925.519       -1562.000          40.000  
G06  25510803.932   134060215.336       -2814.503          42.000    25510818.387   104462535.819       -2193.262          32.000  
G12  25172579.184   132282802.349       -3679.075          40.000    25172584.273   103077521.315       -2867.079          35.000  
G11  23625098.507   124150738.741       -1966.404          45.000    23625102.746    96740848.792       -1532.759          37.000  
G19  26530372.123                       -5292.506          13.000                                                                  
G20  23472026.462   123346364.727       -2958.340          45.000                                                                  
G13  21810888.052   114616989.627         282.238          42.000                                                                  
G30  26735319.397   140495009.179        -711.807          29.000    26735329.922   109476704.624        -553.951          27.000  
G15  23183958.179   121832555.459        1826.480          43.000    23183960.463    94934443.412        1422.982          38.000  
G25  25268988.902   132789458.226       -2779.547          27.000                                                                  
G29  23982819.952   126030613.303        1592.354          42.000    23982823.471    98205661.974        1240.707          38.000  
G24  27569773.523                         708.984          14.000                                                                  
> 2025 04 04 10 57 21.0050000  0 11                     
G05  22382960.961   117623276.494       -2004.724          45.000    22382961.415    91654487.726       -1561.780          39.000  
G06  25511339.529   134063029.465       -2814.063          42.000    25511353.942   104464728.565       -2192.103          32.000  
G12  25173279.225   132286481.218       -3678.638          40.000    25173284.445   103080387.976       -2866.511          36.000  
G11  23625472.678   124152704.869       -1966.081          45.000    23625476.861    96742380.810       -1531.530          36.000  
G20  23472589.439   123349322.699       -2957.647          45.000                                                                  
G13  21810834.548   114616707.475         282.004          42.000                                                                  
G30  26735453.785   140495720.162        -711.224          29.000    26735462.559   109477258.653        -554.542          27.000  
G15  23183610.501   121830728.957        1826.705          43.000    23183613.095    94933020.140        1423.245          38.000  
G25  25269517.789   132792237.676       -2779.022          27.000                                                                  
G29  23982516.921   126029020.917        1592.585          42.000    23982520.444    98204421.156        1240.719          38.000  
G24  27569636.588                         708.984          12.000                                                                  
> 2025 04 04 10 57 22.0050000  0 11                     
G05  22383342.494   117625281.545       -2005.664          46.000    22383343.005    91656050.129       -1563.000          39.000  
G06  25511875.129   134065843.743       -2814.812          42.000    25511889.488   104466921.593       -2193.033          32.000  
G12  25173979.254   132290160.065       -3679.052          41.000    25173984.455   103083254.632       -2867.259          35.000  
G11  23625846.871   124154671.137       -1966.827          44.000    23625851.027    96743912.953       -1532.612          36.000  
G20  23473152.410   123352280.624       -2958.307          45.000                                                                  
G13  21810780.914   114616425.882         280.710          41.000                                                                  
G30  26735589.172   140496431.252        -711.344          29.000    26735596.797   109477812.810        -554.222          27.000  
G15  23183262.926   121828902.737        1825.659          43.000    23183265.620    94931597.148        1422.344          38.000  
G25  25270046.261   132795017.279       -2779.834          27.000                                                                  
G29  23982214.007   126027428.848        1591.650          42.000    23982217.418    98203180.590        1240.016          38.000  
G24  27569501.805                         708.984          10.000                                                                  
> 2025 04 04 10 57 23.0050000  0 11                     
G05  22383724.141   117627287.276       -2006.085          46.000    22383724.673    91657613.035       -1563.373          39.000  
G06  25512410.866   134068658.686       -2815.450          43.000    25512425.064   104469115.110       -2194.593          32.000  
G12  25174679.459   132293839.408       -3679.689          41.000    25174684.666   103086121.639       -2867.657          35.000  
G11  23626221.141   124156638.053       -1967.514          44.000    23626225.341    96745445.631       -1533.233          36.000  
G20  23473715.429   123355239.022       -2958.712          45.000                                                                  
G13  21810727.588   114616145.338         279.848          42.000                                                                  
G30  26735724.012   140497143.173        -712.377          29.000    26735733.114   109478367.577        -555.619          27.000  
G15  23182915.631   121827077.334        1824.823          43.000    23182918.246    94930174.763        1421.793          38.000  
G25  25270575.920   132797797.599       -2780.505          27.000                                                                  
G23  26879969.604                         705.789          14.000                                                                  
G29  23981911.208   126025837.572        1590.658          42.000    23981914.534    98201940.629        1239.559          38.000  
> 2025 04 04 10 57 24.0050000  0 11                     
G05  22384105.914   117629293.171       -2005.896          45.000    22384106.365    91659176.053       -1562.830          39.000  
G06  25512946.560   134071473.763       -2815.253          43.000    25512960.777   104471308.657       -2194.092          32.000  
G12  25175379.680   132297518.723       -3679.243          41.000    25175384.885   103088988.637       -2867.246          35.000  
G11  23626595.481   124158605.114       -1967.016          44.000    23626599.731    96746978.403       -1532.896          36.000  
G20  23474278.398   123358197.349       -2958.274          45.000                                                                  
G13  21810674.389   114615865.353         279.889          42.000                                                                  
G30  26735859.299   140497855.294        -712.100          29.000    26735868.676   109478922.468        -555.249          26.000  
G15  23182568.343   121825252.222        1825.039          43.000    23182570.916    94928752.589        1422.092          38.000  
G25  25271106.181   132800578.101       -2780.353          27.000                                                                  
G23  26879833.379                         705.789          15.000                                                                  
G29  23981608.489   126024246.583        1591.067          42.000    23981611.806    98200700.915        1239.782          39.000  
> 2025 04 04 10 57 25.0050000  0 11                     
G05  22384487.497   117631298.969       -2006.006          45.000    22384488.115    91660739.016       -1563.239          39.000  
G06  25513482.300   134074288.710       -2815.214          43.000    25513496.458   104473502.122       -2193.727          32.000  
G12  25176079.815   132301197.739       -3678.850          41.000    25176084.999   103091855.394       -2866.730          34.000  
G11  23626969.799   124160572.056       -1967.179          44.000    23626974.071    96748511.068       -1532.839          36.000  
G20  23474841.254   123361155.358       -2958.195          45.000                                                                  
G13  21810621.181   114615585.672         279.383          42.000                                                                  
G30  26735994.618   140498567.335        -712.427          29.000    26736006.352   109479477.373        -555.803          26.000  
G15  23182221.029   121823427.143        1824.818          43.000    23182223.571    94927330.458        1422.006          38.000  
G25  25271639.572   132803358.494       -2780.579          28.000                                                                  
G23  26879698.778                         705.789          16.000                                                                  
G29  23981305.788   126022655.643        1590.491          42.000    23981309.065    98199461.238        1239.242          39.000  
> 2025 04 04 10 57 26.0050000  0 11                     
G05  22384869.196   117633305.028       -2006.519          45.000    22384869.903    91662302.184       -1563.281          39.000  
G06  25514018.035   134077103.870       -2815.506          43.000    25514032.237   104475695.715       -2193.090          32.000  
G12  25176779.953   132304876.839       -3679.422          41.000    25176785.145   103094722.192       -2867.008          35.000  
G11  23627344.074   124162539.217       -1967.681          44.000    23627348.433    96750043.933       -1533.243          36.000  
G20  23475404.136   123364113.397       -2958.232          45.000                                                                  
G13  21810568.129   114615306.630         278.457          42.000                                                                  
G30  26736130.055   140499279.666        -712.582          29.000    26736142.409   109480032.388        -555.047          26.000  
G15  23181873.768   121821602.435        1824.341          43.000    23181876.365    94925908.614        1421.711          39.000  
G25  25272167.042   132806139.168       -2781.134          29.000                                                                  
G23  26879560.877                         705.789          15.000                                                                  
G29  23981003.231   126021065.055        1590.213          42.000    23981006.352    98198221.798        1239.173          39.000  
> 2025 04 04 10 57 27.0050000  0 11                     
G05  22385251.045   117635311.684       -2006.769          45.000    22385251.708    91663865.814       -1563.672          39.000  
G06  25514553.757   134079919.623       -2815.974          43.000    25514568.035   104477889.798       -2194.212          32.000  
G12  25177480.090   132308556.323       -3679.621          40.000    25177485.320   103097589.363       -2867.551          35.000  
G11  23627718.546   124164506.958       -1968.038          45.000    23627722.881    96751577.242       -1533.212          36.000  
G20  23475967.058   123367071.818       -2958.380          45.000                                                                  
G13  21810515.279   114615028.570         277.542          42.000                                                                  
G30  26736265.851   140499992.717        -713.400          28.000    26736278.707   109480588.015        -556.323          26.000  
G15  23181526.634   121819778.469        1823.703          43.000    23181529.336    94924487.367        1420.680          39.000  
G25  25272695.427   132808920.412       -2781.311          29.000                                                                  
G23  26879425.667                         705.789          15.000                                                                  
G29  23980700.675   126019475.234        1589.482          43.000    23980703.690    98196982.974        1238.945          39.000  
> 2025 04 04 10 57 28.0050000  0 11                     
G05  22385632.823   117637318.663       -2007.202          45.000    22385633.591    91665429.696       -1563.959          39.000  
G06  25515089.614   134082735.639       -2816.279          43.000    25515103.989   104480084.106       -2193.913          32.000  
G12  25178180.188   132312235.925       -3679.928          40.000    25178185.563   103100456.590       -2867.546          35.000  
G11  23628093.123   124166474.971       -1968.330          44.000    23628097.468    96753110.755       -1533.444          36.000  
G20  23476529.982   123370030.332       -2958.731          45.000                                                                  
G13  21810462.577   114614751.212         277.032          42.000                                                                  
G30  26736401.489   140500706.097        -713.648          28.000    26736413.933   109481143.831        -555.821          26.000  
G15  23181179.674   121817954.941        1823.308          43.000    23181182.281    94923066.425        1420.689          39.000  
G25  25273222.190   132811702.025       -2781.781          28.000                                                                  
G23  26879291.415                         705.789          13.000                                                                  
G29  23980398.300   126017885.811        1589.088          43.000    23980401.341    98195744.481        1238.106          39.000  
> 2025 04 04 10 57 29.0050000  0 11                     
G05  22386014.730   117639325.989       -2007.593          46.000    22386015.581    91666993.855       -1564.368          39.000  
G06  25515625.545   134085551.941       -2816.382          43.000    25515639.850   104482278.623       -2194.182          32.000  
G12  25178880.449   132315915.642       -3679.704          40.000    25178885.832   103103323.917       -2868.036          35.000  
G11  23628467.706   124168443.275       -1968.454          44.000    23628472.009    96754644.508       -1533.882          36.000  
G20  23477092.998   123372988.939       -2958.795          45.000                                                                  
G13  21810409.895   114614474.556         276.119          42.000                                                                  
G30  26736537.185   140501419.845        -713.935          28.000    26736550.085   109481700.049        -556.102          26.000  
G15  23180832.902   121816131.852        1822.687          43.000    23180835.454    94921645.837        1420.468          39.000  
G25  25273753.227   132814483.939       -2782.080          29.000                                                                  
G23  26879156.615                         705.789          13.000                                                                  
G29  23980095.883   126016296.844        1588.747          43.000    23980098.997    98194506.323        1238.048          39.000  
> 2025 04 04 10 57 30.0050000  0 10                     
G05  22386396.796   117641333.717       -2007.727          45.000    22386397.625    91668558.314       -1564.465          39.000  
G06  25516161.652   134088368.612       -2816.521          43.000    25516175.822   104484473.434       -2194.837          32.000  
G12  25179580.613   132319595.593       -3679.785          40.000    25179586.138   103106191.365       -2866.804          34.000  
G11  23628842.434   124170411.957       -1968.666          45.000    23628846.619    96756178.546       -1534.055          36.000  
G20  23477656.009   123375947.703       -2958.537          45.000                                                                  
G13  21810357.385   114614198.689         275.732          41.000                                                                  
G30  26736672.997   140502134.032        -714.637          28.000    26736684.449   109482256.508        -556.172          25.000  
G15  23180486.033   121814309.298        1822.335          43.000    23180488.649    94920225.685        1420.279          39.000  
G25  25274283.825   132817266.275       -2781.970          29.000                                                                  
G29  23979793.730   126014708.401        1588.398          43.000    23979796.843    98193268.570        1237.946          39.000  
> 2025 04 04 10 57 31.0050000  0 10                     
G05  22386778.807   117643341.231       -2007.532          45.000    22386779.576    91670122.605       -1564.221          39.000  
G06  25516697.511   134091185.016       -2816.304          42.000    25516711.857   104486668.071       -2194.823          35.000  
G12  25180280.789   132323275.083       -3679.598          40.000    25180286.373   103109058.552       -2866.970          34.000  
G11  23629216.976   124172380.399       -1968.557          45.000    23629221.220    96757712.369       -1533.908          36.000  
G20  23478218.915   123378906.051       -2958.395          46.000                                                                  
G13  21810304.946   114613922.985         275.406          41.000                                                                  
G30  26736808.872   140502848.021        -714.080          28.000    26736819.109   109482812.936        -556.610          25.000  
G15  23180139.175   121812486.620        1822.493          43.000    23180141.833    94918805.427        1420.215          39.000  
G25  25274813.021   132820048.386       -2782.135          28.000                                                                  
G29  23979491.462   126013119.853        1588.361          43.000    23979494.698    98192030.761        1237.520          40.000  
> 2025 04 04 10 57 32.0050000  0 11                     
G05  22387160.745   117645348.685       -2007.727          45.000    22387161.570    91671686.865       -1564.117          39.000  
G06  25517233.407   134094001.385       -2816.556          44.000    25517247.748   104488862.551       -2194.257          34.000  
G12  25180981.003   132326954.339       -3679.843          39.000    25180986.450   103111925.510       -2867.357          34.000  
G11  23629591.598   124174348.775       -1968.238          45.000    23629595.916    96759246.095       -1534.577          38.000  
G19  26542407.973                       -5289.681          15.000                                                                  
G20  23478781.770   123381864.099       -2958.264          45.000                                                                  
G13  21810252.489   114613647.621         274.958          41.000                                                                  
G30  26736944.620   140503562.040        -714.137          27.000                                                                  
G15  23179792.335   121810664.018        1822.688          45.000    23179794.935    94917385.219        1420.044          39.000  
G25  25275340.547   132822830.497       -2782.190          27.000                                                                  
G29  23979189.192   126011531.353        1588.440          43.000    23979192.476    98190792.993        1237.564          40.000  
> 2025 04 04 10 57 33.0050000  0 11                     
G05  22387542.723   117647356.271       -2007.892          45.000    22387543.615    91673251.223       -1564.355          39.000  
G06  25517769.263   134096817.848       -2816.697          44.000    25517783.738   104491057.205       -2194.703          38.000  
G12  25181681.072   132330633.528       -3679.309          41.000    25181686.626   103114792.403       -2867.425          34.000  
G11  23629966.139   124176317.217       -1968.836          44.000    23629970.548    96760779.946       -1533.924          40.000  
G19  26543417.371                       -5289.681          14.000                                                                  
G20  23479344.635   123384822.017       -2957.907          45.000                                                                  
G13  21810200.334   114613372.753         274.388          39.000                                                                  
G30  26737080.266   140504276.144        -714.385          27.000                                                                  
G15  23179445.619   121808841.657        1822.160          44.000    23179448.144    94915965.244        1419.481          38.000  
G25  25275864.947   132825612.646       -2782.348          27.000                                                                  
G29  23978886.981   126009943.143        1587.964          43.000    23978890.366    98189555.420        1237.256          40.000  
> 2025 04 04 10 57 34.0050000  0 11                     
G05  22387924.639   117649363.904       -2007.428          45.000    22387925.642    91674815.610       -1563.971          39.000  
G06  25518305.193   134099634.264       -2816.177          44.000    25518319.619   104493251.852       -2194.662          38.000  
G12  25182381.070   132334312.565       -3678.644          41.000    25182386.641   103117659.188       -2866.268          34.000  
G11  23630340.768   124178285.668       -1968.173          44.000    23630345.124    96762313.815       -1533.676          40.000  
G19  26544423.145                       -5289.681          11.000                                                                  
G20  23479907.489   123387779.806       -2957.451          44.000                                                                  
G13  21810148.067   114613098.324         274.606          40.000                                                                  
G30  26737215.932   140504990.449        -714.061          28.000                                                                  
G15  23179098.934   121807019.493        1822.227          44.000    23179101.385    94914545.371        1419.765          37.000  
G25  25276390.770   132828394.932       -2781.995          27.000                                                                  
G29  23978584.799   126008355.097        1588.187          43.000    23978588.229    98188317.977        1237.569          39.000  
> 2025 04 04 10 57 35.0050000  0 11                     
G05  22388306.684   117651371.506       -2007.843          46.000    22388307.643    91676379.996       -1564.526          39.000  
G06  25518841.118   134102450.634       -2816.370          44.000    25518855.550   104495446.397       -2194.828          38.000  
G12  25183081.092   132337991.387       -3678.986          40.000    25183086.661   103120525.794       -2866.772          33.000  
G11  23630715.293   124180254.049       -1968.719          44.000    23630719.628    96763847.643       -1533.846          40.000  
G19  26545430.294                       -5300.301          11.000                                                                  
G20  23480470.290   123390737.318       -2957.721          44.000                                                                  
G13  21810095.955   114612824.222         274.031          40.000                                                                  
G30  26737351.574   140505704.728        -714.196          29.000                                                                  
G15  23178752.276   121805197.418        1821.890          43.000    23178754.593    94913125.525        1420.106          37.000  
G25  25276917.433   132831177.156       -2782.458          27.000                                                                  
G29  23978282.765   126006767.132        1587.669          43.000    23978286.087    98187080.581        1237.496          40.000  
> 2025 04 04 10 57 36.0050000  0 11                     
G05  22388688.798   117653379.482       -2008.093          46.000    22388689.718    91677944.647       -1564.746          39.000  
G06  25519377.038   134105267.321       -2816.429          41.000    25519391.625   104497641.281       -2194.733          37.000  
G12  25183781.183   132341670.367       -3679.181          40.000    25183786.786   103123392.492       -2866.217          33.000  
G11  23631090.024   124182222.812       -1969.027          44.000    23631094.315    96765381.730       -1534.099          40.000  
G20  23481033.212   123393694.969       -2957.712          44.000                                                                  
G13  21810044.076   114612550.911         273.047          42.000                                                                  
G30  26737487.378   140506419.470        -714.645          29.000                                                                  
G15  23178405.711   121803375.830        1821.470          43.000    23178407.872    94911706.141        1419.287          37.000  
G25  25277445.149   132833959.804       -2782.751          26.000                                                                  
G29  23977980.675   126005179.651        1587.228          43.000    23977984.088    98185843.600        1237.143          40.000  
G24  27568426.862                         818.723          22.000                                                                  
> 2025 04 04 10 57 37.0050000  0 11                     
G05  22389070.886   117655387.641       -2008.130          45.000    22389071.811    91679509.464       -1564.832          39.000  
G06  25519913.077   134108084.150       -2816.627          41.000    25519927.720   104499836.224       -2194.509          37.000  
G12  25184481.106   132345349.343       -3678.998          39.000    25184486.906   103126259.277       -2866.919          34.000  
G11  23631464.670   124184191.697       -1969.175          43.000    23631468.919    96766915.953       -1534.033          40.000  
G19  26547448.932                       -5300.301          10.000                                                                  
G20  23481596.016   123396652.598       -2957.604          44.000                                                                  
G13  21809992.205   114612278.139         272.717          41.000                                                                  
G30  26737623.363   140507134.469        -714.840          30.000                                                                  
G15  23178059.201   121801554.547        1821.044          44.000    23178061.278    94910286.959        1419.014          37.000  
G25  25277972.699   132836742.656       -2783.148          26.000                                                                  
G29  23977678.644   126003592.515        1587.011          43.000    23977682.064    98184606.854        1237.051          40.000  
> 2025 04 04 10 57 38.0050000  0 11                     
G05  22389453.126   117657396.106       -2008.881          46.000    22389454.010    91681074.473       -1564.886          39.000  
G06  25520449.122   134110901.260       -2817.232          43.000    25520463.807   104502031.380       -2195.787          32.000  
G12  25185181.235   132349028.409       -3679.089          39.000    25185187.005   103129126.082       -2867.298          33.000  
G11  23631839.435   124186160.841       -1969.186          45.000    23631843.686    96768450.367       -1534.713          38.000  
G19  26548453.453                       -5278.694          12.000                                                                  
G20  23482158.847   123399610.268       -2957.635          45.000                                                                  
G13  21809940.348   114612006.012         271.677          44.000                                                                  
G30  26737759.381   140507849.748        -715.572          29.000                                                                  
G15  23177712.718   121799733.696        1820.377          44.000    23177714.734    94908868.116        1418.899          37.000  
G25  25278501.060   132839525.679       -2783.044          26.000                                                                  
G29  23977376.620   126002005.746        1586.596          43.000    23977380.122    98183370.448        1236.149          40.000  
> 2025 04 04 10 57 39.0050000  0 12                     
G05  22389835.482   117659404.929       -2009.088          46.000    22389836.309    91682639.801       -1565.375          39.000  
G06  25520985.361   134113718.697       -2817.632          43.000    25520999.923   104504226.780       -2195.102          30.000  
G12  25185881.351   132352707.635       -3679.577          39.000    25185887.190   103131992.976       -2866.656          34.000  
G11  23632214.182   124188130.356       -1969.837          45.000    23632218.403    96769985.036       -1534.989          39.000  
G19  26549460.600                       -5301.644          13.000                                                                  
G20  23482721.808   123402568.097       -2958.068          44.000                                                                  
G13  21809888.716   114611734.730         270.832          45.000                                                                  
G30  26737895.440   140508565.447        -716.469          29.000                                                                  
G15  23177366.319   121797913.300        1820.166          44.000    23177368.310    94907449.657        1417.976          38.000  
G25  25279031.969   132842309.177       -2783.172          27.000                                                                  
G23  26876417.306                         696.549          21.000                                                                  
G29  23977074.653   126000419.504        1585.898          43.000    23977078.286    98182134.405        1235.653          40.000  
> 2025 04 04 10 57 40.0050000  0 11                     
G05  22390217.765   117661414.204       -2009.424          46.000    22390218.611    91684205.501       -1565.924          40.000  
G06  25521521.519   134116536.590       -2818.234          43.000    25521536.053   104506422.544       -2195.352          33.000  
G12  25186581.459   132356387.141       -3679.932          39.000    25186587.383   103134860.085       -2866.492          33.000  
G11  23632589.012   124190100.296       -1970.144          45.000    23632593.268    96771520.036       -1535.103          38.000  
G19  26550472.317                       -5314.461          14.000                                                                  
G20  23483284.814   123405526.149       -2958.066          44.000                                                                  
G13  21809837.292   114611464.260         270.178          45.000                                                                  
G30  26738031.763   140509281.612        -716.349          27.000                                                                  
G15  23177019.959   121796093.522        1819.370          43.000    23177022.066    94906031.641        1418.001          38.000  
G25  25279562.781   132845093.165       -2784.283          27.000                                                                  
G29  23976772.825   125998833.827        1585.418          43.000    23976776.615    98180898.833        1235.064          40.000  
> 2025 04 04 10 57 41.0050000  0 10                     
G05  22390600.150   117663423.746       -2009.668          46.000    22390601.025    91685771.380       -1566.284          39.000  
G06  25522057.863   134119354.721       -2818.288          43.000    25522072.149   104508618.425       -2195.696          33.000  
G12  25187281.563   132360066.698       -3679.492          39.000    25187287.717   103137727.338       -2867.670          33.000  
G11  23632963.995   124192070.461       -1970.420          45.000    23632968.283    96773055.246       -1535.179          39.000  
G20  23483847.669   123408484.240       -2958.145          44.000                                                                  
G13  21809785.889   114611194.461         269.543          45.000                                                                  
G30  26738168.122   140509998.102        -716.658          27.000                                                                  
G15  23176673.801   121794274.120        1819.380          43.000    23176675.794    94904613.924        1417.782          38.000  
G25  25280090.932   132847877.368       -2784.125          27.000    25280111.500                       -2168.567          25.000  
G29  23976471.083   125997248.557        1585.123          43.000    23976475.047    98179663.557        1235.242          40.000  
> 2025 04 04 10 57 42.0050000  0 11                     
G05  22390982.562   117665433.439       -2009.680          46.000    22390983.442    91687337.363       -1566.125          39.000  
G06  25522594.083   134122172.934       -2818.292          43.000    25522608.337   104510814.525       -2196.145          34.000  
G12  25187981.719   132363746.232       -3679.492          39.000    25187987.909   103140594.483       -2866.821          34.000  
G11  23633338.984   124194040.746       -1970.259          45.000    23633343.317    96774590.540       -1535.477          39.000  
G20  23484410.484   123411442.265       -2957.785          44.000                                                                  
G13  21809734.615   114610925.183         269.203          46.000                                                                  
G30  26738304.102   140510714.850        -717.329          26.000                                                                  
G15  23176327.600   121792455.009        1819.039          43.000    23176329.507    94903196.430        1417.693          38.000  
G25  25280621.360   132850661.765       -2784.393          27.000    25280640.500                       -2168.999          26.000  
G23  26876026.002                         707.535          18.000                                                                  
G29  23976169.492   125995663.551        1584.927          41.000    23976173.490    98178428.488        1235.146          40.000  
> 2025 04 04 10 57 43.0050000  0 11                     
G05  22391365.046   117667443.081       -2009.747          46.000    22391365.866    91688903.320       -1565.796          39.000  
G06  25523130.378   134124991.078       -2818.100          43.000    25523144.759   104513010.504       -2196.268          35.000  
G12  25188681.734   132367425.518       -3679.449          38.000    25188688.091   103143461.427       -2866.602          34.000  
G11  23633713.830   124196010.977       -1970.181          45.000    23633718.284    96776125.764       -1535.155          39.000  
G20  23484973.202   123414400.018       -2957.861          44.000                                                                  
G13  21809683.394   114610656.264         268.564          46.000                                                                  
G30  26738440.097   140511431.578        -716.970          27.000                                                                  
G15  23175981.470   121790635.956        1819.195          43.000    23175983.317    94901778.997        1417.750          38.000  
G25  25281153.996   132853446.128       -2784.595          27.000    25281170.813                       -2169.537          26.000  
G23  26875923.141                         707.535          16.000                                                                  
G29  23975867.864   125994078.611        1585.021          42.000    23975871.847    98177193.506        1234.784          39.000  
> 2025 04 04 10 57 44.0050000  0 11                     
G05  22391747.475   117669452.858       -2010.229          45.000    22391748.321    91690469.385       -1566.229          40.000  
G06  25523666.634   134127809.359       -2818.711          43.000    25523681.035   104515206.535       -2196.579          36.000  
G12  25189381.752   132371104.720       -3679.224          39.000    25189388.303   103146328.353       -2867.010          34.000  
G11  23634088.977   124197981.300       -1970.626          45.000    23634093.169    96777661.103       -1535.731          39.000  
G20  23485535.965   123417357.688       -2958.001          43.000                                                                  
G13  21809632.186   114610387.858         267.685          46.000                                                                  
G30  26738576.514   140512148.409        -716.192          26.000                                                                  
G15  23175635.347   121788817.169        1818.499          44.000    23175637.220    94900361.794        1416.610          38.000  
G25  25281684.941   132856230.569       -2784.473          27.000    25281699.179                       -2170.010          26.000  
G23  26875789.680                         707.535          14.000                                                                  
G29  23975566.355   125992493.960        1584.498          42.000    23975570.271    98175958.711        1234.292          39.000  
> 2025 04 04 10 57 45.0050000  0 11                     
G05  22392129.921   117671462.929       -2010.181          46.000    22392130.894    91692035.678       -1566.449          40.000  
G06  25524203.010   134130627.870       -2818.637          42.000    25524217.257   104517402.773       -2196.441          36.000  
G12  25190082.006   132374784.026       -3679.718          38.000    25190088.436   103149195.349       -2866.766          34.000  
G11  23634463.936   124199951.886       -1970.664          45.000    23634468.198    96779196.615       -1535.626          38.000  
G20  23486098.686   123420315.394       -2957.910          44.000                                                                  
G13  21809581.158   114610120.096         267.395          45.000                                                                  
G30  26738712.814   140512865.655        -716.852          25.000                                                                  
G15  23175289.330   121786998.812        1818.072          44.000    23175291.176    94898944.895        1416.417          38.000  
G25  25282215.445   132859015.358       -2784.826          27.000    25282229.045   103526501.1791      -2169.714          26.000  
G23  26875654.642                         707.535          15.000                                                                  
G29  23975264.982   125990909.731        1583.731          41.000    23975268.853    98174724.208        1234.392          39.000  
> 2025 04 04 10 57 46.0050000  0 10                     
G05  22392512.492   117673473.004       -2009.979          45.000    22392513.497    91693601.964       -1566.223          40.000  
G06  25524739.337   134133446.345       -2818.487          43.000    25524753.688   104519598.963       -2195.741          36.000  
G12  25190782.139   132378463.123       -3678.937          38.000    25190788.591   103152062.201       -2866.687          34.000  
G11  23634838.783   124201922.441       -1970.420          45.000    23634843.160    96780732.091       -1535.611          38.000  
G20  23486661.352   123423272.880       -2957.186          44.000                                                                  
G13  21809530.098   114609852.755         267.248          45.000                                                                  
G15  23174943.293   121785180.553        1818.157          43.000    23174945.188    94897528.077        1416.828          38.000  
G25  25282745.733   132861800.199       -2784.930          27.000    25282759.615   103528671.150       -2169.507          26.000  
G23  26875531.288                         707.535          16.000                                                                  
G29  23974963.507   125989325.592        1584.006          41.000    23974967.438    98173489.829        1234.417          39.000  
> 2025 04 04 10 57 47.0050000  0 10                     
G05  22392895.023   117675483.259       -2010.278          45.000    22392896.046    91695168.401       -1566.223          39.000  
G06  25525275.725   134136264.961       -2818.642          43.000    25525290.126   104521795.324       -2196.213          36.000  
G12  25191482.186   132382142.219       -3679.144          38.000    25191488.645   103154929.017       -2866.687          34.000  
G11  23635213.728   124203893.150       -1970.714          45.000    23635218.180    96782267.707       -1535.576          38.000  
G20  23487224.128   123426230.352       -2957.513          44.000                                                                  
G13  21809479.333   114609585.971         266.696          45.000                                                                  
G15  23174597.414   121783362.606        1817.974          44.000    23174599.301    94896111.500        1416.720          38.000  
G25  25283275.544   132864585.130       -2785.193          27.000    25283290.696   103530841.296       -2170.074          26.000  
G23  26875394.983                         707.535          16.000                                                                  
G29  23974662.216   125987741.775        1583.933          42.000    23974666.122    98172255.716        1233.871          39.000  
> 2025 04 04 10 57 48.0050000  0 10                     
G05  22393277.635   117677493.644       -2010.461          45.000    22393278.588    91696734.926       -1566.345          39.000  
G06  25525812.146   134139083.657       -2818.738          43.000    25525826.405   104523991.727       -2196.318          36.000  
G12  25192182.290   132385821.224       -3678.796          38.000    25192188.781   103157795.796       -2866.895          34.000  
G11  23635588.833   124205863.960       -1970.719          45.000    23635593.171    96783803.405       -1535.765          38.000  
G20  23487786.856   123429187.700       -2957.296          43.000                                                                  
G13  21809428.654   114609319.721         266.028          45.000                                                                  
G15  23174251.405   121781544.943        1817.262          43.000    23174253.357    94894695.115        1416.322          38.000  
G25  25283805.446   132867370.289       -2785.260          27.000    25283822.887   103533011.506       -2170.361          26.000  
G23  26875256.332                         707.535          17.000                                                                  
G29  23974360.828   125986158.220        1583.432          42.000    23974364.743    98171021.765        1233.648          39.000  
> 2025 04 04 10 57 49.0050000  0 10                     
G05  22393660.247   117679504.214       -2010.815          46.000    22393661.175    91698301.602       -1566.626          39.000  
G06  25526348.420   134141902.532       -2818.872          43.000    25526362.771   104526188.240       -2196.184          35.000  
G12  25192882.331   132389500.237       -3679.211          38.000    25192888.909   103160662.524       -2866.663          34.000  
G11  23635964.003   124207834.951       -1971.169          45.000    23635968.351    96785339.230       -1535.905          38.000  
G20  23488349.597   123432145.007       -2957.360          43.000                                                                  
G13  21809378.124   114609054.031         265.340          45.000                                                                  
G15  23173905.475   121779727.550        1817.399          43.000    23173907.460    94893278.985        1416.040          38.000  
G25  25284333.309   132870155.582       -2785.870          26.000    25284353.150   103535181.875       -2170.111          26.000  
G23  26875123.542                         707.535          16.000                                                                  
G29  23974059.597   125984574.993        1582.913          42.000    23974063.502    98169788.078        1233.397          39.000  
> 2025 04 04 10 57 50.0050000  0  9                     
G05  22394042.809   117681514.891       -2010.870          46.000    22394043.758    91699868.380       -1566.724          39.000  
G06  25526884.953   134144721.505       -2819.213          44.000    25526899.153   104528384.857       -2196.271          35.000  
G12  25193582.360   132393179.153       -3679.218          38.000    25193589.054   103163529.243       -2867.102          34.000  
G11  23636339.135   124209806.021       -1971.371          45.000    23636343.547    96786875.134       -1536.190          38.000  
G20  23488912.364   123435102.226       -2957.080          43.000                                                                  
G13  21809327.533   114608788.848         264.843          45.000                                                                  
G15  23173559.753   121777910.439        1816.870          43.000    23173561.595    94891863.062        1415.634          38.000  
G25  25284859.638   132872940.990       -2785.291          26.000    25284884.605   103537352.384       -2170.874          26.000  
G29  23973758.456   125982991.969        1582.882          42.000    23973762.298    98168554.561        1233.171          39.000  
