     3.02           OBSERVATION DATA    M (MIXED)           RINEX VERSION / TYPE
NetR9 5.01          Receiver Operator   28-FEB-25 03:27:49  PGM / RUN BY / DATE
TQBL                                                        MARKER NAME
TQBL                                                        MARKER NUMBER
GEODETIC                                                    MARKER TYPE         
TQBL                TQBL                                    OBSERVER / AGENCY   
5034K69681          Trimble NetR9       5.01                REC # / TYPE / VERS
                    TRM59900.00     NONE                    ANT # / TYPE
 -1626343.5660  5730606.2916  2271881.4271                  APPROX POSITION XYZ
       -0.1300        0.0000        0.0000                  ANTENNA: DELTA H/E/N
G   12 C1C L1C S1C C2W L2W S2W C2X L2X S2X C5X L5X S5X      SYS / # / OBS TYPES
S    6 C1C L1C S1C C5I L5I S5I                              SYS / # / OBS TYPES
R   12 C1C L1C S1C C1P L1P S1P C2C L2C S2C C2P L2P S2P      SYS / # / OBS TYPES
E   12 C1X L1X S1X C5X L5X S5X C7X L7X S7X C8X L8X S8X      SYS / # / OBS TYPES
C    6 C1I L1I S1I C7I L7I S7I                              SYS / # / OBS TYPES
     1.000                                                  INTERVAL
  2025     2    28     3    27   49.0000000     GPS         TIME OF FIRST OBS
G L2X -0.25000                                              SYS / PHASE SHIFT   
R L1P  0.25000                                              SYS / PHASE SHIFT   
R L2C -0.25000                                              SYS / PHASE SHIFT   
J L2X -0.25000                                              SYS / PHASE SHIFT   
GIOVE-A if present is mapped to satellite ID 51             COMMENT             
GIOVE-B if present is mapped to satellite ID 52             COMMENT             
DBHZ                                                        SIGNAL STRENGTH UNIT
                                                            END OF HEADER       
> 2025  2 28  3 27 49.0000000  0 30       0.000376436000
R23  23657370.594 6 126550974.58216        38.500    23657369.910 6 126550933.57516        37.100
R22  20427382.602 8 109042754.25218        51.000    20427383.031 8 109042718.24318        50.200    20427395.496 7  84811008.70117        47.900    20427396.309 8  84811005.70818        48.000
R21  20559471.633 8 110017886.82318        50.400    20559471.887 8 110017846.83318        48.300    20559483.910 7  85569442.25917        46.200    20559484.840 7  85569439.26217        46.600
R12  22685174.523 7 121180128.95017        43.700    22685174.102 7 121180085.94417        43.200    22685189.910 6  94251183.74216        41.600    22685190.664 6  94251179.73516        40.300
R11  21248240.727 8 113544152.85318        49.000    21248241.418 7 113544110.85917        47.900    21248253.766 7  88312095.85517        46.000    21248253.992 7  88312092.85217        45.100
R10  23409483.570 5 124785751.92015        35.000    23409483.738 5 124785675.96515        34.000
R08  23961251.352 6 128311410.36116        38.000    23961251.727 5 128311367.38415        35.900    23961272.930 5  99797814.08415        35.600    23961274.063 6  99797815.08516        36.000
R02  22968417.742 7 122563871.25017        43.600    22968417.789 6 122563830.23816        41.800    22968434.773 6  95327432.18316        39.900    22968435.555 6  95327429.19316        39.900
R01  22268475.852 7 119037755.26317        44.100    22268475.637 6 119037713.26716        41.500    22268493.410 6  92584894.01016        37.300    22268494.719 6  92584890.01316        36.200
G30  24936454.266 5 131041954.07315        33.200    24936474.914 4 102110693.45914        24.100    24936475.188 6 102110691.44416        36.100    24936480.820 6  97856097.71016        41.800
E15  26010843.531 7 136687900.85617        42.100    26010866.438 7 102072188.88417        45.600    26010861.184 7 104734937.06817        44.700    26010863.875 8 103403563.22918        51.700
E07  26391355.000 6 138687500.71316        41.100    26391381.500 7 103565426.21717        43.300    26391376.402 7 106267120.05017        44.100
G27  22633571.320 6 118940217.36516        39.800    22633588.613 6  92680758.47516        36.800    22633588.945 6  92680679.46916        41.800    22633593.699 7  88818980.04117        47.000
G16  24444882.328 5 128458730.63915        31.800    24444902.871 2 100097778.56512        16.300
G14  25439254.297 5 133684142.53015        32.000                                                    25439273.738 5 104169570.57715        35.500    25439283.941 6  99829204.36916        38.200
G09  21530028.656 7 113141061.72917        45.500    21530044.277 7  88161917.74117        45.500    21530044.258 7  88161861.74417        45.600    21530049.641 8  84488448.56118        50.800
G08  20348676.438 8 106933012.68718        48.700    20348689.918 8  83324472.27818        49.200    20348690.516 8  83324420.26918        48.100    20348693.672 8  79852565.14618        52.900
G07  22267507.609 7 117016539.23117        45.300    22267519.551 6  91181764.03416        41.100    22267519.195 7  91181713.03617        43.600
G04  21929013.477 7 115237734.92317        43.400    21929029.711 5  89795692.63215        32.400    21929029.563 7  89795633.63417        46.000    21929038.375 8  86054144.44418        48.200
G02  21820221.953 7 114666037.47917        44.600    21820235.055 5  89350203.93215        34.900
G01  23166252.867 6 121739484.51516        41.100    23166272.313 4  94862015.40314        27.800    23166272.191 7  94861924.40317        43.100    23166282.836 7  90909368.58117        46.400
C11  23815279.648 6 124012407.38316        41.100    23815287.590 7  95894215.65117        44.700
C06  35973705.023 7 187324519.93317        44.700    35973707.207 7 144851157.97717        47.500
C05  38613892.625 6 201072672.84316        36.500    38613901.125 6 155482177.76816        39.800
C04  39241310.719 5 204339799.21315        34.200    39241323.137 5 158008542.06415        35.900
C03  36238478.977 7 188703258.00917        43.700    36238482.008 7 145917347.11017        45.800
C02  36803335.156 6 191644623.21616        39.900    36803338.145 7 148191790.70617        44.900
C01  38025570.734 6 198009122.50116        39.000    38025579.117 6 153113246.56216        41.600
S27  38827313.547 6 204038900.37016        41.400    38827324.047 7 152366731.77117        43.500
S37  36841508.250 6 193603390.57816        41.600
> 2025  2 28  3 27 50.0000000  0 30       0.000375870000
R23  23656373.898 6 126545638.988 6        37.900    23656373.020 6 126545597.998 6        37.200
R22  20426671.695 8 109038958.083 8        50.900    20426672.141 8 109038922.085 8        49.700    20426684.813 8  84808056.130 8        48.400    20426685.391 8  84808053.133 8        48.300
R21  20559552.336 8 110018316.311 8        50.300    20559552.148 8 110018276.315 8        48.400    20559564.281 7  85569776.301 7        46.300    20559565.129 7  85569773.302 7        46.900
R12  22684659.383 7 121177381.269 7        43.700    22684659.512 7 121177338.276 7        43.100    22684675.355 6  94249046.659 6        41.400    22684676.055 6  94249042.650 6        40.700
R11  21248000.227 8 113542864.864 8        49.200    21248000.316 7 113542822.864 7        47.700    21248012.715 7  88311094.081 7        46.000    21248013.020 7  88311091.073 7        45.300
R10  23409546.203 5 124786086.584 5        34.800    23409546.543 5 124786010.601 5        34.100
R08  23961736.344 6 128314005.743 6        37.700    23961736.148 5 128313962.750 5        35.800    23961757.457 6  99799832.711 6        36.100    23961758.625 6  99799833.715 6        36.200
R02  22968178.906 7 122562599.337 7        43.100    22968179.520 6 122562558.338 6        41.700    22968196.992 6  95326442.915 6        39.900    22968197.313 6  95326439.924 6        39.800
R01  22268746.086 7 119039205.093 7        43.700    22268746.551 6 119039163.102 6        41.600    22268764.305 6  92586021.651 6        37.900    22268765.668 6  92586017.654 6        36.400
G30  24935667.555 5 131037815.777 5        33.700    24935688.012 4 102107468.819 4        24.300    24935688.168 6 102107466.804 6        36.300    24935693.980 6  97853007.430 6        41.900
E15  26010591.797 6 136686579.074 6        41.700    26010615.094 7 102071201.836 7        45.700    26010609.875 7 104733924.271 7        44.900    26010612.781 8 103402563.430 8        51.600
E07  26391717.703 6 138689408.346 6        41.800    26391744.566 7 103566850.728 7        43.600    26391739.313 7 106268581.726 7        44.300
G27  22634021.961 6 118942586.276 6        39.900    22634039.418 6  92682604.369 6        36.100    22634039.566 7  92682525.362 7        42.100    22634044.422 7  88820749.025 7        47.200
G16  24445102.492 5 128459887.220 5        31.800    24445123.207 2 100098679.778 2        16.300
G14  25438760.977 5 133681550.595 5        32.400                                                    25438780.336 5 104167550.893 5        35.000    25438790.633 6  99827268.830 6        38.100
G09  21530119.711 7 113141539.721 7        45.400    21530135.242 7  88162290.197 7        45.900    21530135.289 7  88162234.198 7        45.900    21530140.785 8  84488805.495 8        50.900
G08  20348819.023 8 106933761.829 8        48.500    20348832.184 8  83325056.020 8        49.300    20348832.832 8  83325004.015 8        48.200    20348836.063 8  79853124.567 8        53.000
G07  22266818.469 7 117012917.437 7        45.100    22266830.020 6  91178941.860 6        41.300    22266829.727 7  91178890.858 7        43.900
G04  21929369.672 7 115239608.570 7        43.600    21929386.250 5  89797152.614 5        32.400    21929386.148 7  89797093.611 7        46.300    21929394.996 8  86055543.591 8        48.600
G02  21819613.836 7 114662840.838 7        44.600    21819626.680 5  89347713.042 5        35.300
G01  23165537.992 6 121735730.883 6        41.200    23165558.230 4  94859090.498 4        26.000    23165557.934 7  94858999.495 7        43.200    23165568.945 7  90906565.551 7        46.400
C11  23815508.094 6 124013595.697 6        40.500    23815515.770 7  95895134.525 7        44.500
C06  35973467.930 7 187323285.290 7        44.700    35973470.203 7 144850203.274 7        47.700
C05  38613726.609 6 201071809.471 6        36.100    38613735.273 6 155481510.154 6        40.300
C04  39241139.555 5 204338908.351 5        34.300    39241152.012 6 158007853.106 6        36.700
C03  36238307.766 7 188702366.298 7        43.200    36238310.488 7 145916657.583 7        46.000
C02  36803171.789 6 191643771.818 6        39.600    36803174.563 7 148191132.346 7        45.100
C01  38025401.648 6 198008242.057 6        38.900    38025410.168 6 153112565.744 6        41.700
S27  38827144.750 6 204038015.305 6        41.400    38827155.914 7 152366070.788 7        43.500
S37  36841337.656 6 193602499.734 6        41.300
> 2025  2 28  3 27 51.0000000  0 34       0.000375303000
R23  23655376.195 6 126540303.310 6        38.100    23655375.117 6 126540262.317 6        37.100
R22  20425960.438 8 109035162.436 8        50.900    20425961.109 8 109035126.440 8        49.800    20425973.887 8  84805103.960 8        48.400    20425974.543 8  84805100.965 8        48.200
R21  20559632.602 8 110018746.565 8        50.500    20559632.570 8 110018706.566 8        48.400    20559644.613 7  85570110.940 7        46.600    20559645.508 7  85570107.943 7        46.900
R12  22684145.281 7 121174633.361 7        44.300    22684145.324 7 121174590.369 7        43.400    22684160.637 6  94246909.401 6        41.800    22684161.477 6  94246905.394 6        40.900
R11  21247759.188 8 113541576.875 8        49.100    21247759.574 7 113541534.878 7        47.600    21247771.531 7  88310092.305 7        46.200    21247772.039 7  88310089.300 7        45.300
R10  23409608.023 5 124786421.328 5        34.900    23409609.199 5 124786345.332 5        33.600
R08  23962221.086 6 128316600.812 6        37.400    23962220.609 6 128316557.823 6        36.200    23962241.996 6  99801851.106 6        36.600    23962242.824 6  99801852.107 6        36.200
R02  22967940.180 7 122561328.110 7        43.400    22967940.824 6 122561287.102 6        41.700    22967957.984 6  95325454.179 6        40.000    22967958.867 6  95325451.187 6        39.500
R01  22269017.156 7 119040655.234 7        43.900    22269017.605 6 119040613.244 6        41.500    22269036.090 6  92587149.533 6        38.000    22269037.039 6  92587145.532 6        36.500
G30  24934880.672 5 131033677.408 5        34.300    24934899.891 4 102104244.116 4        24.700    24934899.902 6 102104242.109 6        36.100    24934905.891 7  97849917.096 7        42.000
E29  24358174.789 8 128003068.61418        48.000    24358173.652 7  95586685.94717        44.400    24358171.781 8  98080252.46418        48.000    24358177.418 8  96833464.28618        50.200
E27  25180119.617 7 132322418.69717        45.100    25180120.211 7  98812177.00917        42.600    25180120.141 7 101389885.74817        44.000    25180122.934 7 100101025.87817        47.000
E21  25537387.930 7 134199880.87717        44.000    25537387.965 6 100214171.19016        41.800    25537387.961 7 102828453.89417        44.400    25537390.930 7 101521309.32717        45.300
E15  26010340.422 6 136685257.629 6        41.800    26010363.445 7 102070215.042 7        45.900    26010358.414 7 104732911.733 7        44.900    26010369.941 8 103401563.88818        50.100
E13  25764557.023 7 135393652.36617        42.300    25764557.801 5 101105655.02115        33.900    25764557.246 6 103743170.58016        39.400    25764559.492 6 102424433.33316        39.600
E07  26392080.984 6 138691315.977 6        41.400    26392107.465 7 103568275.245 7        43.700    26392102.289 7 106270043.405 7        44.200
G27  22634472.984 6 118944955.296 6        39.600    22634490.043 6  92684450.347 6        36.100    22634490.449 7  92684371.341 7        42.400    22634495.129 7  88822518.085 7        47.300
G16  24445322.008 5                        31.600
G14  25438266.609 5 133678958.587 5        32.000                                                    25438287.492 5 104165531.144 5        35.000    25438297.664 6  99825333.236 6        38.300
G09  21530210.398 7 113142018.129 7        45.700    21530226.152 7  88162662.976 7        45.700    21530226.254 7  88162606.977 7        45.800    21530231.691 8  84489162.739 8        51.000
G08  20348961.664 8 106934511.359 8        48.500    20348975.020 8  83325640.067 8        49.200    20348975.477 8  83325588.062 8        48.200    20348978.871 8  79853684.277 8        53.200
G07  22266129.188 7 117009295.712 7        45.000    22266140.902 6  91176119.737 6        41.300    22266140.574 7  91176068.737 7        44.000
G04  21929726.352 7 115241482.436 7        44.100    21929742.895 5  89798612.759 5        32.700    21929742.797 7  89798553.757 7        46.600    21929751.664 8  86056942.894 8        48.800
G02  21819005.383 7 114659644.503 7        44.800    21819018.453 5  89345222.396 5        34.800
G01  23164823.516 6 121731977.241 6        40.800    23164843.906 4  94856165.586 4        26.700    23164843.555 7  94856074.584 7        43.700    23164854.668 7  90903762.514 7        46.400
C11  23815736.453 6 124014784.361 6        40.600    23815744.246 7  95896053.673 7        44.700
C06  35973230.852 7 187322050.696 7        44.900    35973233.172 7 144849248.606 7        47.600
C05  38613561.000 6 201070946.006 6        36.200    38613569.363 6 155480842.461 6        40.700
C04  39240967.750 5 204338017.438 5        33.700    39240980.668 6 158007164.147 6        36.800
C03  36238136.469 7 188701474.522 7        43.200    36238139.074 7 145915968.003 7        45.900
C02  36803008.094 6 191642920.361 6        39.600    36803011.027 7 148190473.944 7        44.800
C01  38025232.508 6 198007361.530 6        38.900    38025241.227 6 153111884.866 6        41.400
S27  38826976.844 6 204037130.217 6        41.500    38826987.723 7 152365409.841 7        43.600
S37  36841165.969 6 193601608.813 6        41.700
> 2025  2 28  3 27 52.0000000  0 34       0.000374737000
R23  23654378.109 6 126534967.661 6        38.300    23654377.605 6 126534926.665 6        36.900
R22  20425249.063 8 109031367.425 8        51.000    20425250.117 8 109031331.432 8        50.000    20425263.031 8  84802152.291 8        48.500    20425263.438 7  84802149.292 7        47.700
R21  20559713.367 8 110019177.700 8        50.500    20559712.988 8 110019137.703 8        48.700    20559725.191 7  85570446.264 7        46.600    20559725.883 7  85570443.267 7        46.700
R12  22683630.664 7 121171885.334 7        44.300    22683630.645 7 121171842.336 7        43.600    22683646.383 6  94244772.049 6        41.200    22683647.051 6  94244768.042 6        40.500
R11  21247518.313 8 113540288.978 8        49.000    21247518.207 7 113540246.981 7        47.500    21247530.375 7  88309090.599 7        46.400    21247530.711 7  88309087.599 7        45.300
R10  23409670.594 5 124786756.267 5        34.300    23409671.742 5 124786680.277 5        33.500
R08  23962703.688 6 128319195.688 6        37.300    23962705.625 5 128319152.695 5        35.900    23962727.273 6  99803869.342 6        37.300    23962727.965 6  99803870.344 6        36.800
R02  22967702.820 7 122560057.638 7        43.500    22967703.152 7 122560016.639 7        42.100    22967719.867 6  95324466.036 6        39.900    22967720.926 6  95324463.039 6        39.700
R01  22269288.508 7 119042105.790 7        43.400    22269288.945 6 119042063.804 6        41.800    22269307.313 6  92588277.735 6        37.700    22269308.211 6  92588273.734 6        36.700
G30  24934092.617 5 131029539.014 5        33.800    24934112.543 4 102101019.383 4        24.600    24934112.285 6 102101017.388 6        36.100    24934118.457 6  97846826.736 6        41.900
E29  24358223.992 8 128003327.215 8        48.600    24358221.910 7  95586879.083 7        43.300    24358219.238 7  98080450.610 7        45.500    24358234.914 8  96833660.48018        52.000
E27  25180078.508 7 132322202.111 7        45.300    25180085.672 7  98812015.308 7        45.900    25180084.734 7 101389719.795 7        47.100    25180089.594 8 100100862.65018        49.400
E21  25537133.875 7 134198546.550 7        44.500    25537141.012 7 100213174.760 7        45.300    25537140.270 7 102827431.462 7        47.300    25537144.957 7 101520300.39617        47.800
E15  26010089.023 6 136683936.633 6        41.500    26010112.199 7 102069228.587 7        45.600    26010107.133 7 104731899.542 7        45.400    26010109.875 8 103400564.90218        50.700
E13  25763943.672 7 135390429.213 7        42.600    25763950.730 6 101103248.132 6        40.400    25763950.715 7 103740700.864 7        43.300    25763954.047 6 102421995.73916        40.800
E07  26392444.063 6 138693223.691 6        41.400    26392470.578 7 103569699.823 7        44.000    26392465.324 7 106271505.150 7        44.500
G27  22634924.102 6 118947324.520 6        39.600    22634941.152 6  92686296.491 6        36.400    22634941.461 7  92686217.483 7        42.000    22634946.145 7  88824287.303 7        47.200
G16  24445542.703 5                        31.300
G14  25437774.281 5 133676366.594 5        32.300                                                    25437794.121 5 104163511.406 5        34.700    25437804.102 6  99823397.655 6        38.400
G09  21530302.023 7 113142497.080 7        45.400    21530317.203 7  88163036.178 7        45.800    21530317.195 7  88162980.177 7        45.700    21530322.711 8  84489520.390 8        51.200
G08  20349104.328 8 106935261.386 8        48.700    20349117.617 8  83326224.501 8        49.200    20349118.203 7  83326172.496 7        47.900    20349121.512 8  79854244.360 8        53.100
G07  22265439.953 7 117005674.163 7        45.100    22265451.680 6  91173297.753 6        41.200    22265451.438 7  91173246.753 7        43.500
G04  21930083.422 7 115243356.625 7        43.900    21930099.535 5  89800073.160 5        32.600    21930099.500 7  89800014.155 7        46.400    21930108.242 8  86058342.440 8        48.700
G02  21818397.305 7 114656448.580 7        44.600    21818410.410 5  89342732.068 5        34.200
G01  23164109.813 6 121728223.695 6        40.700    23164129.617 4  94853240.751 4        27.300    23164129.348 7  94853149.750 7        43.700    23164140.398 7  90900959.549 7        46.800
C11  23815964.984 6 124015973.464 6        40.600    23815972.801 7  95896973.159 7        44.800
C06  35972993.742 7 187320816.237 7        44.400    35972996.055 7 144848294.042 7        47.600
C05  38613394.797 5 201070082.574 5        35.700    38613403.848 6 155480174.794 6        40.300
C04  39240796.984 5 204337126.558 5        34.200    39240809.242 6 158006475.251 6        37.200
C03  36237965.102 7 188700582.779 7        43.100    36237967.793 7 145915278.447 7        45.700
C02  36802844.906 6 191642068.944 6        39.500    36802847.551 7 148189815.574 7        44.900
C01  38025063.344 6 198006481.031 6        38.900    38025071.805 6 153111204.007 6        41.900
S27  38826807.797 6 204036245.125 6        41.300    38826818.879 7 152364748.922 7        43.800
S37  36840998.625 6 193600717.939 6        41.800
> 2025  2 28  3 27 53.0000000  0 36       0.000374172000
R23  23653381.070 6 126529631.979 6        38.100    23653380.352 6 126529590.983 6        36.900
R22  20424538.609 8 109027572.986 8        51.300    20424539.418 8 109027536.993 8        50.000    20424552.410 8  84799201.066 8        48.700    20424552.773 8  84799198.069 8        48.000
R21  20559793.727 8 110019609.653 8        50.400    20559793.797 8 110019569.658 8        48.900    20559806.055 7  85570782.224 7        47.000    20559806.785 7  85570779.227 7        47.400
R12  22683115.102 7 121169137.138 7        44.100    22683115.734 7 121169094.137 7        43.400    22683131.590 6  94242634.563 6        41.900    22683132.293 6  94242630.556 6        40.500
R11  21247277.109 8 113539001.112 8        48.600    21247277.273 7 113538959.111 7        47.800    21247289.375 7  88308088.919 7        46.600    21247289.957 7  88308085.922 7        45.400
R10  23409733.617 5 124787091.331 5        34.100    23409734.535 5 124787015.324 5        33.000
R08  23963188.648 6 128321790.306 6        37.500    23963189.641 6 128321747.319 6        36.200    23963211.602 6  99805887.377 6        37.500    23963212.266 6  99805888.381 6        36.600
R02  22967464.492 7 122558787.834 7        43.300    22967464.867 7 122558746.845 7        42.300    22967481.789 6  95323478.416 6        40.000    22967483.023 6  95323475.415 6        39.600
R01  22269559.328 7 119043556.686 7        43.000    22269560.672 6 119043514.699 6        41.500    22269578.859 6  92589406.193 6        37.500    22269579.961 6  92589402.198 6        36.200
G30  24933305.297 5 131025400.481 5        33.700    24933324.949 4 102097794.548 4        26.200    24933325.035 5 102097792.552 5        35.800    24933331.063 7  97843736.263 7        42.000
E30  28360234.375 5 149034045.74415        35.200
E29  24358273.273 8 128003586.153 8        48.700    24358270.629 7  95587072.441 7        43.600    24358269.551 7  98080648.953 7        46.200    24358284.938 9  96833856.94919        55.100
E27  25180037.125 7 132321985.412 7        46.000    25180048.914 7  98811853.427 7        47.500    25180046.535 7 101389553.685 7        47.400    25180049.012 8 100100699.29018        50.800
E21  25536879.930 7 134197212.165 7        44.800    25536892.074 7 100212178.384 7        47.200    25536889.395 8 102826409.027 8        48.000    25536891.844 7 101519291.49717        47.800
E19  25474841.938 6 133871197.02116        38.600                                                                                                    25474843.734 5 101272663.51315        34.100
E15  26009837.461 6 136682616.007 6        41.700    26009860.848 7 102068242.402 7        45.800    26009855.824 7 104730887.635 7        45.300    26009858.160 8 103399566.232 8        51.800
E13  25763330.070 7 135387206.122 7        43.100    25763344.246 7 101100841.259 7        44.000    25763342.824 7 103738231.276 7        45.600    25763341.613 8 102419558.00518        48.400
E07  26392807.250 6 138695131.397 6        41.500    26392833.633 7 103571124.393 7        44.100    26392828.656 7 106272966.886 7        44.600
G27  22635375.078 6 118949693.863 6        39.900    22635391.855 6  92688142.722 6        36.600    22635391.973 7  92688063.715 7        42.300    22635396.938 7  88826056.607 7        47.500
G16  24445762.336 5                        30.800
G14  25437281.742 5 133673774.581 5        31.600                                                    25437300.875 5 104161491.655 5        35.000    25437311.078 6  99821462.062 6        38.400
G09  21530393.227 7 113142976.471 7        45.800    21530408.551 7  88163409.723 7        45.800    21530408.438 7  88163353.724 7        45.700    21530413.945 8  84489878.370 8        51.100
G08  20349247.047 8 106936011.823 8        48.500    20349260.328 8  83326809.254 8        49.300    20349260.949 8  83326757.248 8        48.300    20349264.219 8  79854804.746 8        53.200
G07  22264750.820 7 117002052.705 7        45.200    22264762.508 6  91170475.838 6        41.400    22264762.344 7  91170424.837 7        43.800
G04  21930440.047 7 115245231.047 7        43.900    21930456.156 5  89801533.742 5        32.500    21930455.883 7  89801474.732 7        46.100    21930464.867 8  86059742.158 8        48.900
G02  21817789.055 7 114653252.983 7        44.800    21817802.336 5  89340241.998 5        34.600
G01  23163395.445 6 121724470.150 6        41.200    23163415.359 4  94850315.917 4        27.700    23163415.344 7  94850224.919 7        43.900    23163426.168 7  90898156.587 7        46.800
C11  23816192.852 6 124017162.904 6        41.100    23816201.262 7  95897892.903 7        44.800
C06  35972756.727 7 187319581.838 7        45.100    35972759.023 7 144847339.523 7        47.600
C05  38613229.383 6 201069219.096 6        36.300    38613238.102 6 155479507.094 6        40.200
C04  39240625.852 5 204336235.621 5        34.300    39240637.609 6 158005786.326 6        37.600
C03  36237793.602 7 188699690.991 7        43.600    36237796.789 7 145914588.856 7        45.900
C02  36802681.484 6 191641217.461 6        39.900    36802684.047 7 148189157.147 7        45.100
C01  38024894.063 6 198005600.488 6        38.900    38024902.883 6 153110523.111 6        41.800
S27  38826639.500 6 204035359.993 6        41.500    38826650.430 7 152364088.007 7        44.000
S37  36840829.047 6 193599827.013 6        41.900
> 2025  2 28  3 27 54.0000000  0 36       0.000373606000
R23  23652383.141 6 126524296.259 6        38.100    23652382.648 6 126524255.260 6        36.900
R22  20423827.992 8 109023779.092 8        51.000    20423828.340 8 109023743.104 8        49.800    20423841.383 8  84796250.264 8        48.200    20423841.871 7  84796247.268 7        47.600
R21  20559874.547 8 110020042.437 8        50.300    20559874.645 8 110020002.444 8        49.500    20559887.145 7  85571118.831 7        47.000    20559887.547 7  85571115.835 7        47.000
R12  22682601.508 7 121166388.756 7        44.500    22682601.676 7 121166345.758 7        43.300    22682617.793 6  94240496.931 6        41.800    22682618.055 6  94240492.923 6        40.600
R11  21247035.469 8 113537713.248 8        48.800    21247036.363 8 113537671.249 8        48.000    21247048.398 7  88307087.241 7        46.900    21247048.957 7  88307084.244 7        44.900
R10  23409797.375 5 124787426.515 5        34.300    23409796.578 5 124787350.508 5        33.600
R08  23963673.977 6 128324384.664 6        36.800    23963674.230 6 128324341.668 6        36.300    23963696.734 6  99807905.210 6        37.400    23963697.355 6  99807906.214 6        36.800
R02  22967227.039 7 122557518.711 7        43.700    22967227.492 7 122557477.715 7        42.300    22967244.176 6  95322491.327 6        40.300    22967245.410 6  95322488.322 6        39.400
R01  22269831.047 7 119045007.908 7        42.600    22269831.629 7 119044965.913 7        42.200    22269850.223 6  92590534.901 6        37.700    22269851.074 6  92590530.911 6        36.200
G30  24932516.805 5 131021261.829 5        33.200    24932537.453 3 102094569.632 3        23.500    24932537.617 5 102094567.629 5        34.700    24932543.777 7  97840645.711 7        42.000
E30  28360301.625 5 149034398.601 5        35.600
E29  24358322.586 8 128003845.414 8        48.900    24358321.734 7  95587266.039 7        44.400    24358317.773 7  98080847.570 7        44.200    24358326.035 8  96834052.87318        53.500
E27  25179995.938 7 132321768.586 7        45.700    25180010.004 7  98811691.471 7        47.900    25180006.992 7 101389387.508 7        47.700    25179998.531 8 100100535.09818        48.900
E21  25536626.156 7 134195877.713 7        44.900    25536640.805 7 100211181.928 7        47.400    25536637.086 7 102825386.542 7        47.800    25536628.910 7 101518282.52217        47.000
E19  25474472.852 6 133869258.033 6        38.700
E15  26009586.414 6 136681295.731 6        41.500    26009609.680 7 102067256.482 7        45.900    26009604.555 7 104729875.997 7        45.300    26009607.277 8 103398567.612 8        51.700
E13  25762716.734 7 135383983.101 7        43.100    25762735.480 7 101098434.448 7        45.300    25762731.996 7 103735761.738 7        45.700    25762737.352 8 102417120.33118        51.900
E07  26393170.148 6 138697039.070 6        41.600    26393196.563 7 103572548.941 7        44.000    26393191.691 7 106274428.598 7        44.300
G27  22635825.227 6 118952063.315 6        39.500    22635842.906 6  92689989.040 6        36.500    22635842.895 6  92689910.035 6        41.800    22635847.965 7  88827825.996 7        47.300
G16  24445981.906 5 128464512.642 5        31.900    24446003.785 2 100102283.96112        14.800
G14  25436788.398 5 133671182.507 5        32.800                                                    25436807.926 5 104159471.852 5        35.600    25436817.844 6  99819526.418 6        38.200
G09  21530484.648 7 113143456.314 7        45.800    21530499.988 7  88163783.621 7        45.700    21530500.027 7  88163727.620 7        45.700    21530505.305 8  84490236.686 8        50.900
G08  20349390.031 8 106936762.660 8        48.500    20349403.383 8  83327394.317 8        49.300    20349403.875 8  83327342.311 8        48.200    20349407.207 8  79855365.433 8        53.000
G07  22264061.586 7 116998431.338 7        45.300    22264073.336 6  91167653.994 6        41.800    22264073.195 7  91167602.993 7        44.100
G04  21930796.750 7 115247105.699 7        43.400    21930813.012 5  89802994.498 5        31.800    21930812.801 7  89802935.490 7        46.000    21930821.539 8  86061142.050 8        48.400
G02  21817180.641 7 114650057.695 7        44.600    21817193.914 5  89337752.162 5        35.000
G01  23162681.484 6 121720716.616 6        40.800    23162701.230 4  94847391.094 4        26.500    23162701.375 7  94847300.096 7        43.700    23162712.000 7  90895353.634 7        46.600
C11  23816421.359 6 124018352.685 6        41.300    23816429.648 7  95898812.911 7        45.100
C06  35972519.633 7 187318347.486 7        45.500    35972522.031 7 144846385.042 7        47.600
C05  38613063.375 5 201068355.567 5        35.800    38613072.477 6 155478839.356 6        39.400
C04  39240454.914 5 204335344.619 5        35.000    39240466.484 6 158005097.362 6        37.600
C03  36237622.422 7 188698799.135 7        44.100    36237625.480 7 145913899.216 7        45.300
C02  36802517.453 6 191640365.931 6        40.300    36802520.633 7 148188498.693 7        45.100
C01  38024724.859 6 198004719.891 6        39.400    38024733.672 6 153109842.174 6        41.700
S27  38826470.953 6 204034474.825 6        41.400    38826482.629 7 152363427.091 7        43.700
S37  36840660.797 7 193598936.026 7        42.000
> 2025  2 28  3 27 55.0000000  0 36       0.000373039000
R23  23651385.328 6 126518960.543 6        38.100    23651385.535 6 126518919.546 6        37.100
R22  20423117.633 8 109019985.792 8        51.200    20423117.809 8 109019949.802 8        50.100    20423130.660 8  84793299.922 8        48.300    20423131.242 7  84793296.929 7        47.600
R21  20559954.992 8 110020476.080 8        50.400    20559955.633 8 110020436.085 8        49.400    20559968.273 7  85571456.104 7        47.300    20559968.629 7  85571453.111 7        47.100
R12  22682087.000 7 121163640.212 7        44.300    22682087.109 7 121163597.218 7        43.400    22682103.648 7  94238359.176 7        42.100    22682103.578 6  94238355.165 6        40.600
R11  21246794.227 8 113536425.447 8        49.000    21246795.305 7 113536383.451 7        47.600    21246807.332 7  88306085.615 7        46.500    21246808.074 7  88306082.616 7        45.200
R10  23409859.641 5 124787761.848 5        34.400    23409859.270 5 124787685.857 5        34.200
R08  23964158.586 6 128326978.793 6        37.300    23964158.305 6 128326935.807 6        36.300    23964180.816 6  99809922.860 6        37.600    23964181.270 6  99809923.861 6        37.500
R02  22966989.336 7 122556250.288 7        43.400    22966989.582 7 122556209.286 7        42.400    22967006.695 6  95321504.776 6        40.500    22967007.457 6  95321501.766 6        39.700
R01  22270102.047 7 119046459.487 7        43.000    22270103.465 7 119046417.490 7        42.000    22270121.945 6  92591663.887 6        37.700    22270122.621 6  92591659.895 6        36.500
G30  24931729.242 5 131017123.088 5        33.800    24931749.418 4 102091344.633 4        25.000    24931749.410 5 102091342.633 5        34.700    24931755.805 6  97837555.092 6        41.800
E30  28360368.734 5 149034751.355 5        35.700
E29  24358371.977 8 128004105.050 8        49.200    24358378.570 8  95587459.909 8        48.600    24358373.152 7  98081046.495 7        47.600    24358374.711 8  96834250.11318        52.100
E27  25179954.695 7 132321551.689 7        46.100    25179971.598 7  98811529.481 7        47.500    25179967.285 7 101389221.297 7        47.700    25179957.191 7 100100371.84417        47.300
E21  25536372.281 7 134194543.238 7        45.300    25536389.500 7 100210185.423 7        47.000    25536385.039 7 102824364.029 7        47.400    25536374.105 7 101517273.15817        43.800
E19  25474103.750 6 133867319.452 6        38.700
E15  26009335.344 6 136679975.862 6        41.700    26009358.551 7 102066270.865 7        44.800    26009353.270 7 104728864.668 7        44.900    26009363.672 8 103397569.13218        50.900
E13  25762103.430 7 135380760.201 7        43.100    25762126.930 7 101096027.735 7        45.800    25762121.637 7 103733292.270 7        46.000    25762124.266 8 102414682.36618        52.000
E07  26393533.164 6 138698946.788 6        41.800    26393559.797 7 103573973.525 7        43.700    26393554.844 7 106275890.343 7        44.200
G27  22636276.672 6 118954432.941 6        39.600    22636293.770 6  92691835.495 6        36.800    22636293.555 6  92691756.488 6        41.600    22636298.707 7  88829595.512 7        47.300
G16  24446201.180 5                        31.500
G14  25436294.742 5 133668590.407 5        32.400                                                    25436314.625 5 104157452.029 5        34.900    25436324.508 6  99817590.755 6        38.100
G09  21530575.898 7 113143936.648 7        45.700    21530591.422 7  88164157.899 7        45.700    21530591.457 7  88164101.901 7        45.600    21530596.832 8  84490595.370 8        51.200
G08  20349532.852 8 106937513.942 8        48.500    20349546.199 8  83327979.729 8        49.300    20349546.805 8  83327927.724 8        48.600    20349550.094 8  79855926.451 8        53.000
G07  22263372.859 7 116994810.089 7        45.200    22263384.156 7  91164832.240 7        42.000    22263383.867 7  91164781.239 7        44.500
G04  21931153.125 7 115248980.622 7        43.500    21931169.523 5  89804455.464 5        32.200    21931169.324 7  89804396.456 7        46.100    21931178.156 8  86062542.145 8        48.300
G02  21816573.141 7 114646862.755 7        44.900    21816586.160 5  89335262.603 5        34.500
G01  23161966.672 6 121716963.120 6        40.800    23161986.668 4  94844466.300 4        27.300    23161986.586 7  94844375.299 7        44.300    23161997.434 7  90892550.705 7        46.600
C11  23816650.195 6 124019542.875 6        41.400    23816658.055 7  95899733.236 7        45.000
C06  35972282.664 7 187317113.229 7        46.000    35972284.891 7 144845430.636 7        47.300
C05  38612897.594 6 201067492.023 6        36.100    38612906.293 6 155478171.607 6        39.500
C04  39240283.766 5 204334453.617 5        35.000    39240295.582 6 158004408.389 6        37.900
C03  36237451.055 7 188697907.272 7        44.100    36237454.328 7 145913209.568 7        45.700
C02  36802354.195 6 191639514.401 6        40.400    36802357.109 7 148187840.233 7        45.000
C01  38024556.070 6 198003839.289 6        39.700    38024564.563 6 153109161.236 6        41.600
S27  38826302.453 6 204033589.623 6        41.500    38826313.754 7 152362766.165 7        43.600
S37  36840490.141 6 193598045.025 6        41.700
> 2025  2 28  3 27 56.0000000  0 36       0.000372475000
R23  23650387.016 6 126513624.776 6        37.900    23650388.012 6 126513583.768 6        36.400
R22  20422406.867 8 109016193.011 8        51.300    20422407.406 8 109016157.018 8        50.000    20422420.281 8  84790349.984 8        48.500    20422420.844 7  84790346.992 7        47.700
R21  20560037.086 8 110020910.440 8        50.700    20560037.031 8 110020870.447 8        49.800    20560049.520 7  85571793.937 7        47.600    20560049.914 7  85571790.941 7        47.000
R12  22681572.281 7 121160891.416 7        43.800    22681572.727 7 121160848.417 7        43.600    22681589.051 7  94236221.224 7        42.200    22681589.125 6  94236217.215 6        40.400
R11  21246553.648 8 113535137.616 8        49.200    21246554.504 7 113535095.624 7        47.500    21246566.527 7  88305083.971 7        46.700    21246567.215 7  88305080.970 7        45.900
R10  23409924.172 5 124788097.290 5        34.300    23409922.609 5 124788021.293 5        33.900
R08  23964643.297 6 128329572.596 6        37.500    23964643.059 6 128329529.615 6        36.300    23964665.617 6  99811940.255 6        38.000    23964666.223 6  99811941.253 6        38.000
R02  22966751.063 7 122554982.493 7        43.300    22966751.988 7 122554941.496 7        42.700    22966769.223 6  95320518.707 6        40.800    22966769.887 6  95320515.698 6        39.800
R01  22270373.891 7 119047911.349 7        43.200    22270375.133 6 119047869.354 6        41.500    22270393.637 6  92592793.099 6        37.300    22270394.082 6  92592789.105 6        36.200
G30  24930942.063 5 131012984.214 5        34.300    24930961.785 4 102088119.541 4        25.700    24930961.641 5 102088117.534 5        35.700    24930968.133 7  97834464.378 7        42.400
E30  28360436.008 5 149035103.937 5        35.700
E29  24358421.477 8 128004364.978 8        49.200    24358437.203 8  95587653.988 8        50.300    24358432.965 8  98081245.656 8        50.500    24358433.859 9  96834447.08719        56.000
E27  25179913.336 7 132321334.637 7        46.300    25179930.234 8  98811367.387 8        48.000    25179925.676 8 101389054.976 8        48.200    25179925.422 8 100100207.96218        51.200
E21  25536118.258 7 134193208.665 7        45.400    25536135.484 7 100209188.833 7        47.000    25536131.234 7 102823341.441 7        47.300    25536129.805 7 101516263.86817        47.100
E19  25473735.125 6 133865381.189 6        38.800
E15  26009084.086 7 136678656.315 7        42.100    26009107.453 7 102065285.491 7        44.900    26009102.309 7 104727853.585 7        45.300    26009113.820 8 103396571.25618        50.300
E13  25761490.273 7 135377537.327 7        43.300    25761514.141 7 101093621.047 7        46.000    25761508.914 7 103730822.812 7        45.900    25761520.234 8 102412244.58718        50.600
E07  26393896.352 6 138700854.451 6        41.400    26393922.770 7 103575398.063 7        43.900    26393917.840 7 106277352.046 7        44.400
G27  22636727.352 6 118956802.631 6        39.600    22636744.715 6  92693681.999 6        37.100    22636744.582 6  92693602.994 6        41.800    22636749.762 7  88831365.078 7        47.300
G16  24446420.844 5 128466824.562 5        31.000    24446443.086 2 100104085.46212        14.800
G14  25435801.039 5 133665998.233 5        33.300                                                    25435821.461 5 104155432.151 5        35.700    25435831.246 6  99815655.037 6        38.300
G09  21530667.797 7 113144417.387 7        46.000    21530683.086 7  88164532.495 7        46.000    21530683.266 7  88164476.498 7        45.900    21530688.508 8  84490954.358 8        51.000
G08  20349676.141 8 106938265.591 8        48.400    20349689.266 8  83328565.427 8        49.500    20349690.035 8  83328513.421 8        48.800    20349693.070 8  79856487.743 8        53.300
G07  22262683.617 7 116991188.891 7        45.400    22262695.555 6  91162010.526 6        41.700    22262695.430 7  91161959.524 7        44.300
G04  21931509.688 7 115250855.745 7        43.400    21931526.652 5  89805916.588 5        32.000    21931526.305 7  89805857.581 7        45.800    21931535.270 8  86063942.388 8        48.400
G02  21815965.258 7 114643668.101 7        44.800    21815978.414 5  89332773.266 5        35.200
G01  23161253.273 6 121713209.597 6        40.900    23161272.418 4  94841541.481 4        28.100    23161272.141 7  94841450.483 7        43.900    23161283.086 7  90889747.755 7        46.800
C11  23816878.625 6 124020733.364 6        41.300    23816886.691 7  95900653.791 7        45.000
C06  35972045.711 7 187315878.989 7        46.700    35972047.770 7 144844476.243 7        47.800
C05  38612731.555 6 201066628.389 6        36.300    38612740.527 6 155477503.786 6        40.000
C04  39240111.859 5 204333562.508 5        35.500    39240124.957 6 158003719.329 6        38.500
C03  36237279.906 7 188697015.313 7        44.100    36237282.902 7 145912519.846 7        45.800
C02  36802190.453 6 191638662.745 6        40.600    36802193.398 7 148187181.676 7        44.700
C01  38024386.750 6 198002958.574 6        39.600    38024395.543 6 153108480.206 6        41.600
S27  38826134.172 6 204032704.319 6        41.700    38826145.168 7 152362105.129 7        43.800
S37  36840317.547 6 193597153.937 6        41.400
> 2025  2 28  3 27 57.0000000  0 36       0.000371908000
R23  23649390.938 6 126508288.982 6        37.600    23649389.820 6 126508247.991 6        36.600
R22  20421696.688 8 109012400.832 8        50.800    20421696.816 8 109012364.835 8        49.800    20421709.816 8  84787400.512 8        48.500    20421710.242 7  84787397.519 7        47.900
R21  20560118.766 8 110021345.616 8        50.600    20560118.305 8 110021305.622 8        49.800    20560130.867 7  85572132.406 7        47.700    20560131.203 7  85572129.406 7        47.000
R12  22681056.539 7 121158142.439 7        43.800    22681058.102 7 121158099.444 7        43.500    22681074.371 6  94234083.135 6        41.900    22681074.656 6  94234079.127 6        40.200
R11  21246312.539 8 113533849.832 8        49.100    21246313.480 7 113533807.839 7        47.500    21246325.758 7  88304082.365 7        46.400    21246326.148 7  88304079.361 7        46.200
R10  23409985.820 5 124788432.912 5        34.300    23409986.324 5 124788356.910 5        34.000
R08  23965127.914 6 128332166.146 6        37.100    23965127.836 6 128332123.167 6        36.300    23965150.129 6  99813957.453 6        38.200    23965150.879 6  99813958.453 6        37.400
R02  22966513.727 7 122553715.427 7        43.200    22966514.535 7 122553674.431 7        42.800    22966531.922 6  95319533.206 6        40.600    22966532.430 6  95319530.197 6        39.400
R01  22270645.859 7 119049363.588 7        43.500    22270646.938 6 119049321.589 6        41.600    22270665.691 6  92593922.609 6        37.700    22270666.047 6  92593918.613 6        36.800
G30  24930155.055 5 131008845.266 5        34.100    24930174.574 4 102084894.393 4        24.800    24930174.430 5 102084892.373 5        35.300    24930180.844 7  97831373.600 7        42.300
E30  28360503.148 5 149035456.448 5        34.900
E29  24358471.070 8 128004625.287 8        49.100    24358486.977 8  95587848.360 8        50.100    24358482.625 8  98081445.119 8        49.900    24358484.383 9  96834644.152 9        56.700
E27  25179872.047 7 132321117.518 7        46.500    25179889.031 7  98811205.249 7        47.900    25179884.727 8 101388888.610 8        48.300    25179894.410 8 100100043.88918        51.400
E21  25535864.258 7 134191874.083 7        45.300    25535881.512 7 100208192.227 7        46.800    25535877.398 7 102822318.839 7        47.000    25535867.613 7 101515254.52617        47.900
E19  25473366.164 6 133863443.353 6        39.000    25473382.461 6  99962947.96916        40.000    25473378.840 6 102570666.61016        40.900    25473380.703 7 101266798.99717        46.200
E15  26008833.133 7 136677337.182 7        42.000    26008856.348 7 102064300.424 7        44.900    26008851.227 7 104726842.821 7        45.000    26008853.699 8 103395573.69518        51.800
E13  25760876.953 7 135374314.583 7        43.300    25760900.762 7 101091214.459 7        45.900    25760895.762 7 103728353.442 7        45.600    25760898.086 8 102409806.93518        51.900
E07  26394259.078 6 138702762.163 6        41.600    26394285.961 7 103576822.640 7        44.000    26394281.066 7 106278813.787 7        44.600
G27  22637178.250 6 118959172.495 6        39.800    22637195.859 6  92695528.636 6        36.900    22637196.078 7  92695449.632 7        42.500    22637200.961 7  88833134.770 7        47.200
G16  24446641.430 5                        31.500
G14  25435307.891 5 133663406.045 5        32.800                                                    25435328.063 5 104153412.255 5        34.800    25435337.965 6  99813719.301 6        38.200
G09  21530759.141 7 113144898.623 7        46.200    21530774.402 7  88164907.479 7        46.000    21530774.574 7  88164851.483 7        45.800    21530779.887 8  84491313.715 8        51.000
G08  20349819.242 8 106939017.696 8        48.500    20349832.430 8  83329151.481 8        49.600    20349833.207 8  83329099.476 8        48.800    20349836.383 8  79857049.377 8        53.200
G07  22261994.719 7 116987567.830 7        45.300    22262006.055 6  91159188.922 6        41.700    22262006.008 7  91159137.922 7        44.100
G04  21931866.305 7 115252731.151 7        43.200    21931883.461 5  89807377.932 5        32.400    21931882.969 7  89807318.926 7        46.300    21931891.980 8  86065342.837 8        48.600
G02  21815357.195 7 114640473.822 7        45.000    21815370.441 5  89330284.225 5        34.000
G01  23160538.836 6 121709456.124 6        41.000    23160558.488 4  94838616.698 4        26.900    23160558.090 7  94838525.699 7        43.700    23160569.109 7  90886944.841 7        46.600
C11  23817107.422 6 124021924.242 6        41.600    23817115.441 7  95901574.646 7        44.700
C06  35971808.648 7 187314644.856 7        46.100    35971810.938 7 144843521.932 7        47.800
C05  38612565.711 6 201065764.732 6        36.200    38612574.828 6 155476835.945 6        39.400
C04  39239941.047 5 204332671.408 5        34.800    39239953.648 6 158003030.268 6        38.400
C03  36237108.789 7 188696123.352 7        44.000    36237111.598 7 145911830.122 7        46.200
C02  36802027.164 6 191637811.090 6        40.400    36802030.055 7 148186523.118 7        44.700
C01  38024217.523 6 198002077.862 6        39.600    38024226.234 6 153107799.180 6        41.000
S27  38825965.969 6 204031819.061 6        41.600    38825976.805 7 152361444.141 7        43.800
S37  36840154.188 7 193596262.848 7        42.000
> 2025  2 28  3 27 58.0000000  0 36       0.000371340000
R23  23648392.461 6 126502953.212 6        37.500    23648392.215 5 126502912.202 5        35.900
R22  20420986.047 8 109008609.236 8        50.800    20420986.855 8 109008573.240 8        50.000    20420999.625 8  84784451.495 8        48.700    20421000.203 8  84784448.501 8        48.000
R21  20560199.977 8 110021781.640 8        50.600    20560199.609 8 110021741.645 8        49.900    20560211.957 7  85572471.537 7        47.900    20560212.551 7  85572468.536 7        47.100
R12  22680542.719 7 121155393.315 7        44.500    22680543.172 7 121155350.315 7        43.500    22680559.191 7  94231944.934 7        42.000    22680559.809 6  94231940.927 6        40.700
R11  21246071.453 8 113532562.129 8        49.100    21246072.238 7 113532520.135 7        47.400    21246084.699 7  88303080.818 7        46.700    21246085.043 7  88303077.812 7        46.700
R10  23410048.484 5 124788768.699 5        34.300    23410049.348 5 124788692.702 5        33.300
R08  23965612.000 6 128334759.442 6        38.100    23965612.711 6 128334716.464 6        36.800    23965634.488 6  99815974.454 6        38.700    23965635.219 6  99815975.454 6        37.900
R02  22966276.875 7 122552449.061 7        43.800    22966277.277 7 122552408.064 7        42.600    22966294.559 6  95318548.247 6        40.400    22966295.090 6  95318545.247 6        39.400
R01  22270918.477 7 119050816.180 7        43.100    22270918.410 6 119050774.186 6        41.400    22270937.012 6  92595052.393 6        37.600    22270937.445 6  92595048.395 6        36.100
G30  24929366.945 5 131004706.235 5        33.700    24929386.746 4 102081669.162 4        25.800    24929386.492 5 102081667.145 5        35.900    24929392.992 7  97828282.758 7        42.200
E30  28360570.211 5 149035808.866 5        35.100    28360598.945 6 111293080.36716        38.500    28360593.945 6 114196357.81316        38.500
E29  24358520.570 8 128004885.966 8        48.800    24358536.508 8  95588043.015 8        50.100    24358532.301 8  98081644.865 8        49.700    24358534.016 9  96834841.315 9        56.700
E27  25179830.734 7 132320900.326 7        46.100    25179847.645 7  98811043.059 7        47.900    25179843.219 8 101388722.189 8        48.300    25179845.719 8 100099879.94618        51.300
E21  25535610.422 7 134190539.476 7        45.200    25535627.602 7 100207195.597 7        46.700    25535623.629 7 102821296.214 7        47.300    25535623.746 8 101514245.23718        50.800
E19  25472997.719 6 133861505.887 6        39.100    25473014.418 6  99961501.153 6        40.200    25473010.516 6 102569182.052 6        40.500    25473012.422 7 101265333.226 7        46.600
E15  26008582.180 6 136676018.450 6        41.200    26008605.352 7 102063315.657 7        45.500    26008600.262 7 104725832.365 7        45.600    26008602.723 8 103394576.337 8        51.900
E13  25760263.781 7 135371091.952 7        43.300    25760287.496 7 101088807.957 7        45.900    25760282.445 7 103725884.153 7        45.600    25760284.695 8 102407369.341 8        52.000
E07  26394621.922 6 138704669.909 6        41.600    26394649.012 7 103578247.240 7        43.800    26394644.242 7 106280275.554 7        44.400
G27  22637629.180 6 118961542.516 6        39.200    22637646.801 6  92697375.399 6        36.500    22637647.082 7  92697296.395 7        42.500    22637651.859 7  88834904.583 7        47.300
G16  24446861.047 5                        31.500
G14  25434815.125 5 133660813.857 5        32.200                                                    25434834.430 5 104151392.357 5        34.600    25434844.672 6  99811783.571 6        37.900
G09  21530851.016 7 113145380.352 7        46.400    21530866.438 7  88165282.849 7        45.900    21530866.605 7  88165226.850 7        45.900    21530871.801 8  84491673.442 8        51.000
G08  20349962.336 8 106939770.246 8        48.500    20349975.758 8  83329737.882 8        49.400    20349976.391 8  83329685.875 8        48.900    20349979.676 8  79857611.344 8        53.100
G07  22261305.242 7 116983946.897 7        45.200    22261317.242 6  91156367.418 6        41.100    22261317.180 7  91156316.417 7        44.200
G04  21932223.797 7 115254606.825 7        43.400    21932240.496 5  89808839.482 5        32.100    21932239.805 7  89808780.481 7        46.100    21932249.156 8  86066743.489 8        48.600
G02  21814749.422 7 114637279.891 7        45.000    21814762.734 5  89327795.456 5        34.300
G01  23159824.273 6 121705702.700 6        40.800    23159844.180 4  94835691.953 4        26.200    23159843.438 7  94835600.953 7        43.900    23159854.762 7  90884141.962 7        46.700
C11  23817336.117 6 124023115.517 6        41.100    23817344.348 7  95902495.806 7        44.700
C06  35971571.656 7 187313410.822 7        45.500    35971574.129 7 144842567.694 7        47.900
C05  38612399.984 5 201064901.073 5        35.800    38612408.879 6 155476168.103 6        39.000
C04  39239770.016 5 204331780.293 5        34.500    39239782.313 6 158002341.194 6        38.700
C03  36236937.570 7 188695231.372 7        43.800    36236940.250 7 145911140.384 7        45.700
C02  36801863.359 6 191636959.438 6        40.000    36801866.656 7 148185864.563 7        44.500
C01  38024048.484 6 198001197.140 6        39.200    38024056.969 6 153107118.147 6        41.200
S27  38825797.094 6 204030933.776 6        41.600    38825808.398 7 152360783.141 7        43.700
S37  36839981.844 6 193595371.727 6        41.900
> 2025  2 28  3 27 59.0000000  0 36       0.000370773000
R23  23647394.258 6 126497617.417 6        37.900    23647394.809 6 126497576.416 6        36.300
R22  20420275.742 8 109004818.252 8        51.000    20420276.441 8 109004782.256 8        50.200    20420289.348 8  84781502.956 8        48.600    20420289.797 8  84781499.958 8        48.400
R21  20560281.461 8 110022218.551 8        50.400    20560281.309 8 110022178.555 8        49.300    20560293.984 7  85572811.355 7        47.600    20560294.461 7  85572808.353 7        46.900
R12  22680029.031 7 121152644.083 7        44.700    22680028.754 7 121152601.079 7        43.700    22680044.668 6  94229806.645 6        41.800    22680045.418 6  94229802.640 6        40.700
R11  21245830.789 8 113531274.500 8        48.900    21245831.477 7 113531232.507 7        47.300    21245843.887 7  88302079.323 7        46.600    21245844.277 7  88302076.318 7        46.300
R10  23410111.539 5 124789104.678 5        34.300    23410112.027 5 124789028.672 5        33.600
R08  23966096.148 6 128337352.518 6        37.900    23966096.750 6 128337309.544 6        37.200    23966118.801 6  99817991.282 6        38.900    23966119.391 6  99817992.282 6        38.000
R02  22966039.320 7 122551183.391 7        43.700    22966040.395 7 122551142.391 7        42.300    22966057.266 6  95317563.831 6        39.900    22966058.000 6  95317560.835 6        39.300
R01  22271190.484 7 119052269.152 7        43.300    22271190.387 6 119052227.157 6        41.600    22271208.883 6  92596182.475 6        38.000    22271209.648 6  92596178.472 6        36.500
G30  24928578.859 5 131000567.130 5        33.400    24928599.004 4 102078443.881 4        24.300    24928598.969 5 102078441.868 5        35.400    24928605.223 6  97825191.864 6        41.700
E30  28360637.102 5 149036161.200 5        35.800    28360666.813 6 111293343.459 6        38.200    28360661.848 6 114196627.780 6        38.300
E29  24358570.273 8 128005147.038 8        48.900    24358586.133 8  95588237.968 8        50.000    24358582.078 8  98081844.908 8        50.000    24358583.926 9  96835038.694 9        56.700
E27  25179789.328 7 132320683.066 7        46.400    25179806.266 8  98810880.820 8        48.100    25179801.883 7 101388555.717 7        47.300    25179803.805 9 100099715.94619        54.200
E21  25535356.297 7 134189204.867 7        45.500    25535373.574 7 100206198.966 7        46.800    25535369.324 7 102820273.587 7        47.300    25535370.629 8 101513235.981 8        53.200
E19  25472628.914 6 133859568.852 6        38.600    25472646.289 6  99960054.668 6        40.000    25472642.105 6 102567697.834 6        40.300    25472643.992 7 101263867.822 7        46.400
E15  26008331.508 6 136674700.129 6        41.400    26008354.719 7 102062331.195 7        45.500    26008349.551 7 104724822.221 7        45.200    26008360.137 8 103393579.08418        50.900
E13  25759650.563 7 135367869.447 7        43.200    25759674.102 7 101086401.550 7        45.800    25759669.051 7 103723414.959 7        45.400    25759671.488 8 102404931.623 8        51.900
E07  26394985.102 6 138706577.701 6        41.500    26395012.004 7 103579671.877 7        44.200    26395007.219 7 106281737.355 7        44.000
G27  22638080.297 6 118963912.710 6        39.400    22638097.766 6  92699222.299 6        36.500    22638097.910 7  92699143.291 7        42.500    22638102.813 7  88836674.526 7        47.200
G16  24447081.648 5                        31.200
G14  25434321.109 5 133658221.653 5        31.500                                                    25434341.063 5 104149372.448 5        34.600    25434351.398 6  99809847.820 6        37.900
G09  21530942.758 7 113145862.593 7        46.400    21530957.777 7  88165658.615 7        45.700    21530958.082 7  88165602.617 7        46.300    21530963.348 8  84492033.552 8        51.100
G08  20350105.516 8 106940523.255 8        48.100    20350118.996 8  83330324.637 8        49.300    20350119.727 8  83330272.635 8        48.800    20350122.922 8  79858173.654 8        53.200
G07  22260616.820 7 116980326.109 7        45.000    22260628.113 6  91153546.028 6        41.900    22260628.230 7  91153495.027 7        44.100
G04  21932580.852 7 115256482.794 7        43.200    21932597.609 5  89810301.265 5        31.800    21932597.063 7  89810242.265 7        46.200    21932606.219 8  86068144.362 8        48.500
G02  21814141.664 7 114634086.342 7        44.700    21814155.105 5  89325306.983 5        33.900
G01  23159109.758 6 121701949.333 6        40.900    23159130.051 4  94832767.256 4        26.300    23159129.621 7  94832676.253 7        44.000    23159140.637 7  90881339.128 7        46.400
C11  23817565.023 6 124024307.192 6        41.000    23817572.992 7  95903417.281 7        45.200
C06  35971334.742 7 187312176.886 7        45.300    35971336.781 7 144841613.536 7        47.700
C05  38612234.883 5 201064037.427 5        35.800    38612242.836 6 155475500.278 6        39.200
C04  39239599.250 5 204330889.162 5        34.500    39239611.367 6 158001652.108 6        38.300
C03  36236765.844 7 188694339.396 7        43.600    36236769.160 7 145910450.649 7        45.300
C02  36801700.242 6 191636107.771 6        39.900    36801702.891 7 148185205.995 7        43.700
C01  38023879.352 6 198000316.415 6        39.000    38023888.184 6 153106437.113 6        40.900
S27  38825628.234 6 204030048.494 6        41.300    38825639.781 7 152360122.115 7        43.400
S37  36839804.828 6 193594480.635 6        41.400
> 2025  2 28  3 28  0.0000000  0 36       0.000370209000
R23  23646398.172 6 126492281.607 6        38.200    23646397.219 6 126492240.617 6        37.000
R22  20419565.555 8 109001027.868 8        51.200    20419566.457 8 109000991.872 8        50.600    20419579.316 8  84778554.882 8        48.600    20419579.867 8  84778551.886 8        48.100
R21  20560363.352 8 110022656.312 8        51.000    20560363.238 8 110022616.313 8        49.300    20560375.871 7  85573151.832 7        47.600    20560376.254 7  85573148.831 7        46.700
R12  22679514.328 7 121149894.692 7        44.700    22679514.164 7 121149851.692 7        44.000    22679530.125 6  94227668.232 6        41.900    22679530.797 6  94227664.225 6        40.500
R11  21245589.984 8 113529986.926 8        48.900    21245590.344 7 113529944.931 7        46.900    21245603.320 7  88301077.871 7        46.000    21245603.406 7  88301074.866 7        45.100
R10  23410174.617 5 124789440.800 5        34.300    23410175.227 5 124789364.804 5        33.300
R08  23966581.578 6 128339945.392 6        38.100    23966580.750 6 128339902.406 6        37.100    23966603.063 6  99820007.951 6        38.000    23966603.730 6  99820008.959 6        38.400
R02  22965802.086 7 122549918.432 7        43.700    22965803.328 7 122549877.436 7        42.500    22965820.230 6  95316579.971 6        39.800    22965820.914 6  95316576.977 6        39.700
R01  22271461.727 7 119053722.483 7        43.600    22271462.176 6 119053680.500 6        41.400    22271480.684 6  92597312.836 6        38.100    22271481.375 6  92597308.830 6        36.400
G30  24927791.711 5 130996427.956 5        34.000    24927811.500 4 102075218.551 4        25.600    24927811.387 5 102075216.546 5        35.500    24927817.684 7  97822100.926 7        42.100
E30  28360703.938 5 149036513.433 5        35.700    28360734.293 6 111293606.479 6        38.100    28360729.273 6 114196897.658 6        38.600
E29  24358619.961 8 128005408.478 8        48.900    24358636.000 8  95588433.196 8        50.000    24358631.992 8  98082045.228 8        49.800    24358633.723 9  96835236.352 9        56.600
E27  25179747.984 7 132320465.733 7        46.200    25179764.828 8  98810718.527 8        48.000    25179760.711 7 101388389.188 7        47.600    25179762.727 9 100099551.730 9        54.200
E21  25535102.352 7 134187870.235 7        45.500    25535119.633 7 100205202.320 7        46.400    25535115.418 7 102819250.945 7        47.400    25535117.488 8 101512226.501 8        53.500
E19  25472260.320 6 133857632.216 6        39.300    25472277.648 6  99958608.480 6        40.500    25472273.461 6 102566213.921 6        40.700    25472275.258 7 101262402.759 7        46.500
E15  26008080.344 7 136673382.214 7        42.100    26008103.777 7 102061347.039 7        45.600    26008098.488 7 104723812.392 7        45.100    26008110.219 8 103392582.46718        50.300
E13  25759037.281 7 135364647.054 7        43.200    25759061.145 7 101083995.228 7        45.700    25759056.059 7 103720945.854 7        45.600    25759067.160 8 102402494.01318        50.400
E07  26395347.977 6 138708485.512 6        41.500    26395374.996 7 103581096.526 7        43.700    26395370.398 7 106283199.172 7        43.800
G27  22638531.508 6 118966283.052 6        39.600    22638548.688 6  92701069.313 6        36.100    22638548.586 7  92700990.303 7        42.200    22638553.586 7  88838444.577 7        47.200
G16  24447301.008 5                        31.300
G14  25433827.570 5 133655629.460 5        32.500                                                    25433847.648 5 104147352.542 5        35.000    25433858.168 6  99807912.086 6        38.400
G09  21531034.766 7 113146345.311 7        46.600    21531049.590 7  88166034.755 7        46.000    21531049.711 7  88165978.754 7        45.800    21531054.984 8  84492394.016 8        50.900
G08  20350248.969 8 106941276.717 8        48.000    20350262.285 8  83330911.748 8        49.300    20350262.785 8  83330859.745 8        48.500    20350266.156 8  79858736.302 8        53.100
G07  22259927.383 7 116976705.442 7        45.400    22259939.063 6  91150724.731 6        41.700    22259939.113 7  91150673.730 7        44.200
G04  21932937.469 7 115258359.027 7        43.200    21932954.711 5  89811763.256 5        31.700    21932954.426 7  89811704.257 7        46.000    21932963.387 8  86069545.436 8        48.300
G02  21813534.008 7 114630893.145 7        45.000    21813547.316 5  89322818.778 5        34.200
G01  23158395.641 6 121698196.013 6        41.200    23158415.645 4  94829842.604 4        27.100    23158415.605 7  94829751.594 7        43.900    23158426.289 7  90878536.332 7        46.400
C11  23817793.891 6 124025499.246 6        41.400    23817801.844 7  95904339.047 7        45.300
C06  35971097.742 7 187310943.044 7        46.000    35971099.973 7 144840659.452 7        47.300
C05  38612068.563 5 201063173.749 5        35.900    38612076.793 6 155474832.423 6        39.400
C04  39239427.852 5 204329998.016 5        35.000    39239440.078 6 158000963.011 6        38.300
C03  36236594.711 7 188693447.400 7        44.200    36236597.586 7 145909760.898 7        45.100
C02  36801536.594 6 191635256.085 6        40.600    36801539.414 7 148184547.415 7        43.600
C01  38023710.180 6 197999435.666 6        39.900    38023718.922 6 153105756.062 6        41.100
S27  38825460.172 7 204029163.280 7        42.200    38825471.188 7 152359461.124 7        43.600
S37  36839642.094 6 193593589.511 6        41.900
> 2025  2 28  3 28  1.0000000  0 36       0.000369642000
R23  23645401.922 6 126486945.809 6        38.300    23645400.000 6 126486904.812 6        37.000
R22  20418855.758 8 108997238.098 8        51.100    20418856.105 8 108997202.106 8        50.800    20418869.238 8  84775607.287 8        48.500    20418869.465 7  84775604.290 7        47.500
R21  20560445.555 8 110023094.920 8        50.800    20560445.094 8 110023054.925 8        49.500    20560457.695 7  85573492.967 7        47.300    20560458.012 7  85573489.964 7        46.600
R12  22678999.359 7 121147145.148 7        44.700    22678999.391 7 121147102.144 7        43.600    22679015.668 6  94225529.703 6        41.700    22679016.105 6  94225525.691 6        40.600
R11  21245348.633 8 113528699.426 8        48.800    21245349.367 7 113528657.431 7        47.200    21245361.938 7  88300076.477 7        46.000    21245362.281 7  88300073.473 7        45.100
R10  23410237.570 5 124789777.129 5        34.600    23410238.211 5 124789701.121 5        33.400
R08  23967065.477 6 128342538.066 6        38.600    23967065.016 6 128342495.081 6        37.100    23967087.574 6  99822024.469 6        37.700    23967088.133 6  99822025.477 6        37.900
R02  22965565.984 7 122548654.268 7        43.800    22965566.309 7 122548613.273 7        42.600    22965582.816 6  95315596.735 6        39.500    22965583.984 6  95315593.738 6        39.500
R01  22271734.180 7 119055176.223 7        43.300    22271734.020 6 119055134.229 6        41.300    22271753.047 6  92598443.511 6        37.500    22271753.371 6  92598439.504 6        36.000
G30  24927003.156 5 130992288.720 5        33.300    24927023.637 4 102071993.179 4        24.400    24927023.664 5 102071991.170 5        35.200    24927029.758 6  97819009.937 6        41.700
E30  28360770.938 5 149036865.618 5        35.600    28360801.441 6 111293869.465 6        37.700    28360796.391 6 114197167.499 6        38.300
E29  24358669.914 8 128005670.309 8        48.900    24358685.688 8  95588628.718 8        49.800    24358681.750 8  98082245.844 8        49.500    24358683.535 9  96835434.352 9        56.500
E27  25179706.727 7 132320248.350 7        46.000    25179723.473 7  98810556.191 7        47.900    25179719.273 7 101388222.618 7        47.400    25179721.023 9 100099387.275 9        54.000
E21  25534848.273 7 134186535.607 7        45.300    25534865.742 7 100204205.681 7        46.200    25534861.508 7 102818228.304 7        47.000    25534863.270 8 101511216.845 8        53.300
E19  25471891.750 6 133855696.022 6        39.100    25471909.273 6  99957162.621 6        40.000    25471905.344 6 102564730.351 6        40.400    25471906.992 7 101260938.057 7        46.400
E15  26007829.844 7 136672064.732 7        42.200    26007853.258 7 102060363.205 7        45.500    26007848.074 7 104722802.891 7        44.800    26007850.570 8 103391586.13018        51.500
E13  25758424.109 7 135361424.803 7        43.500    25758447.828 7 101081589.008 7        45.600    25758442.648 7 103718476.860 7        45.400    25758445.160 8 102400056.77118        50.700
E07  26395711.109 6 138710393.386 6        41.400    26395738.129 7 103582521.223 7        43.100    26395733.441 7 106284661.037 7        44.000
G27  22638982.719 6 118968653.590 6        39.900    22638999.730 6  92702916.478 6        36.000    22638999.723 6  92702837.469 6        41.900    22639004.699 7  88840214.774 7        47.000
G16  24447520.398 5 128472603.037 5        30.700    24447543.570 2 100108588.05812        14.800
G14  25433334.094 5 133653037.255 5        31.900                                                    25433354.559 5 104145332.625 5        34.700    25433364.730 6  99805976.342 6        38.500
G09  21531126.758 7 113146828.548 7        46.400    21531141.387 7  88166411.296 7        45.800    21531141.480 7  88166355.296 7        45.600    21531146.867 8  84492754.868 8        50.700
G08  20350392.422 7 106942030.638 7        47.800    20350405.723 8  83331499.215 8        49.200    20350406.266 8  83331447.211 8        48.200    20350409.582 8  79859299.291 8        53.000
G07  22259238.570 7 116973084.927 7        45.400    22259250.340 6  91147903.549 6        41.600    22259250.387 7  91147852.547 7        43.600
G04  21933294.547 7 115260235.556 7        43.400    21933311.473 5  89813225.478 5        31.800    21933311.418 7  89813166.476 7        45.900    21933320.316 8  86070946.727 8        48.300
G02  21812926.758 7 114627700.338 7        44.600    21812939.859 5  89320330.880 5        33.900
G01  23157681.055 6 121694442.756 6        41.100    23157701.578 4  94826917.992 4        26.200    23157701.414 7  94826826.981 7        43.800    23157712.055 7  90875733.580 7        46.400
C11  23818022.820 6 124026691.720 6        41.400    23818030.902 7  95905261.139 7        44.700
C06  35970860.664 7 187309709.333 7        46.100    35970862.836 7 144839705.466 7        47.100
C05  38611902.086 5 201062310.086 5        35.900    38611910.809 6 155474164.581 6        39.200
C04  39239256.641 5 204329106.893 5        34.900    39239268.984 6 158000273.936 6        37.600
C03  36236423.594 7 188692555.420 7        44.100    36236426.402 7 145909071.161 7        45.500
C02  36801372.836 6 191634404.391 6        40.500    36801375.895 7 148183888.830 7        43.500
C01  38023541.430 6 197998554.948 6        39.700    38023549.852 6 153105075.033 6        41.200
S27  38825291.547 6 204028278.154 6        41.600    38825302.867 7 152358800.179 7        43.300
S37  36839471.859 6 193592698.411 6        41.900
> 2025  2 28  3 28  2.0000000  0 36       0.000369076000
R23  23644403.234 6 126481609.926 6        38.000    23644402.613 6 126481568.931 6        37.100
R22  20418146.242 8 108993448.850 8        51.300    20418146.879 8 108993412.858 8        50.900    20418159.508 8  84772660.098 8        48.800    20418160.137 7  84772657.101 7        47.600
R21  20560527.930 8 110023534.292 8        50.800    20560527.121 8 110023494.295 8        49.300    20560539.699 7  85573834.696 7        47.200    20560540.016 7  85573831.695 7        46.500
R12  22678484.281 7 121144395.352 7        44.200    22678484.711 7 121144352.346 7        43.700    22678501.145 7  94223390.974 7        42.100    22678501.266 6  94223386.962 6        40.700
R11  21245107.844 8 113527411.905 8        48.900    21245108.750 7 113527369.913 7        47.200    21245121.211 7  88299075.066 7        46.000    21245121.340 7  88299072.064 7        45.200
R10  23410301.148 5 124790113.541 5        35.400    23410301.027 5 124790037.547 5        33.400
R08  23967548.641 6 128345130.418 6        37.700    23967548.855 6 128345087.431 6        37.200    23967571.961 6  99824040.746 6        37.600    23967572.141 6  99824041.755 6        38.300
R02  22965328.727 7 122547390.785 7        43.300    22965328.852 7 122547349.797 7        42.700    22965345.844 6  95314614.032 6        39.600    22965346.805 6  95314611.030 6        39.700
R01  22272006.734 7 119056630.254 7        43.200    22272006.320 6 119056588.259 6        41.900    22272025.699 6  92599574.409 6        37.600    22272025.656 5  92599570.404 5        35.800
G30  24926215.438 5 130988149.342 5        33.100    24926235.738 4 102068767.688 4        25.200    24926235.953 5 102068765.680 5        35.300    24926242.102 7  97815918.845 7        42.100
E30  28360837.938 5 149037217.635 5        35.800    28360868.578 6 111294132.319 6        37.000    28360863.387 6 114197437.201 6        38.500
E29  24358719.719 8 128005932.448 8        49.000    24358735.484 8  95588824.467 8        49.500    24358731.516 8  98082446.697 8        50.000    24358733.215 9  96835632.631 9        56.600
E27  25179665.211 7 132320030.817 7        46.200    25179682.031 7  98810393.743 7        47.700    25179677.793 8 101388055.933 8        48.000    25179679.891 9 100099222.609 9        54.200
E21  25534594.117 7 134185200.890 7        45.100    25534611.621 7 100203208.976 7        46.600    25534607.328 7 102817205.597 7        47.000    25534609.531 8 101510207.039 8        53.500
E19  25471523.414 6 133853760.153 6        38.500    25471541.063 6  99955717.003 6        39.600    25471536.969 6 102563247.024 6        40.300    25471538.629 7 101259473.604 7        46.300
E15  26007579.219 7 136670747.570 7        42.000    26007602.555 7 102059379.610 7        45.200    26007597.449 7 104721793.637 7        45.200    26007599.879 8 103390589.953 8        51.800
E13  25757811.094 7 135358202.599 7        43.800    25757834.672 7 101079182.821 7        45.600    25757829.434 7 103716007.905 7        45.500    25757831.758 8 102397619.554 8        51.900
E07  26396074.219 6 138712301.208 6        41.800    26396101.223 7 103583945.882 7        43.200    26396096.500 7 106286122.863 7        44.200
G27  22639433.734 6 118971024.202 6        40.200    22639451.418 6  92704763.696 6        36.100    22639451.496 6  92704684.691 6        41.800    22639456.359 7  88841985.026 7        47.200
G16  24447741.430 5 128473758.420 5        31.300    24447763.457 2 100109488.358 2        13.900
G14  25432840.242 5 133650444.972 5        32.200                                                    25432861.965 5 104143312.659 5        35.200    25432871.996 6  99804040.545 6        38.700
G09  21531218.609 7 113147312.206 7        46.400    21531233.871 7  88166788.167 7        45.900    21531233.887 7  88166732.167 7        45.800    21531239.301 8  84493116.034 8        51.000
G08  20350535.766 7 106942784.933 7        47.900    20350549.340 8  83332086.976 8        49.300    20350549.965 8  83332034.972 8        48.300    20350553.141 8  79859862.560 8        53.000
G07  22258549.578 7 116969464.466 7        45.400    22258560.930 6  91145082.412 6        41.900    22258560.906 7  91145031.411 7        43.800
G04  21933651.508 7 115262112.291 7        43.000    21933668.684 5  89814687.863 5        32.200    21933668.574 7  89814628.857 7        45.600    21933677.535 8  86072348.176 8        48.400
G02  21812318.883 7 114624507.816 7        44.900    21812332.434 5  89317843.204 5        34.200
G01  23156967.070 6 121690689.479 6        40.800    23156987.125 4  94823993.360 4        26.400    23156986.941 7  94823902.357 7        43.700    23156997.766 7  90872930.817 7        46.400
C11  23818251.844 6 124027884.508 6        41.200    23818259.855 7  95906183.471 7        44.900
C06  35970623.820 7 187308475.648 7        45.900    35970626.273 7 144838751.500 7        47.500
C05  38611736.797 6 201061446.344 6        36.400    38611745.219 6 155473496.678 6        39.200
C04  39239085.250 5 204328215.657 5        35.200    39239097.891 6 157999584.767 6        37.400
C03  36236252.258 7 188691663.348 7        44.200    36236254.984 7 145908381.351 7        45.300
C02  36801209.609 6 191633552.646 6        40.700    36801212.164 7 148183230.207 7        43.500
C01  38023371.852 6 197997674.130 6        39.900    38023380.902 6 153104393.927 6        40.900
S27  38825123.484 6 204027392.936 6        41.500    38825134.406 7 152358139.206 7        43.400
S37  36839298.656 7 193591807.223 7        42.100
> 2025  2 28  3 28  3.0000000  0 36       0.000368509000
R23  23643406.281 6 126476274.024 6        38.400    23643405.801 6 126476233.022 6        37.000
R22  20417436.289 8 108989660.191 8        50.900    20417436.750 8 108989624.199 8        50.800    20417449.535 8  84769713.366 8        48.900    20417450.254 7  84769710.370 7        47.800
R21  20560610.063 8 110023974.486 8        50.000    20560608.980 8 110023934.486 8        49.300    20560621.766 7  85574177.067 7        47.000    20560621.965 7  85574174.063 7        46.700
R12  22677969.922 7 121141645.389 7        44.300    22677969.648 7 121141602.392 7        43.500    22677986.344 7  94221252.115 7        42.000    22677986.473 6  94221248.104 6        40.600
R11  21244867.406 8 113526124.439 8        49.000    21244867.410 7 113526082.447 7        46.900    21244879.969 7  88298073.701 7        46.000    21244880.398 7  88298070.700 7        45.300
R10  23410365.320 5 124790450.116 5        34.800    23410364.758 5 124790374.117 5        33.600
R08  23968031.023 6 128347722.481 6        37.600    23968032.023 5 128347679.500 5        35.900    23968055.121 6  99826056.795 6        37.500    23968055.516 6  99826057.799 6        37.600
R02  22965091.844 7 122546128.049 7        43.000    22965092.762 7 122546087.054 7        42.500    22965109.684 6  95313631.909 6        39.900    22965110.566 6  95313628.902 6        39.200
R01  22272277.984 7 119058084.649 7        43.200    22272278.008 6 119058042.660 6        41.500    22272297.371 6  92600705.589 6        37.300    22272297.434 6  92600701.589 6        36.000
G30  24925428.844 5 130984009.875 5        34.300    24925448.547 4 102065542.124 4        25.600    24925448.852 5 102065540.119 5        35.400    24925455.055 6  97812827.689 6        41.500
E30  28360904.758 5 149037569.555 5        35.700    28360935.520 6 111294395.101 6        36.900    28360930.297 6 114197706.833 6        37.800
E29  24358769.648 8 128006194.951 8        49.100    24358785.617 8  95589020.487 8        49.400    24358781.551 8  98082647.828 8        49.800    24358783.203 9  96835831.217 9        56.600
E27  25179623.875 7 132319813.209 7        46.300    25179640.688 7  98810231.238 7        47.800    25179636.371 7 101387889.189 7        47.700    25179638.402 9 100099057.874 9        54.200
E21  25534340.367 7 134183866.149 7        45.500    25534357.770 7 100202212.251 7        46.900    25534353.355 7 102816182.871 7        47.100    25534355.395 8 101509197.210 8        53.400
E19  25471154.938 6 133851824.712 6        38.900    25471172.559 6  99954271.709 6        39.600    25471168.516 6 102561764.024 6        40.500    25471170.316 7 101258009.472 7        46.200
E15  26007328.492 6 136669430.818 6        41.600    26007351.992 7 102058396.320 7        45.000    26007346.863 7 104720784.695 7        44.900    26007357.652 8 103389593.88018        50.700
E13  25757198.063 7 135354980.506 7        43.900    25757221.539 7 101076776.716 7        45.700    25757216.430 7 103713539.033 7        45.500    25757218.957 8 102395182.228 8        51.800
E07  26396437.258 6 138714209.072 6        41.600    26396464.285 7 103585370.574 7        43.500    26396459.512 7 106287584.722 7        44.000
G27  22639884.633 6 118973394.986 6        40.200    22639902.152 6  92706611.046 6        36.000    22639902.176 6  92706532.043 6        41.700    22639907.035 7  88843755.403 7        47.200
G16  24447961.766 5                        31.900
G14  25432348.195 5 133647852.692 5        31.900                                                    25432368.348 5 104141292.688 5        35.300    25432378.461 6  99802104.744 6        38.300
G09  21531310.469 7 113147796.353 7        46.000    21531326.281 7  88167165.418 7        45.600    21531326.414 7  88167109.420 7        45.800    21531331.652 8  84493477.564 8        50.800
G08  20350679.523 8 106943539.684 8        48.400    20350692.957 8  83332675.093 8        49.100    20350693.508 8  83332623.088 8        48.000    20350696.816 8  79860426.170 8        52.900
G07  22257860.859 7 116965844.133 7        45.400    22257872.332 6  91142261.375 6        41.600    22257872.148 7  91142210.373 7        43.900
G04  21934008.703 7 115263989.299 7        43.000    21934025.875 5  89816150.457 5        31.600    21934025.852 7  89816091.452 7        45.400    21934034.742 8  86073749.827 8        48.300
G02  21811711.297 7 114621315.660 7        44.800    21811724.605 5  89315355.818 5        34.300
G01  23156252.781 6 121686936.245 6        40.900    23156272.902 4  94821068.772 4        26.400    23156272.844 7  94820977.768 7        43.500    23156283.617 7  90870128.086 7        46.400
C11  23818481.023 6 124029077.678 6        41.200    23818489.203 7  95907106.103 7        44.500
C06  35970387.031 7 187307242.057 7        45.600    35970389.301 7 144837797.606 7        47.300
C05  38611571.148 6 201060582.598 6        36.100    38611579.281 6 155472828.771 6        39.400
C04  39238914.344 5 204327324.439 5        34.600    39238926.906 6 157998895.616 6        37.600
C03  36236080.945 7 188690771.271 7        44.100    36236083.875 7 145907691.537 7        45.300
C02  36801045.398 6 191632700.877 6        40.400    36801048.625 7 148182571.562 7        43.400
C01  38023202.813 6 197996793.315 6        39.400    38023211.785 6 153103712.818 6        40.400
S27  38824954.594 6 204026507.679 6        41.700    38824965.785 7 152357478.146 7        43.800
S37  36839136.047 6 193590916.034 6        41.900
> 2025  2 28  3 28  4.0000000  0 36       0.000367945000
R23  23642408.313 6 126470938.009 6        38.500    23642407.801 6 126470897.002 6        37.200
R22  20416727.125 8 108985872.039 8        51.100    20416727.715 8 108985836.046 8        50.500    20416740.422 8  84766767.031 8        48.100    20416741.090 8  84766764.036 8        48.000
R21  20560692.219 8 110024415.410 8        50.000    20560691.848 8 110024375.410 8        49.200    20560704.305 7  85574520.004 7        47.000    20560704.867 7  85574517.001 7        46.800
R12  22677454.930 7 121138895.199 7        44.400    22677454.977 7 121138852.200 7        43.300    22677471.375 6  94219113.083 6        41.600    22677471.629 6  94219109.071 6        40.600
R11  21244626.008 8 113524836.939 8        49.100    21244626.473 7 113524794.948 7        47.000    21244638.734 7  88297072.314 7        46.000    21244639.387 7  88297069.312 7        45.000
R10  23410426.984 5 124790786.731 5        34.600    23410427.559 5 124790710.729 5        33.700
R08  23968516.766 6 128350314.207 6        37.400    23968516.313 6 128350271.222 6        36.100    23968539.406 6  99828072.585 6        37.500    23968539.824 6  99828073.580 6        37.400
R02  22964854.789 7 122544865.896 7        43.000    22964855.914 7 122544824.900 7        42.500    22964873.457 6  95312650.231 6        39.600    22964873.797 6  95312647.224 6        39.100
R01  22272550.023 7 119059539.318 7        43.300    22272550.219 6 119059497.320 6        41.600    22272569.250 6  92601836.982 6        37.100    22272569.660 6  92601832.984 6        36.200
G30  24924640.914 5 130979870.246 5        34.400    24924660.641 4 102062316.446 4        26.200    24924660.918 6 102062314.431 6        36.200    24924667.074 6  97809736.407 6        41.600
E30  28360971.820 6 149037921.289 6        36.000    28361002.723 6 111294657.745 6        37.100    28360997.328 6 114197976.327 6        38.200
E29  24358819.750 8 128006457.726 8        49.000    24358835.586 8  95589216.709 8        49.100    24358831.648 8  98082849.169 8        49.300    24358833.324 9  96836030.022 9        56.400
E27  25179582.344 7 132319595.431 7        46.500    25179599.293 7  98810068.606 7        47.100    25179595.117 8 101387722.315 8        48.000    25179597.051 9 100098893.046 9        54.000
E21  25534086.359 7 134182531.285 7        45.000    25534103.762 7 100201215.438 7        46.600    25534099.324 7 102815160.054 7        46.200    25534101.422 8 101508187.329 8        53.300
E19  25470786.922 6 133849889.588 6        38.800    25470804.352 6  99952826.644 6        39.400    25470800.418 6 102560281.262 6        40.700    25470802.125 7 101256545.568 7        46.200
E15  26007077.820 6 136668114.364 6        41.800    26007101.371 7 102057413.253 7        45.100    26007096.270 7 104719775.983 7        44.900    26007107.902 8 103388598.36318        50.300
E13  25756584.813 7 135351758.430 7        43.100    25756608.316 7 101074370.624 7        44.900    25756603.258 7 103711070.174 7        45.600    25756605.688 8 102392744.744 8        51.700
E07  26396800.383 6 138716116.857 6        41.500    26396827.352 7 103586795.204 7        43.400    26396822.641 7 106289046.517 7        44.000
G27  22640336.125 6 118975765.813 6        40.100    22640353.754 6  92708458.436 6        36.700    22640353.719 7  92708379.432 7        42.100    22640358.508 7  88845525.817 7        47.000
G16  24448180.086 5                        31.900
G14  25431854.656 5 133645260.280 5        32.200                                                    25431875.211 6 104139272.625 6        36.100    25431885.352 6  99800168.853 6        38.200
G09  21531402.250 7 113148280.886 7        45.300    21531417.730 7  88167542.970 7        45.500    21531418.020 7  88167486.970 7        45.900    21531423.246 8  84493839.383 8        50.800
G08  20350823.188 8 106944294.773 8        48.500    20350836.699 8  83333263.472 8        49.200    20350837.285 8  83333211.469 8        48.200    20350840.566 8  79860990.034 8        52.900
G07  22257171.719 7 116962223.831 7        45.600    22257183.477 6  91139440.360 6        41.500    22257183.582 7  91139389.360 7        44.000
G04  21934365.648 7 115265866.484 7        43.200    21934382.824 5  89817613.188 5        30.800    21934382.664 7  89817554.182 7        45.700    21934391.711 8  86075151.606 8        48.300
G02  21811104.133 7 114618123.761 7        44.600    21811117.504 5  89312868.626 5        34.600
G01  23155539.172 6 121683182.960 6        40.900    23155558.898 4  94818144.144 4        27.300    23155558.672 7  94818053.139 7        44.000    23155569.383 7  90867325.319 7        46.400
C11  23818710.484 6 124030271.139 6        40.800    23818718.445 7  95908028.957 7        44.400
C06  35970149.898 7 187306008.456 7        45.300    35970152.332 7 144836843.705 7        47.300
C05  38611405.023 5 201059718.716 5        35.800    38611413.332 6 155472160.756 6        39.600
C04  39238743.813 5 204326433.081 5        34.300    39238755.457 6 157998206.357 6        37.500
C03  36235909.695 7 188689879.078 7        43.900    36235912.422 7 145907001.635 7        44.700
C02  36800882.156 6 191631848.991 6        40.200    36800885.027 7 148181912.828 7        43.600
C01  38023033.664 6 197995912.360 6        39.300    38023042.297 6 153103031.607 6        40.500
S27  38824786.969 6 204025622.292 6        41.700    38824797.449 7 152356816.985 7        43.400
S37  36838965.625 6 193590024.717 6        41.900
> 2025  2 28  3 28  5.0000000  0 36       0.000367376000
R23  23641411.398 6 126465601.995 6        38.600    23641410.492 6 126465560.998 6        36.800
R22  20416017.359 8 108982084.494 8        51.400    20416017.859 8 108982048.500 8        50.000    20416030.629 8  84763821.165 8        48.400    20416031.184 8  84763818.170 8        48.100
R21  20560774.508 8 110024857.205 8        49.900    20560774.254 8 110024817.204 8        49.100    20560786.848 7  85574863.622 7        47.300    20560787.359 7  85574860.618 7        46.900
R12  22676939.414 7 121136144.867 7        44.200    22676939.980 7 121136101.870 7        43.300    22676956.613 7  94216973.942 7        42.000    22676956.926 6  94216969.930 6        40.800
R11  21244384.828 8 113523549.498 8        49.000    21244385.797 7 113523507.504 7        47.200    21244397.957 7  88296070.970 7        46.200    21244398.727 7  88296067.966 7        45.300
R10  23410490.219 5 124791123.493 5        33.900    23410490.488 5 124791047.496 5        33.600
R08  23969000.836 6 128352905.705 6        38.200    23969000.105 6 128352862.723 6        36.200    23969022.992 6  99830088.186 6        37.300    23969023.387 6  99830089.181 6        37.800
R02  22964619.484 7 122543604.421 7        43.300    22964619.445 7 122543563.419 7        42.200    22964636.668 6  95311669.077 6        39.600    22964637.320 6  95311666.068 6        39.300
R01  22272822.141 7 119060994.361 7        43.500    22272822.676 6 119060952.365 6        41.600    22272841.320 6  92602968.668 6        37.600    22272842.207 6  92602964.670 6        36.100
G30  24923853.047 5 130975730.538 5        33.900    24923872.867 4 102059090.692 4        25.900    24923873.285 6 102059088.681 6        36.500    24923879.195 7  97806645.061 7        42.000
E30  28361038.984 6 149038272.935 6        36.100    28361069.500 6 111294920.318 6        37.400    28361064.117 6 114198245.756 6        37.900
E29  24358869.727 8 128006720.879 8        48.800    24358885.750 8  95589413.213 8        49.300    24358881.707 8  98083050.801 8        49.700    24358883.473 9  96836229.111 9        56.700
E27  25179540.961 7 132319377.575 7        46.300    25179557.871 7  98809905.916 7        47.400    25179553.727 8 101387555.382 8        48.200    25179555.531 9 100098728.204 9        54.200
E21  25533832.242 7 134181196.411 7        44.900    25533849.672 7 100200218.617 7        46.800    25533845.484 7 102814137.231 7        46.400    25533847.391 8 101507177.482 8        53.500
E19  25470418.852 6 133847954.845 6        39.000    25470436.184 6  99951381.868 6        39.700    25470432.219 6 102558798.793 6        40.500    25470433.992 7 101255081.947 7        46.300
E15  26006827.563 6 136666798.319 6        41.600    26006851.094 7 102056430.491 7        45.100    26006845.922 7 104718767.585 7        45.300    26006848.340 8 103387603.12518        51.800
E13  25755971.688 7 135348536.473 7        43.300    25755995.324 7 101071964.624 7        45.000    25755990.168 7 103708601.408 7        45.600    25755992.789 8 102390307.268 8        51.900
E07  26397163.398 6 138718024.693 6        41.600    26397190.238 7 103588219.871 7        43.600    26397185.535 7 106290508.353 7        44.300
G27  22640787.211 6 118978136.804 6        39.900    22640804.660 6  92710305.959 6        36.200    22640804.789 7  92710226.952 7        42.000    22640809.664 7  88847296.356 7        47.300
G16  24448400.234 5                        31.800
G14  25431361.297 5 133642667.877 5        31.500                                                    25431382.008 5 104137252.576 5        35.900    25431392.398 6  99798232.974 6        38.800
G09  21531494.664 7 113148765.916 7        45.200    21531510.289 7  88167920.908 7        45.400    21531510.531 7  88167864.910 7        45.900    21531515.758 8  84494201.573 8        51.000
G08  20350967.039 8 106945050.321 8        48.500    20350980.375 8  83333852.209 8        49.100    20350980.855 8  83333800.205 8        48.300    20350984.238 8  79861554.238 8        53.000
G07  22256482.727 7 116958603.661 7        44.500    22256494.301 6  91136619.448 6        41.700    22256494.242 7  91136568.449 7        44.100
G04  21934723.617 7 115267743.936 7        43.200    21934740.234 5  89819076.123 5        31.600    21934740.000 7  89819017.120 7        46.100    21934749.137 8  86076553.585 8        48.400
G02  21810496.328 7 114614932.227 7        44.400    21810510.164 5  89310381.720 5        34.600
G01  23154824.359 6 121679429.727 6        40.500    23154844.727 4  94815219.544 4        25.600    23154844.805 7  94815128.546 7        44.100    23154855.219 7  90864522.584 7        46.600
C11  23818939.492 6 124031464.995 6        40.500    23818947.781 7  95908952.116 7        44.500
C06  35969913.328 7 187304774.953 7        44.100    35969915.582 7 144835889.881 7        47.500
C05  38611239.492 5 201058854.857 5        35.200    38611247.375 6 155471492.765 6        39.800
C04  39238572.781 5                        33.200
C03  36235738.523 7 188688986.876 7        43.000    36235741.125 7 145906311.724 7        44.300
C02  36800718.719 6 191630997.100 6        39.300    36800721.734 7 148181254.090 7        43.400
C01  38022864.711 6 197995031.420 6        38.500    38022873.262 6 153102350.406 6        40.600
S27  38824617.781 6 204024736.815 6        41.700    38824628.844 7 152356155.742 7        43.900
S37  36838792.031 6 193589133.408 6        41.700
> 2025  2 28  3 28  6.0000000  0 35       0.000366808000
R23  23640413.117 6 126460265.900 6        39.000    23640412.938 6 126460224.901 6        37.000
R22  20415307.977 8 108978297.470 8        51.400    20415308.379 8 108978261.474 8        50.200    20415320.711 8  84760875.701 8        48.200    20415321.586 7  84760872.708 7        47.800
R21  20560857.172 8 110025299.769 8        50.000    20560856.863 8 110025259.774 8        48.800    20560869.348 7  85575207.836 7        47.200    20560869.824 7  85575204.834 7        46.600
R12  22676425.305 7 121133394.287 7        44.600    22676425.133 7 121133351.284 7        43.400    22676441.500 6  94214834.606 6        41.600    22676441.688 6  94214830.593 6        40.700
R11  21244144.180 8 113522262.031 8        48.600    21244144.684 7 113522220.038 7        47.300    21244156.605 7  88295069.607 7        46.300    21244157.418 7  88295066.600 7        45.100
R10  23410553.898 5 124791460.332 5        33.900    23410554.102 5 124791384.326 5        34.200
R08  23969485.188 6 128355496.924 6        38.400    23969484.844 6 128355453.949 6        36.800    23969507.215 6  99832103.573 6        36.900    23969507.738 6  99832104.568 6        37.300
R02  22964383.188 7 122542343.543 7        43.300    22964383.137 7 122542302.538 7        42.200    22964400.676 6  95310688.384 6        39.900    22964401.129 6  95310685.378 6        39.100
R01  22273094.234 7 119062449.704 7        43.800    22273094.844 6 119062407.708 6        41.900    22273113.453 6  92604100.591 6        37.700    22273114.508 6  92604096.592 6        36.200
G30  24923065.102 5 130971590.678 5        33.600    24923085.094 4 102055864.825 4        24.700    24923085.641 5 102055862.822 5        35.900    24923091.301 6  97803553.605 6        41.700
E30  28361105.914 6 149038624.404 6        36.400    28361136.695 6 111295182.770 6        36.800    28361131.188 6 114198515.052 6        38.300
E29  24358919.898 8 128006984.335 8        48.900    24358935.703 8  95589609.944 8        49.000    24358931.855 8  98083252.666 8        49.100    24358933.625 9  96836428.422 9        56.400
E27  25179499.359 7 132319159.574 7        46.500    25179516.281 7  98809743.118 7        47.000    25179512.105 7 101387388.338 7        47.600    25179513.898 9 100098563.288 9        54.000
E21  25533578.164 7 134179861.446 7        45.100    25533595.656 7 100199221.725 7        46.200    25533591.395 7 102813114.334 7        46.500    25533593.219 8 101506167.594 8        53.300
E19  25470050.820 6 133846020.428 6        39.200    25470068.098 6  99949937.335 6        40.100    25470063.910 6 102557316.575 6        40.200    25470065.797 7 101253618.570 7        46.200
E15  26006577.063 6 136665482.603 6        41.600    26006600.539 7 102055447.974 7        45.100    26006595.355 7 104717759.437 7        44.900    26006597.777 8 103386608.040 8        51.700
E13  25755358.469 7 135345314.553 7        43.600    25755382.055 7 101069558.648 7        44.900    25755377.000 7 103706132.669 7        45.100    25755379.328 8 102387869.811 8        51.700
E07  26397526.453 6 138719932.479 6        41.600    26397553.324 7 103589644.501 7        43.500    26397548.535 7 106291970.148 7        44.300
G27  22641238.625 6 118980507.879 6        40.000    22641255.738 6  92712153.541 6        36.900    22641255.781 6  92712074.534 6        41.800    22641260.656 7  88849066.956 7        47.000
G16  24448621.133 5                        31.200
G14  25430868.516 5 133640075.366 5        32.000                                                    25430888.684 5 104135232.437 5        35.700    25430899.227 6  99796297.010 6        38.900
G09  21531587.180 7 113149251.356 7        45.400    21531603.016 7  88168299.163 7        45.400    21531603.281 7  88168243.164 7        46.000    21531608.465 8  84494564.068 8        51.000
G08  20351110.797 8 106945806.238 8        48.700    20351124.035 8  83334441.232 8        49.100    20351124.602 7  83334389.229 7        47.600    20351127.898 8  79862118.719 8        53.000
G07  22255793.891 7 116954983.550 7        45.000    22255805.715 6  91133798.586 6        41.600    22255805.680 7  91133747.587 7        43.900
G04  21935081.344 7 115269621.593 7        43.300    21935097.816 5  89820539.217 5        31.400    21935097.637 7  89820480.218 7        45.900    21935106.535 8  86077955.718 8        48.300
G02  21809888.984 7 114611740.981 7        44.600    21809902.598 5  89307895.043 5        34.200
G01  23154110.109 6 121675676.472 6        40.800    23154130.832 4  94812294.941 4        27.200    23154130.777 7  94812203.937 7        44.300    23154141.090 7  90861719.834 7        46.300
C11  23819169.102 6 124032659.154 6        40.900    23819176.723 7  95909875.509 7        44.100
C06  35969676.508 7 187303541.476 7        44.500    35969678.617 7 144834936.078 7        47.100
C05  38611073.211 5 201057990.897 5        35.400    38611081.770 6 155470824.689 6        39.800
C03  36235567.031 7 188688094.590 7        43.200    36235569.906 7 145905621.750 7        44.600
C02  36800555.148 6 191630145.112 6        39.700    36800557.914 7 148180595.276 7        43.300
C01  38022695.195 6 197994150.389 6        38.800    38022704.109 6 153101669.137 6        40.100
S27  38824449.156 6 204023851.219 6        41.800    38824460.301 7 152355494.360 7        43.400
S37  36838624.953 6 193588242.014 6        41.700
> 2025  2 28  3 28  7.0000000  0 36       0.000366245000
R23  23639415.523 6 126454929.802 6        38.600    23639415.727 6 126454888.806 6        37.200
R22  20414598.742 8 108974511.034 8        51.300    20414598.988 8 108974475.038 8        50.400    20414611.480 8  84757930.696 8        48.400    20414612.277 8  84757927.699 8        48.000
R21  20560939.938 8 110025743.161 8        50.400    20560939.848 8 110025703.166 8        48.900    20560952.402 7  85575552.696 7        47.200    20560952.980 7  85575549.694 7        47.100
R12  22675910.227 7 121130643.515 7        44.300    22675910.324 7 121130600.519 7        43.600    22675926.625 6  94212695.118 6        41.400    22675927.074 6  94212691.106 6        40.900
R11  21243903.828 8 113520974.623 8        48.800    21243903.648 7 113520932.625 7        47.600    21243915.883 7  88294068.280 7        46.700    21243916.355 7  88294065.276 7        45.300
R10  23410617.602 5 124791797.320 5        34.100    23410616.723 5 124791721.301 5        33.800
R08  23969970.211 6 128358087.912 6        38.800    23969968.875 6 128358044.932 6        37.300    23969990.379 6  99834118.785 6        37.100    23969991.250 6  99834119.783 6        37.400
R02  22964147.273 7 122541083.342 7        43.500    22964147.133 7 122541042.337 7        42.200    22964164.121 6  95309708.217 6        40.100    22964164.852 6  95309705.217 6        39.700
R01  22273367.461 7 119063905.405 7        44.000    22273367.438 7 119063863.409 7        42.200    22273385.918 6  92605232.796 6        37.600    22273386.793 6  92605228.793 6        36.400
G30  24922277.500 5 130967450.724 5        34.200    24922297.367 4 102052638.886 4        24.700    24922297.613 5 102052636.886 5        35.600    24922303.516 6  97800462.075 6        41.900
E30  28361172.875 6 149038975.787 6        37.400    28361203.691 6 111295445.155 6        37.900    28361198.027 6 114198784.284 6        38.400
E29  24358970.031 8 128007248.151 8        49.000    24358985.977 8  95589806.943 8        49.400    24358982.035 8  98083454.805 8        49.700    24358983.805 9  96836627.994 9        56.700
E27  25179457.875 7 132318941.486 7        46.500    25179474.820 7  98809580.255 7        47.800    25179470.582 7 101387221.227 7        47.700    25179472.383 9 100098398.321 9        54.300
E21  25533324.234 7 134178526.448 7        45.400    25533341.629 7 100198224.811 7        46.500    25533337.367 7 102812091.410 7        46.900    25533339.305 8 101505157.694 8        53.500
E19  25469682.672 6 133844086.410 6        39.200    25469700.117 6  99948493.097 6        40.200    25469696.023 6 102555834.661 6        40.500    25469697.910 7 101252155.490 7        46.400
E15  26006326.758 6 136664167.290 6        41.700    26006350.398 7 102054465.758 7        45.500    26006345.293 7 104716751.600 7        45.000    26006355.680 8 103385613.04418        51.100
E13  25754745.430 7 135342092.751 7        44.000    25754769.078 7 101067152.763 7        45.100    25754763.984 7 103703664.022 7        45.500    25754766.305 8 102385432.477 8        52.000
E07  26397889.422 6 138721840.286 6        41.600    26397916.625 7 103591069.147 7        44.200    26397911.742 7 106293431.960 7        44.100
G27  22641689.438 6 118982879.113 6        39.900    22641707.234 6  92714001.253 6        36.600    22641707.313 6  92713922.242 6        41.400    22641712.117 7  88850837.676 7        47.200
G16  24448840.047 5 128479533.548 5        32.000    24448863.086 2 100113988.37512        13.900
G14  25430374.703 5 133637482.864 5        31.200                                                    25430395.328 6 104133212.307 6        36.000    25430405.605 6  99794361.050 6        38.800
G09  21531679.695 7 113149737.278 7        45.600    21531695.313 7  88168677.796 7        45.600    21531695.469 7  88168621.797 7        46.000    21531700.781 8  84494926.924 8        51.100
G08  20351254.820 8 106946562.591 8        49.000    20351268.508 8  83335030.596 8        49.200    20351269.055 8  83334978.591 8        48.200    20351272.266 8  79862683.524 8        53.000
G07  22255104.977 7 116951363.554 7        45.000    22255116.844 7  91130977.812 7        42.000    22255116.699 7  91130926.812 7        43.800
G04  21935438.398 7 115271499.514 7        43.700    21935455.043 5  89822002.526 5        32.100    21935455.059 7  89821943.523 7        46.000    21935463.953 8  86079358.053 8        48.300
G02  21809282.039 7 114608550.090 7        45.300    21809295.504 5  89305408.639 5        34.000
G01  23153395.836 6 121671923.257 6        40.600    23153416.121 4  94809370.368 4        26.500    23153416.199 7  94809279.358 7        44.500    23153426.395 7  90858917.114 7        46.700
C11  23819398.500 6 124033853.710 6        40.700    23819406.313 7  95910799.211 7        44.400
C06  35969439.547 7 187302308.084 7        45.000    35969441.656 7 144833982.341 7        47.300
C05  38610907.211 6 201057126.916 6        36.000    38610915.719 6 155470156.603 6        39.700
C04  39238230.164 5 204323758.84315        35.000    39238239.266 6 157996139.46716        37.200
C03  36235395.672 7 188687202.283 7        43.700    36235398.598 7 145904931.761 7        44.900
C02  36800391.242 6 191629293.114 6        40.000    36800394.270 7 148179936.453 7        43.900
C01  38022525.914 6 197993269.338 6        39.400    38022534.871 6 153100987.849 6        40.600
S27  38824280.625 7 204022965.591 7        42.200    38824291.891 7 152354832.917 7        43.400
S37  36838456.031 6 193587350.590 6        41.800
> 2025  2 28  3 28  8.0000000  0 36       0.000365677000
R23  23638418.828 6 126449593.687 6        37.500    23638418.102 6 126449552.690 6        36.800
R22  20413889.375 8 108970725.169 8        50.900    20413889.867 8 108970689.176 8        49.900    20413902.617 8  84754986.135 8        48.400    20413903.246 8  84754983.139 8        48.200
R21  20561023.117 8 110026187.356 8        50.000    20561023.164 8 110026147.365 8        48.900    20561035.797 7  85575898.179 7        47.300    20561036.297 7  85575895.176 7        47.400
R12  22675394.914 7 121127892.596 7        44.000    22675395.422 7 121127849.600 7        43.500    22675411.793 6  94210555.516 6        41.900    22675412.145 6  94210551.505 6        41.000
R11  21243663.500 8 113519687.242 8        48.700    21243662.570 7 113519645.243 7        47.200    21243674.867 7  88293066.974 7        47.200    21243675.375 7  88293063.971 7        45.500
R10  23410679.492 5 124792134.406 5        34.300    23410680.492 5 124792058.406 5        33.300
R08  23970453.500 6 128360678.623 6        38.800    23970452.863 6 128360635.641 6        36.900    23970474.168 6  99836133.785 6        37.400    23970475.055 6  99836134.783 6        37.200
R02  22963910.617 7 122539823.835 7        43.600    22963911.066 7 122539782.840 7        42.400    22963927.934 6  95308728.593 6        40.200    22963928.789 6  95308725.599 6        39.300
R01  22273639.227 7 119065361.458 7        43.500    22273639.488 6 119065319.461 6        41.800    22273657.832 6  92606365.271 6        37.900    22273658.781 6  92606361.265 6        36.500
G30  24921488.398 5 130963310.690 5        33.700    24921509.258 4 102049412.886 4        25.300    24921509.305 5 102049410.884 5        35.900    24921515.473 7  97797370.489 7        42.100
E30  28361239.375 6 149039327.046 6        36.800    28361270.750 6 111295707.447 6        37.700    28361265.094 6 114199053.418 6        38.400
E29  24359020.492 8 128007512.321 8        48.900    24359036.414 8  95590004.206 8        49.700    24359032.301 8  98083657.216 8        49.800    24359034.176 9  96836827.829 9        56.700
E27  25179416.227 7 132318723.315 7        46.200    25179433.281 7  98809417.332 7        47.700    25179429.051 7 101387054.054 7        47.600    25179430.961 9 100098233.293 9        54.400
E21  25533070.250 7 134177191.411 7        45.300    25533087.602 7 100197227.865 7        46.900    25533083.320 7 102811068.459 7        47.100    25533085.273 8 101504147.764 8        53.500
E19  25469314.883 6 133842152.778 6        39.100    25469332.145 6  99947049.149 6        39.600    25469328.102 6 102554353.046 6        40.700    25469329.926 7 101250692.706 7        46.400
E15  26006076.531 6 136662852.354 6        41.800    26006100.105 7 102053483.828 7        45.300    26006094.918 7 104715744.053 7        45.500    26006106.539 8 103384618.67118        50.500
E13  25754132.594 7 135338871.046 7        44.100    25754155.988 7 101064746.947 7        45.400    25754150.941 7 103701195.443 7        45.700    25754153.117 8 102382995.256 8        52.000
E07  26398252.672 6 138723748.106 6        41.200    26398279.469 7 103592493.802 7        44.200    26398274.594 7 106294893.782 7        44.000
G27  22642140.570 6 118985250.488 6        40.100    22642158.125 6  92715849.070 6        36.800    22642157.926 6  92715770.058 6        41.400    22642162.992 7  88852608.498 7        47.400
G16  24449058.586 5 128480688.237 5        32.000    24449082.695 2 100114888.118 2        14.800
G14  25429881.195 5 133634890.330 5        32.400                                                    25429902.352 6 104131192.150 6        36.300    25429912.375 6  99792425.063 6        38.700
G09  21531772.250 7 113150223.671 7        45.300    21531787.691 7  88169056.797 7        45.600    21531787.867 7  88169000.793 7        46.100    21531793.184 8  84495290.130 8        51.000
G08  20351398.820 8 106947319.373 8        48.800    20351412.250 8  83335620.293 8        49.100    20351412.703 8  83335568.288 8        48.100    20351416.074 8  79863248.650 8        53.100
G07  22254416.258 7 116947743.675 7        45.000    22254427.934 7  91128157.130 7        42.100    22254428.039 7  91128106.130 7        44.200
G04  21935795.969 7 115273377.689 7        43.200    21935812.563 5  89823466.031 5        31.400    21935812.469 7  89823407.027 7        46.100    21935821.438 8  86080760.576 8        48.500
G02  21808675.008 7 114605359.549 7        44.800    21808688.410 5  89302922.506 5        34.100
G01  23152681.508 6 121668170.064 6        40.200    23152702.164 4  94806445.806 4        26.700    23152702.211 7  94806354.802 7        44.300    23152712.578 7  90856114.409 7        46.600
C11  23819628.250 6 124035048.638 6        39.600    23819636.027 7  95911723.200 7        44.300
C06  35969202.758 7 187301074.778 7        44.400    35969204.984 7 144833028.669 7        47.600
C05  38610740.945 5 201056262.909 5        35.500    38610749.387 6 155469488.496 6        40.100
C04  39238059.258 5 204322867.31615        33.900    39238070.668 6 157995450.10616        37.400
C03  36235224.344 7 188686309.946 7        43.000    36235227.164 7 145904241.743 7        45.000
C02  36800227.766 6 191628441.079 6        39.200    36800230.375 7 148179277.604 7        43.800
C01  38022357.000 6 197992388.252 6        38.400    38022365.594 6 153100306.536 6        40.500
S27  38824111.984 6 204022079.933 6        41.800    38824123.160 7 152354171.459 7        43.500
S37  36838284.406 6 193586459.145 6        41.100
> 2025  2 28  3 28  9.0000000  0 36       0.000365110000
R23  23637421.313 6 126444257.555 6        38.300    23637420.289 6 126444216.564 6        37.000
R22  20413179.938 8 108966939.893 8        51.000    20413180.672 8 108966903.900 8        50.200    20413193.266 8  84752042.034 8        48.100    20413193.965 8  84752039.040 8        48.100
R21  20561105.867 8 110026632.386 8        50.000    20561106.109 8 110026592.391 8        48.800    20561118.438 7  85576244.311 7        46.800    20561119.074 7  85576241.309 7        47.200
R12  22674879.992 7 121125141.536 7        44.300    22674880.387 7 121125098.535 7        43.600    22674896.859 6  94208415.801 6        41.800    22674896.867 6  94208411.794 6        40.600
R11  21243421.430 8 113518399.898 8        49.100    21243421.676 7 113518357.897 7        47.300    21243434.180 7  88292065.701 7        46.800    21243434.633 7  88292062.699 7        45.500
R10  23410742.156 5 124792471.640 5        34.800    23410743.508 5 124792395.647 5        33.400
R08  23970937.570 6 128363269.054 6        38.800    23970936.375 6 128363226.074 6        37.300    23970958.125 6  99838148.571 6        36.900    23970958.938 6  99838149.568 6        37.100
R02  22963674.836 7 122538565.068 7        43.700    22963675.402 7 122538524.076 7        42.200    22963692.563 6  95307749.548 6        39.800    22963692.953 6  95307746.558 6        39.500
R01  22273911.961 7 119066817.865 7        43.300    22273912.594 6 119066775.871 6        41.800    22273931.277 6  92607498.021 6        38.000    22273931.879 6  92607494.014 6        36.100
G30  24920700.500 5 130959170.545 5        33.300    24920721.203 4 102046186.794 4        24.600    24920721.125 5 102046184.788 5        35.500    24920727.543 6  97794278.820 6        41.800
E30  28361306.250 6 149039678.205 6        37.100    28361337.477 6 111295969.664 6        37.600    28361331.695 6 114199322.481 6        37.300
E29  24359070.656 8 128007776.846 8        49.000    24359086.551 8  95590201.735 8        49.200    24359082.563 8  98083859.900 8        49.800    24359084.383 9  96837027.929 9        56.500
E27  25179374.828 7 132318505.047 7        46.500    25179391.988 7  98809254.335 7        47.600    25179387.754 7 101386886.805 7        47.500    25179389.637 9 100098068.183 9        54.000
E21  25532816.023 7 134175856.341 7        45.500    25532833.473 7 100196230.896 7        46.600    25532829.117 7 102810045.481 7        47.000    25532831.129 8 101503137.803 8        53.400
E19  25468946.656 6 133840219.540 6        39.300    25468964.195 6  99945605.494 6        39.500    25468960.090 6 102552871.732 6        40.500    25468962.008 7 101249230.220 7        46.300
E15  26005826.422 6 136661537.813 6        41.900    26005849.980 7 102052502.192 7        45.200    26005844.738 7 104714736.807 7        45.500    26005847.234 8 103383624.58718        51.500
E13  25753519.492 7 135335649.444 7        44.000    25753542.969 7 101062341.209 7        45.300    25753537.953 7 103698726.945 7        45.300    25753540.109 8 102380558.144 8        51.800
E07  26398615.805 6 138725655.953 6        41.300    26398642.492 7 103593918.479 7        43.800    26398637.625 7 106296355.626 7        43.900
G27  22642591.852 6 118987621.997 6        39.900    22642609.902 6  92717696.991 6        36.600    22642609.863 6  92717617.978 6        41.500    22642614.781 7  88854379.420 7        47.300
G16  24449280.570 5                        31.500
G14  25429388.945 5 133632297.743 5        32.900                                                    25429408.586 5 104129171.950 5        35.900    25429418.781 6  99790489.032 6        38.700
G09  21531865.164 7 113150710.541 7        45.500    21531880.652 7  88169436.169 7        45.500    21531880.855 7  88169380.167 7        46.000    21531886.090 8  84495653.692 8        50.900
G08  20351543.180 8 106948076.586 8        49.100    20351556.250 8  83336210.325 8        49.000    20351556.957 7  83336158.321 7        47.900    20351560.152 8  79863814.099 8        52.800
G07  22253727.664 7 116944123.909 7        45.600    22253739.121 6  91125336.534 6        41.700    22253739.168 7  91125285.534 7        43.400
G04  21936153.367 7 115275256.121 7        43.300    21936169.844 5  89824929.737 5        31.800    21936169.797 7  89824870.732 7        46.000    21936178.578 8  86082163.291 8        48.200
G02  21808067.781 7 114602169.350 7        44.800    21808081.293 5  89300436.643 5        34.300
G01  23151966.758 6 121664416.898 6        40.400    23151987.691 4  94803521.266 4        25.700    23151987.758 7  94803430.270 7        43.600    23151998.156 7  90853311.730 7        46.400
C11  23819857.664 6 124036243.931 6        40.500    23819865.688 7  95912647.470 7        44.100
C06  35968965.984 7 187299841.553 7        44.600    35968968.180 7 144832075.058 7        47.100
C05  38610575.266 5 201055398.881 5        35.700    38610583.773 6 155468820.368 6        40.200
C04  39237887.438 5 204321975.779 5        34.300    39237899.879 6 157994760.707 6        37.500
C03  36235052.875 7 188685417.574 7        43.300    36235055.660 7 145903551.702 7        45.300
C02  36800063.867 6 191627589.019 6        39.700    36800066.668 7 148178618.730 7        44.000
C01  38022187.945 6 197991507.146 6        39.200    38022196.488 6 153099625.207 6        40.100
S27  38823943.250 6 204021194.256 6        41.700    38823954.965 7 152353509.951 7        43.600
S37  36838113.969 6 193585567.678 6        41.500
> 2025  2 28  3 28 10.0000000  0 36       0.000364544000
R23  23636422.805 6 126438921.326 6        38.500    23636423.074 6 126438880.332 6        37.500
R22  20412471.398 8 108963155.101 8        51.300    20412471.645 8 108963119.105 8        50.200    20412484.105 8  84749098.310 8        48.100    20412484.848 8  84749095.318 8        48.000
R21  20561189.266 8 110027078.151 8        49.500    20561189.246 8 110027038.160 8        49.300    20561201.707 7  85576591.015 7        46.300    20561202.414 7  85576588.012 7        46.900
R12  22674364.953 7 121122390.198 7        44.200    22674365.086 7 121122347.196 7        43.700    22674381.895 6  94206275.870 6        41.600    22674381.738 6  94206271.864 6        40.700
R11  21243180.617 8 113517112.518 8        49.000    21243180.891 7 113517070.522 7        47.000    21243192.816 7  88291064.401 7        46.500    21243193.738 7  88291061.401 7        45.500
R10  23410807.492 5 124792808.915 5        35.300    23410806.668 5 124792732.928 5        33.700
R08  23971419.305 6 128365859.118 6        38.300    23971419.766 6 128365816.145 6        37.300    23971441.852 6  99840163.070 6        37.300    23971442.418 6  99840164.069 6        37.300
R02  22963438.828 7 122537306.972 7        44.000    22963439.445 7 122537265.976 7        42.400    22963456.934 6  95306771.032 6        39.700    22963457.180 6  95306768.040 6        39.600
R01  22274184.477 7 119068274.529 7        43.500    22274184.555 6 119068232.535 6        41.800    22274202.969 6  92608630.965 6        37.700    22274203.852 6  92608626.965 6        36.100
G30  24919912.828 5 130955030.238 5        33.900    24919933.238 4 102042960.590 4        24.700    24919933.195 5 102042958.570 5        35.800    24919939.652 6  97791187.034 6        41.900
E30  28361373.063 6 149040029.175 6        37.000    28361404.516 6 111296231.740 6        37.800    28361398.809 6 114199591.394 6        37.700
E29  24359121.094 8 128008041.647 8        49.100    24359136.930 8  95590399.471 8        49.200    24359132.926 8  98084062.793 8        50.000    24359134.703 9  96837228.239 9        56.700
E27  25179333.156 7 132318286.601 7        46.500    25179350.254 7  98809091.202 7        47.600    25179345.898 7 101386719.419 7        47.700    25179347.941 9 100097902.929 9        54.300
E21  25532562.086 7 134174521.150 7        45.600    25532579.395 7 100195233.838 7        46.700    25532575.082 7 102809022.414 7        47.200    25532577.133 8 101502127.744 8        53.500
E19  25468579.047 6 133838286.622 6        39.400    25468596.301 6  99944162.080 6        39.400    25468592.227 6 102551390.664 6        40.200    25468594.094 7 101247767.979 7        46.500
E15  26005576.367 6 136660223.565 6        41.900    26005599.672 7 102051520.772 7        45.300    26005594.727 7 104713729.785 7        45.500    26005597.098 8 103382630.611 8        51.800
E13  25752906.289 7 135332427.849 7        44.000    25752929.754 7 101059935.479 7        45.700    25752924.750 7 103696258.456 7        45.200    25752926.910 8 102378121.051 8        52.000
E07  26398978.883 6 138727563.718 6        41.700    26399005.637 7 103595343.093 7        44.300    26399000.602 7 106297817.404 7        44.300
G27  22643043.070 6 118989993.563 6        40.000    22643061.051 6  92719544.951 6        36.800    22643060.934 6  92719465.941 6        41.800    22643065.836 7  88856150.381 7        47.200
G16  24449500.461 5 128482997.231 5        31.500    24449522.199 2 100116687.33612        15.600
G14  25428895.352 5 133629705.071 5        31.200                                                    25428915.309 5 104127151.688 5        35.800    25428925.371 6  99788552.947 6        38.600
G09  21531957.719 7 113151197.796 7        45.800    21531973.184 7  88169815.841 7        45.700    21531973.355 7  88169759.841 7        45.700    21531978.563 8  84496017.544 8        50.900
G08  20351687.250 8 106948834.139 8        49.000    20351700.379 8  83336800.624 8        49.200    20351701.102 7  83336748.620 7        47.800    20351704.254 8  79864379.801 8        53.000
G07  22253038.938 7 116940504.173 7        45.800    22253050.363 7  91122515.963 7        42.200    22253050.406 7  91122464.961 7        43.600
G04  21936510.828 7 115277134.725 7        43.300    21936527.336 5  89826393.577 5        32.100    21936527.305 7  89826334.568 7        45.800    21936536.055 8  86083566.135 8        48.400
G02  21807460.781 7 114598979.418 7        44.700    21807474.262 5  89297950.988 5        34.900
G01  23151253.180 6 121660663.688 6        40.400    23151273.598 4  94800596.689 4        26.700    23151273.508 7  94800505.701 7        43.900    23151283.863 7  90850509.019 7        46.600
C11  23820087.164 6 124037439.511 6        41.100    23820095.563 7  95913571.960 7        44.100
C06  35968729.055 7 187298608.329 7        45.400    35968731.215 7 144831121.448 7        47.300
C05  38610409.664 6 201054534.735 6        36.000    38610417.863 6 155468152.153 6        40.600
C04  39237716.570 5 204321084.131 5        34.700    39237728.586 6 157994071.209 6        38.000
C03  36234881.297 7 188684525.092 7        43.800    36234884.309 7 145902861.573 7        45.700
C02  36799900.344 6 191626736.833 6        40.200    36799903.359 7 148177959.763 7        44.300
C01  38022018.531 6 197990625.924 6        39.300    38022027.344 6 153098943.786 6        40.100
S27  38823775.578 7 204020308.470 7        42.100    38823786.223 7 152352848.406 7        43.500
S37  36837948.094 6 193584676.078 6        41.800
> 2025  2 28  3 28 11.0000000  0 36       0.000363977000
R23  23635424.852 6 126433585.078 6        38.400    23635425.605 6 126433544.082 6        37.500
R22  20411762.430 8 108959370.897 8        51.300    20411762.918 8 108959334.901 8        50.100    20411775.887 8  84746155.045 8        48.000    20411776.195 8  84746152.052 8        48.300
R21  20561272.531 8 110027524.746 8        49.900    20561272.371 8 110027484.754 8        49.000    20561284.871 7  85576938.365 7        46.600    20561285.648 7  85576935.361 7        46.900
R12  22673850.133 7 121119638.658 7        44.600    22673850.309 7 121119595.657 7        43.400    22673866.863 7  94204135.787 7        42.000    22673866.762 6  94204131.779 6        40.700
R11  21242939.508 8 113515825.193 8        48.800    21242940.199 7 113515783.197 7        46.900    21242952.156 7  88290063.151 7        46.300    21242952.867 7  88290060.152 7        45.400
R10  23410870.891 5 124793146.351 5        35.700    23410870.254 5 124793070.362 5        33.400
R08  23971905.102 6 128368448.953 6        38.700    23971903.383 6 128368405.968 6        37.100    23971925.496 6  99842177.384 6        37.300    23971926.098 6  99842178.385 6        37.600
R02  22963202.289 7 122536049.621 7        43.400    22963203.969 7 122536008.617 7        42.600    22963221.109 6  95305793.095 6        39.500    22963221.621 6  95305790.100 6        39.800
R01  22274457.680 7 119069731.537 7        43.400    22274457.445 6 119069689.550 6        41.600    22274476.102 6  92609764.182 6        38.000    22274476.855 6  92609760.181 6        36.400
G30  24919125.750 5 130950889.847 5        33.700    24919145.492 4 102039734.313 4        24.100    24919145.492 5 102039732.288 5        35.900    24919152.137 6  97788095.185 6        41.900
E30  28361440.188 6 149040380.049 6        37.100    28361471.375 6 111296493.741 6        38.200    28361465.582 6 114199860.233 6        37.600
E29  24359171.484 8 128008306.809 8        49.000    24359187.527 8  95590597.477 8        49.400    24359183.531 8  98084265.966 8        49.800    24359185.316 9  96837428.826 9        56.700
E27  25179291.617 7 132318068.071 7        46.300    25179308.777 7  98808928.014 7        47.500    25179304.625 8 101386551.972 8        48.000    25179306.547 9 100097737.610 9        54.200
E21  25532307.930 7 134173185.926 7        46.000    25532325.336 7 100194236.754 7        46.600    25532321.000 7 102807999.318 7        47.300    25532323.027 8 101501117.652 8        53.500
E19  25468211.406 6 133836354.105 6        39.300    25468228.695 6  99942718.962 6        40.000    25468224.746 6 102549909.901 6        40.300    25468226.559 7 101246306.038 7        46.500
E15  26005326.305 7 136658909.717 7        42.000    26005349.766 7 102050539.652 7        45.500    26005344.664 7 104712723.070 7        45.200    26005347.008 8 103381636.734 8        51.800
E13  25752293.094 7 135329206.364 7        43.600    25752316.762 7 101057529.831 7        45.300    25752311.820 7 103693790.050 7        45.400    25752314.066 8 102375684.042 8        51.900
E07  26399342.109 6 138729471.501 6        41.900    26399368.609 7 103596767.722 7        44.300    26399363.621 7 106299279.196 7        44.400
G27  22643493.914 6 118992365.281 6        39.800    22643512.199 6  92721393.035 6        36.200    22643512.277 6  92721314.027 6        41.800    22643517.184 7  88857921.459 7        47.300
G16  24449719.375 5                        31.600
G14  25428401.906 5 133627112.371 5        32.600                                                    25428421.891 5 104125131.388 5        35.700    25428431.781 6  99786616.833 6        38.700
G09  21532050.813 7 113151685.536 7        45.800    21532066.355 7  88170195.895 7        45.800    21532066.684 7  88170139.894 7        45.700    21532071.840 8  84496381.760 8        50.900
G08  20351831.461 8 106949592.138 8        48.600    20351844.672 8  83337391.270 8        49.200    20351845.199 7  83337339.267 7        47.800    20351848.594 8  79864945.836 8        53.200
G07  22252349.711 7 116936884.561 7        46.000    22252361.527 6  91119695.484 6        41.800    22252361.492 7  91119644.486 7        43.600
G04  21936868.875 7 115279013.589 7        43.500    21936884.797 5  89827857.621 5        32.300    21936884.656 7  89827798.611 7        46.000    21936893.766 8  86084969.173 8        48.500
G02  21806853.898 7 114595789.837 7        44.600    21806867.363 5  89295465.605 5        34.900
G01  23150539.359 6 121656910.517 6        40.900    23150559.133 4  94797672.149 4        26.200    23150559.188 7  94797581.160 7        43.900    23150569.520 7  90847706.337 7        46.600
C11  23820316.641 6 124038635.467 6        40.900    23820325.012 7  95914496.741 7        43.900
C06  35968492.117 7 187297375.188 7        45.500    35968494.613 7 144830167.903 7        47.000
C05  38610243.563 5 201053670.567 5        35.800    38610251.859 6 155467483.916 6        40.200
C04  39237545.141 5 204320192.463 5        34.500    39237557.355 6 157993381.691 6        38.300
C03  36234709.969 7 188683632.583 7        43.700    36234713.102 7 145902171.424 7        45.600
C02  36799736.555 6 191625884.615 6        40.100    36799739.652 7 148177300.775 7        44.000
C01  38021849.359 6 197989744.671 6        39.400    38021858.156 6 153098262.343 6        40.200
S27  38823606.875 6 204019422.703 6        41.800    38823617.699 7 152352186.883 7        43.900
S37  36837778.563 6 193583784.471 6        41.800
> 2025  2 28  3 28 12.0000000  0 36       0.000363409000
R23  23634427.297 6 126428248.797 6        38.600    23634428.285 6 126428207.802 6        36.900
R22  20411053.672 8 108955587.293 8        51.700    20411054.191 8 108955551.297 8        50.400    20411066.891 8  84743212.245 8        48.100    20411067.332 8  84743209.249 8        48.300
R21  20561356.734 8 110027972.179 8        49.800    20561356.355 8 110027932.187 8        48.700    20561368.789 7  85577286.362 7        46.600    20561369.379 7  85577283.362 7        46.800
R12  22673335.203 7 121116886.934 7        44.700    22673335.223 7 121116843.938 7        43.400    22673351.172 6  94201995.564 6        41.800    22673351.500 6  94201991.554 6        41.200
R11  21242698.617 8 113514537.914 8        49.100    21242699.316 7 113514495.917 7        47.500    21242711.465 7  88289061.932 7        46.300    21242711.961 7  88289058.932 7        45.700
R10  23410932.641 5 124793483.944 5        35.500    23410932.926 5 124793407.954 5        34.100
R08  23972386.445 6 128371038.567 6        38.900    23972387.125 6 128370995.580 6        37.000    23972409.215 6  99844191.518 6        36.900    23972409.492 6  99844192.521 6        37.500
R02  22962967.141 7 122534792.945 7        42.800    22962968.246 7 122534751.946 7        42.600    22962985.230 6  95304815.685 6        39.800    22962986.066 6  95304812.684 6        39.800
R01  22274730.414 7 119071188.902 7        43.200    22274729.559 6 119071146.913 6        41.700    22274748.379 6  92610897.678 6        37.600    22274749.109 6  92610893.678 6        36.800
G30  24918337.805 5 130946749.354 5        33.300    24918357.965 4 102036507.959 4        24.700    24918358.020 5 102036505.926 5        35.900    24918364.512 7  97785003.259 7        42.100
E30  28361506.758 6 149040730.831 6        37.100    28361538.387 6 111296755.671 6        37.800    28361532.387 6 114200129.000 6        37.700
E29  24359222.156 8 128008572.332 8        49.100    24359238.063 8  95590795.750 8        49.500    24359234.070 8  98084469.411 8        49.900    24359235.832 9  96837629.686 9        56.700
E27  25179250.094 7 132317849.458 7        46.100    25179267.098 7  98808764.758 7        47.800    25179262.875 7 101386384.459 7        47.500    25179264.805 9 100097572.221 9        54.200
E21  25532053.984 7 134171850.676 7        45.600    25532071.191 7 100193239.651 7        46.700    25532066.930 7 102806976.203 7        47.200    25532068.988 8 101500107.539 8        53.500
E19  25467843.680 6 133834421.993 6        39.200    25467861.086 6  99941276.149 6        40.400    25467856.996 6 102548429.449 6        40.500    25467858.789 7 101244844.406 7        46.400
E15  26005076.336 7 136657596.262 7        42.000    26005100.008 7 102049558.826 7        45.000    26005094.930 7 104711716.659 7        45.400    26005087.691 8 103380643.19518        48.300
E13  25751680.148 7 135325984.988 7        43.600    25751703.707 7 101055124.262 7        45.300    25751698.762 7 103691321.729 7        45.700    25751701.027 8 102373247.110 8        52.000
E07  26399705.391 7 138731379.313 7        42.300    26399731.609 7 103598192.373 7        43.900    26399726.664 7 106300741.016 7        44.300
G27  22643945.945 6 118994737.147 6        39.800    22643963.570 6  92723241.235 6        36.300    22643963.461 6  92723162.228 6        41.800    22643968.508 7  88859692.649 7        47.300
G16  24449938.758 5 128485305.724 5        32.000    24449961.629 2 100118486.12312        14.800
G14  25427909.273 5 133624519.649 5        32.200                                                    25427928.594 5 104123111.076 5        35.900    25427938.457 6  99784680.703 6        38.800
G09  21532143.219 7 113152173.754 7        45.500    21532158.980 7  88170576.321 7        45.500    21532159.438 7  88170520.317 7        45.900    21532164.480 8  84496746.334 8        51.000
G08  20351975.750 8 106950350.569 8        48.500    20351989.066 8  83337982.254 8        49.300    20351989.602 8  83337930.250 8        48.400    20351992.961 8  79865512.192 8        53.100
G07  22251661.211 7 116933265.064 7        46.000    22251672.598 6  91116875.096 6        41.700    22251672.543 7  91116824.097 7        43.700
G04  21937226.125 7 115280892.724 7        43.400    21937242.410 5  89829321.870 5        31.900    21937242.324 7  89829262.861 7        45.900    21937251.336 8  86086372.411 8        48.700
G02  21806246.828 7 114592600.608 7        44.500    21806260.313 5  89292980.493 5        34.500
G01  23149825.070 6 121653157.384 6        40.600    23149845.316 4  94794747.638 4        26.800    23149845.438 7  94794656.647 7        43.800    23149855.379 7  90844903.681 7        46.600
C11  23820546.430 6 124039831.810 6        40.600    23820554.793 7  95915421.823 7        44.100
C06  35968255.539 7 187296142.131 7        45.300    35968257.727 7 144829214.424 7        47.200
C05  38610077.578 5 201052806.374 5        35.500    38610086.203 6 155466815.668 6        40.300
C04  39237373.969 5 204319300.768 5        34.400    39237385.891 6 157992692.157 6        38.200
C03  36234538.602 7 188682740.060 7        43.500    36234541.355 7 145901481.266 7        45.200
C02  36799572.891 6 191625032.394 6        39.900    36799576.207 7 148176641.784 7        44.500
C01  38021679.828 6 197988863.406 6        39.200    38021688.777 6 153097580.892 6        40.500
S27  38823438.063 7 204018536.934 7        42.100    38823449.148 7 152351525.369 7        43.900
S37  36837608.594 7 193582892.844 7        42.000
> 2025  2 28  3 28 13.0000000  0 36       0.000362844000
R23  23633429.781 6 126422912.506 6        39.000    23633430.227 6 126422871.507 6        37.400
R22  20410345.117 8 108951804.281 8        51.600    20410345.129 8 108951768.283 8        50.500    20410357.699 8  84740269.903 8        48.100    20410358.371 8  84740266.908 8        48.500
R21  20561440.781 8 110028420.467 8        49.700    20561440.258 8 110028380.474 8        48.600    20561452.785 7  85577635.026 7        46.700    20561453.270 7  85577632.029 7        46.800
R12  22672820.156 7 121114135.075 7        44.600    22672820.117 7 121114092.077 7        43.700    22672836.125 6  94199855.235 6        41.800    22672836.449 6  94199851.223 6        40.500
R11  21242457.586 8 113513250.679 8        48.800    21242458.414 7 113513208.685 7        47.500    21242470.578 7  88288060.741 7        46.100    21242471.066 7  88288057.739 7        45.400
R10  23410996.875 5 124793821.703 5        35.300    23410996.527 5 124793745.704 5        33.300
R08  23972870.383 6 128373627.967 6        38.600    23972870.695 6 128373584.981 6        37.400    23972892.316 6  99846205.490 6        37.000    23972892.629 6  99846206.492 6        37.100
R02  22962733.211 7 122533536.929 7        43.400    22962733.324 7 122533495.927 7        42.300    22962750.172 6  95303838.790 6        40.000    22962751.113 6  95303835.781 6        40.000
R01  22275001.727 7 119072646.619 7        43.200    22275002.496 6 119072604.630 6        41.600    22275021.207 6  92612031.448 6        37.300    22275022.094 6  92612027.446 6        36.500
G30  24917550.219 5 130942608.803 5        33.300    24917569.977 3 102033281.559 3        22.900    24917570.105 5 102033279.526 5        35.500    24917576.434 7  97781911.288 7        42.400
E30  28361573.250 6 149041081.506 6        37.000    28361605.277 6 111297017.522 6        38.300    28361599.160 6 114200397.682 6        37.800
E29  24359272.711 8 128008838.220 8        49.000    24359288.680 8  95590994.297 8        49.700    24359284.617 8  98084673.137 8        49.400    24359286.414 9  96837830.825 9        56.700
E27  25179208.508 7 132317630.765 7        46.000    25179225.613 7  98808601.443 7        47.500    25179221.203 7 101386216.885 7        47.400    25179223.262 9 100097406.773 9        54.200
E21  25531799.859 7 134170515.396 7        45.700    25531817.238 7 100192242.525 7        46.800    25531813.004 7 102805953.065 7        47.100    25531814.965 8 101499097.404 8        53.500
E19  25467476.063 6 133832490.257 6        39.100    25467493.098 6  99939833.619 6        40.500    25467489.152 6 102546949.288 6        39.800    25467490.965 7 101243383.062 7        46.400
E15  26004826.625 6 136656283.211 6        41.900    26004850.270 7 102048578.302 7        45.100    26004844.992 7 104710710.556 7        45.600    26004846.805 8 103379650.24018        50.200
E13  25751067.023 7 135322763.717 7        43.500    25751090.633 7 101052718.774 7        45.400    25751085.801 7 103688853.487 7        45.500    25751088.031 8 102370810.248 8        51.900
E07  26400068.359 7 138733287.143 7        42.100    26400094.594 7 103599617.038 7        44.000    26400089.594 7 106302202.849 7        44.600
G27  22644397.141 6 118997109.164 6        39.900    22644414.973 6  92725089.557 6        36.700    22644414.645 6  92725010.549 6        41.600    22644419.867 7  88861463.954 7        47.200
G16  24450157.734 5 128486459.824 5        31.500    24450181.145 2 100119385.394 2        14.800
G14  25427415.391 5 133621926.909 5        31.600                                                    25427435.129 5 104121090.754 5        35.600    25427445.234 6  99782744.565 6        38.800
G09  21532236.359 7 113152662.448 7        45.900    21532251.992 7  88170957.116 7        45.600    21532252.332 7  88170901.111 7        45.900    21532257.445 8  84497111.261 8        51.000
G08  20352119.891 8 106951109.443 8        48.600    20352133.293 8  83338573.580 8        49.100    20352133.895 8  83338521.575 8        48.300    20352137.164 8  79866078.881 8        53.100
G07  22250972.281 7 116929645.694 7        46.000    22250984.230 6  91114054.806 6        41.400    22250984.184 7  91114003.809 7        43.700
G04  21937583.258 7 115282772.125 7        43.400    21937600.023 5  89830786.324 5        31.900    21937599.867 7  89830727.320 7        45.900    21937608.895 8  86087775.847 8        48.600
G02  21805639.789 7 114589411.729 7        44.600    21805653.703 5  89290495.652 5        34.500
G01  23149111.102 6 121649404.293 6        40.900    23149131.695 4  94791823.157 4        26.500    23149131.762 7  94791732.164 7        43.700    23149141.754 7  90842101.055 7        46.500
C11  23820776.055 6 124041028.524 6        40.400    23820784.621 7  95916347.193 7        44.300
C06  35968018.852 7 187294909.162 7        45.300    35968021.063 7 144828261.014 7        47.500
C05  38609911.836 5 201051942.174 5        35.500    38609920.234 6 155466147.411 6        39.800
C04  39237202.563 5 204318409.062 5        34.400    39237214.664 6 157992002.627 6        38.400
C03  36234367.242 7 188681847.518 7        43.400    36234370.230 7 145900791.096 7        45.100
C02  36799409.266 6 191624180.144 6        39.800    36799412.391 7 148175982.769 7        44.700
C01  38021511.141 6 197987982.116 6        38.900    38021519.516 6 153096899.418 6        40.900
S27  38823269.688 7 204017651.043 7        42.400    38823280.684 7 152350863.826 7        43.900
S37  36837440.906 6 193582001.194 6        41.700
> 2025  2 28  3 28 14.0000000  0 36       0.000362278000
R23  23632433.000 6 126417576.167 6        38.400    23632432.613 6 126417535.169 6        37.400
R22  20409636.063 8 108948021.822 8        51.400    20409636.633 8 108947985.826 8        50.600    20409649.555 7  84737327.991 7        47.200    20409649.805 7  84737324.996 7        47.400
R21  20561524.227 8 110028869.564 8        50.000    20561524.203 8 110028829.571 8        48.500    20561536.621 7  85577984.325 7        46.300    20561537.316 7  85577981.325 7        45.500
R12  22672304.125 7 121111383.050 7        44.800    22672304.918 7 121111340.056 7        43.200    22672320.961 6  94197714.779 6        41.700    22672321.086 6  94197710.765 6        40.300
R11  21242217.000 8 113511963.462 8        48.800    21242217.410 7 113511921.468 7        47.000    21242229.418 7  88287059.567 7        45.900    21242230.066 7  88287056.564 7        44.900
R10  23411060.305 5 124794159.597 5        35.000    23411060.613 5 124794083.586 5        33.900
R08  23973355.008 6 128376217.082 6        39.200    23973354.305 6 128376174.101 6        37.300    23973375.984 6  99848219.247 6        37.400    23973376.293 6  99848220.246 6        37.000
R02  22962497.563 7 122532281.571 7        43.700    22962497.352 7 122532240.567 7        42.200    22962514.305 6  95302862.401 6        39.800    22962515.301 6  95302859.391 6        39.600
R01  22275274.359 7 119074104.676 7        42.800    22275275.660 6 119074062.681 6        41.500    22275294.492 6  92613165.481 6        37.300    22275294.988 6  92613161.480 6        36.100
G30  24916762.352 5 130938468.123 5        34.300    24916782.090 4 102030055.041 4        25.200    24916782.203 5 102030053.028 5        35.500    24916788.570 7  97778819.223 7        42.100
E30  28361640.086 6 149041432.062 6        36.700    28361671.945 6 111297279.285 6        38.100    28361665.598 6 114200666.276 6        38.300
E29  24359323.586 8 128009104.447 8        49.600    24359339.289 8  95591193.098 8        49.400    24359335.227 8  98084877.126 8        48.900    24359337.039 9  96838032.220 9        56.700
E27  25179166.758 7 132317411.963 7        46.100    25179183.918 7  98808438.048 7        47.200    25179179.625 7 101386049.227 7        46.700    25179181.629 9 100097241.245 9        54.300
E21  25531545.805 7 134169180.061 7        45.600    25531563.008 7 100191245.359 7        46.400    25531558.742 7 102804929.887 7        46.600    25531560.781 8 101498087.229 8        53.500
E19  25467108.469 6 133830558.909 6        39.200    25467125.746 6  99938391.380 6        40.400    25467121.844 6 102545469.426 6        40.400    25467123.707 7 101241922.012 7        46.600
E15  26004576.805 6 136654970.525 6        41.900    26004600.211 7 102047598.050 7        45.000    26004595.273 7 104709704.732 7        45.500    26004597.270 8 103378657.584 8        51.800
E13  25750454.086 7 135319542.536 7        43.300    25750477.805 7 101050313.351 7        45.100    25750472.969 7 103686385.314 7        45.500    25750475.227 8 102368373.449 8        51.900
E07  26400431.453 7 138735194.971 7        42.300    26400457.730 7 103601041.708 7        43.600    26400452.762 7 106303664.684 7        44.200
G27  22644848.898 6 118999481.299 6        39.400    22644866.688 6  92726937.964 6        36.800    22644866.449 6  92726858.957 6        41.300    22644871.621 7  88863235.344 7        47.200
G16  24450378.297 5                        32.200
G14  25426921.297 5 133619334.123 5        31.900                                                    25426941.438 5 104119070.402 5        35.800    25426951.531 6  99780808.400 6        38.900
G09  21532329.453 7 113153151.607 7        46.000    21532345.043 7  88171338.275 7        45.800    21532345.277 7  88171282.268 7        46.000    21532350.480 8  84497476.535 8        50.900
G08  20352264.641 8 106951868.717 8        49.100    20352278.043 8  83339165.220 8        49.300    20352278.516 7  83339113.217 7        47.300    20352281.844 8  79866645.870 8        53.000
G07  22250283.344 7 116926026.413 7        46.000    22250295.406 6  91111234.589 6        41.300    22250295.387 7  91111183.589 7        43.500
G04  21937941.172 7 115284651.758 7        43.000    21937957.871 5  89832250.960 5        32.300    21937957.965 7  89832191.959 7        45.000    21937966.688 8  86089179.457 8        48.500
G02  21805033.367 7 114586223.182 7        44.800    21805046.750 5  89288011.077 5        34.800
G01  23148396.469 6 121645651.223 6        41.100    23148416.938 4  94788898.698 4        25.300    23148416.703 7  94788807.700 7        43.400    23148426.887 7  90839298.445 7        46.500
C11  23821005.883 6 124042225.599 6        41.000    23821014.449 7  95917272.844 7        44.200
C06  35967781.930 7 187293676.257 7        45.500    35967784.305 7 144827307.655 7        47.200
C05  38609745.477 6 201051077.927 6        36.100    38609754.090 6 155465479.117 6        39.700
C04  39237030.938 5 204317517.286 5        34.800    39237043.492 6 157991313.052 6        38.600
C03  36234195.641 7 188680954.930 7        43.800    36234198.613 7 145900100.892 7        44.900
C02  36799245.750 6 191623327.852 6        40.300    36799248.797 7 148175323.721 7        44.400
C01  38021341.375 6 197987100.783 6        39.400    38021350.316 6 153096217.913 6        40.900
S27  38823102.000 6 204016765.050 6        41.900    38823112.438 7 152350202.158 7        43.500
S37  36837264.047 6 193581109.497 6        41.400
> 2025  2 28  3 28 15.0000000  0 36       0.000361712000
R23  23631436.109 6 126412239.849 6        38.400    23631434.980 6 126412198.853 6        37.000
R22  20408927.484 8 108944240.010 8        51.500    20408928.164 8 108944204.014 8        50.300    20408940.965 7  84734386.588 7        46.400    20408941.477 7  84734383.591 7        46.500
R21  20561608.617 8 110029319.525 8        50.200    20561608.453 8 110029279.530 8        48.600    20561620.992 7  85578334.290 7        45.200    20561621.480 7  85578331.292 7        45.000
R12  22671789.195 7 121108630.904 7        44.500    22671789.383 7 121108587.912 7        43.400    22671805.586 6  94195574.225 6        40.900    22671805.852 6  94195570.211 6        39.800
R11  21241975.977 8 113510676.333 8        48.900    21241976.180 7 113510634.337 7        46.600    21241988.242 7  88286058.467 7        44.900    21241988.922 7  88286055.463 7        44.000
R10  23411122.539 5 124794497.697 5        35.200    23411124.297 5 124794421.706 5        34.400
R08  23973837.453 6 128378805.973 6        38.500    23973837.488 6 128378762.986 6        37.600    23973859.402 6  99850232.826 6        36.800    23973859.625 6  99850233.827 6        36.400
R02  22962262.406 7 122531027.005 7        43.800    22962262.848 7 122530986.006 7        42.600    22962280.090 6  95301886.625 6        40.000    22962280.859 6  95301883.616 6        39.300
R01  22275547.898 7 119075563.134 7        43.100    22275548.375 6 119075521.137 6        41.700    22275567.012 6  92614299.819 6        37.200    22275567.918 6  92614295.818 6        36.500
G30  24915974.375 5 130934327.419 5        34.500    24915994.207 4 102026828.511 4        25.100    24915994.137 5 102026826.509 5        35.700    24916000.266 7  97775727.139 7        42.000
E30  28361706.648 6 149041782.559 6        36.800    28361738.664 6 111297541.005 6        38.400    28361732.309 6 114200934.826 6        38.000
E29  24359374.219 8 128009371.085 8        49.200    24359390.152 8  95591392.206 8        49.400    24359386.105 8  98085081.430 8        49.100    24359387.855 9  96838233.926 9        56.700
E27  25179125.055 7 132317193.122 7        46.100    25179142.160 7  98808274.623 7        47.000    25179137.883 7 101385881.539 7        46.700    25179139.871 9 100097075.688 9        54.300
E21  25531291.680 7 134167844.750 7        45.700    25531308.836 7 100190248.209 7        46.400    25531304.551 7 102803906.727 7        46.000    25531306.605 8 101497077.074 8        53.500
E19  25466740.766 6 133828627.978 6        39.100    25466758.355 6  99936949.452 6        39.700    25466754.480 6 102543989.885 6        40.400    25466756.207 7 101240461.277 7        46.500
E15  26004326.953 6 136653658.286 6        41.800    26004350.492 7 102046618.131 7        45.000    26004345.484 7 104708699.249 7        44.900    26004347.793 8 103377665.043 8        51.800
E13  25749841.070 7 135316321.511 7        43.100    25749864.922 7 101047908.045 7        44.900    25749859.938 7 103683917.260 7        45.300    25749862.191 8 102365936.766 8        52.000
E07  26400794.656 7 138737102.869 7        42.500    26400820.719 7 103602466.425 7        43.100    26400815.688 7 106305126.569 7        43.600
G27  22645300.563 6 119001853.633 6        39.800    22645317.848 6  92728786.527 6        36.700    22645317.668 6  92728707.523 6        40.900    22645322.742 7  88865006.884 7        47.100
G16  24450598.688 5 128488767.823 5        32.200    24450620.262 2 100121183.89012        16.300
G14  25426427.219 5                        31.600
G09  21532422.664 7 113153641.283 7        45.600    21532438.172 7  88171719.834 7        45.700    21532438.316 7  88171663.827 7        45.100    21532443.680 8  84497842.195 8        51.000
G08  20352409.227 8 106952628.485 8        48.800    20352422.434 8  83339757.245 8        49.200    20352422.902 7  83339705.240 7        47.000    20352426.148 8  79867213.226 8        53.000
G07  22249594.984 7 116922407.304 7        45.800    22249606.785 6  91108414.506 6        41.100    22249606.867 7  91108363.504 7        42.800
G04  21938298.875 7 115286531.707 7        43.200    21938315.344 5  89833715.847 5        31.800    21938315.488 7  89833656.842 7        44.300    21938324.164 8  86090583.303 8        48.400
G02  21804426.961 7 114583035.043 7        44.700    21804439.902 5  89285526.823 5        34.200
G01  23147683.117 6 121641898.232 6        40.800    23147702.871 4  94785974.291 4        27.100    23147702.617 7  94785883.299 7        42.600    23147712.789 7  90836495.893 7        46.300
C11  23821236.125 6 124043423.098 6        41.300    23821244.180 7  95918198.820 7        43.300
C06  35967545.148 7 187292443.492 7        45.500    35967547.371 7 144826354.402 7        46.100
C05  38609579.820 5 201050213.705 5        35.700    38609588.121 6 155464810.842 6        39.400
C04  39236859.461 5 204316625.548 5        35.000    39236871.949 6 157990623.505 6        38.600
C03  36234024.461 7 188680062.360 7        43.800    36234027.336 7 145899410.697 7        43.900
C02  36799081.945 6 191622475.579 6        40.300    36799085.020 7 148174664.686 7        44.000
C01  38021172.430 6 197986219.481 6        39.400    38021180.789 6 153095536.435 6        40.700
S27  38822932.625 7 204015879.158 7        42.200    38822943.367 7 152349540.601 7        43.100
S37  36837099.828 6 193580217.828 6        41.900
> 2025  2 28  3 28 16.0000000  0 36       0.000361145000
R23  23630436.695 6 126406903.465 6        38.300    23630436.941 6 126406862.472 6        37.300
R22  20408219.313 8 108940458.734 8        51.800    20408219.930 8 108940422.739 8        50.500    20408232.535 7  84731445.599 7        47.000    20408233.203 7  84731442.600 7        47.100
R21  20561692.625 8 110029770.248 8        50.400    20561692.559 8 110029730.252 8        48.600    20561705.289 7  85578684.848 7        45.400    20561705.813 7  85578681.847 7        45.900
R12  22671273.938 7 121105878.547 7        44.900    22671274.594 7 121105835.549 7        43.500    22671290.691 6  94193433.505 6        41.500    22671290.930 6  94193429.493 6        40.500
R11  21241735.203 8 113509389.237 8        48.900    21241735.375 7 113509347.240 7        46.600    21241747.605 7  88285057.390 7        45.500    21241748.305 7  88285054.386 7        44.800
R10  23411186.836 5 124794835.931 5        34.600    23411188.035 5 124794759.947 5        34.600
R08  23974321.727 6 128381394.570 6        38.900    23974320.797 6 128381351.586 6        37.300    23974342.520 6  99852246.173 6        36.300    23974342.828 6  99852247.177 6        36.900
R02  22962026.898 7 122529773.147 7        43.100    22962027.574 7 122529732.145 7        42.700    22962044.395 6  95300911.397 6        40.300    22962045.379 6  95300908.388 6        39.800
R01  22275821.453 7 119077021.907 7        43.600    22275821.602 6 119076979.905 6        41.700    22275839.707 6  92615434.404 6        37.300    22275840.945 6  92615430.401 6        36.300
G30  24915186.891 5 130930186.591 5        34.300    24915206.168 4 102023601.887 4        26.600    24915206.262 5 102023599.888 5        35.900    24915212.250 7  97772634.955 7        42.200
E30  28361773.297 6 149042132.917 6        36.800    28361805.504 6 111297802.619 6        38.700    28361799.176 6 114201203.266 6        38.200
E29  24359425.000 8 128009638.047 8        49.400    24359441.008 8  95591591.556 8        49.800    24359437.051 8  98085285.980 8        49.400    24359438.793 9  96838435.876 9        56.700
E27  25179083.375 7 132316974.160 7        46.300    25179100.457 7  98808111.108 7        47.300    25179096.254 7 101385713.758 7        46.900    25179098.184 9 100096910.038 9        54.300
E21  25531037.500 7 134166509.371 7        45.500    25531054.750 7 100189251.009 7        46.200    25531050.461 7 102802883.512 7        46.300    25531052.500 8 101496066.867 8        53.500
E19  25466373.398 6 133826697.419 6        38.900    25466391.148 6  99935507.796 6        40.000    25466387.227 6 102542510.621 6        40.700    25466388.930 7 101239000.816 7        46.500
E15  26004077.523 7 136652346.397 7        42.000    26004100.902 7 102045638.472 7        45.100    26004095.820 7 104707694.035 7        44.900    26004098.184 8 103376672.598 8        51.800
E13  25749228.117 7 135313100.549 7        43.300    25749251.891 7 101045502.787 7        45.100    25749246.941 7 103681449.256 7        45.500    25749249.203 8 102363500.131 8        51.900
E07  26401157.656 7 138739010.754 7        42.300    26401183.809 7 103603891.131 7        43.400    26401178.828 7 106306588.442 7        44.200
G27  22645751.336 6 119004226.083 6        39.600    22645769.160 6  92730635.182 6        36.600    22645769.070 6  92730556.180 6        41.100    22645774.125 7  88866778.511 7        47.100
G16  24450818.961 5 128489921.655 5        31.900    24450839.781 2 100122082.960 2        16.300
G14  25425934.883 5 133614148.537 5        31.200                                                    25425954.801 6 104115029.69216        36.200    25425964.859 6  99776936.05116        39.100
G09  21532515.680 7 113154131.412 7        46.000    21532531.578 7  88172101.746 7        45.400    21532531.836 7  88172045.739 7        45.500    21532537.102 8  84498208.193 8        51.300
G08  20352553.781 8 106953388.652 8        48.500    20352567.195 8  83340349.579 8        49.300    20352567.621 7  83340297.576 7        47.300    20352571.066 8  79867780.878 8        53.100
G07  22248906.023 7 116918788.278 7        45.800    22248917.785 6  91105594.488 6        41.500    22248917.770 7  91105543.486 7        43.400
G04  21938656.414 7 115288411.879 7        43.200    21938673.328 5  89835180.908 5        31.500    21938673.195 7  89835121.898 7        45.200    21938682.188 8  86091987.313 8        48.400
G02  21803820.359 7 114579847.210 7        44.700    21803833.574 5  89283042.800 5        34.900
G01  23146968.422 6 121638145.246 6        40.900    23146988.504 4  94783049.892 4        27.000    23146988.566 7  94782958.898 7        42.900    23146998.508 7  90833693.342 7        46.400
C11  23821465.828 6 124044620.943 6        41.400    23821474.219 7  95919125.063 7        44.100
C06  35967308.242 7 187291210.777 7        45.700    35967310.844 7 144825401.182 7        46.400
C05  38609413.586 5 201049349.430 5        35.900    38609422.613 6 155464142.525 6        39.600
C04  39236689.477 5 204315733.762 5        34.800    39236700.832 6 157989933.918 6        38.700
C03  36233853.141 7 188679169.739 7        43.700    36233855.754 7 145898720.461 7        44.400
C02  36798918.148 6 191621623.260 6        40.500    36798921.402 7 148174005.614 7        44.000
C01  38021003.313 6 197985338.115 6        39.400    38021011.570 6 153094854.907 6        41.200
S27  38822764.594 7 204014993.261 7        42.300    38822775.066 7 152348879.037 7        43.400
S37  36836929.469 6 193579326.111 6        41.800
> 2025  2 28  3 28 17.0000000  0 36       0.000360579000
R23  23629439.750 6 126401567.129 6        38.400    23629439.207 6 126401526.130 6        37.500
R22  20407510.977 8 108936678.089 8        51.600    20407511.211 8 108936642.094 8        50.400    20407523.789 7  84728505.100 7        47.500    20407524.402 7  84728502.104 7        47.200
R21  20561776.969 8 110030221.825 8        50.400    20561776.824 8 110030181.833 8        48.600    20561789.672 7  85579036.070 7        45.900    20561790.031 7  85579033.070 7        46.100
R12  22670758.430 7 121103126.021 7        44.300    22670759.293 7 121103083.025 7        43.200    22670775.441 6  94191292.642 6        41.900    22670775.523 6  94191288.635 6        40.500
R11  21241494.000 8 113508102.215 8        49.000    21241494.641 7 113508060.220 7        47.200    21241506.652 7  88284056.370 7        45.600    21241507.504 7  88284053.365 7        45.100
R10  23411249.148 5 124795174.365 5        34.800    23411251.293 5 124795098.365 5        34.300
R08  23974805.438 6 128383982.935 6        38.400    23974804.441 6 128383939.951 6        37.100    23974825.703 5  99854259.350 5        35.500    23974826.238 5  99854260.355 5        35.800
R02  22961792.438 7 122528520.024 7        43.400    22961792.762 7 122528479.021 7        42.500    22961809.680 6  95299936.733 6        39.200    22961810.699 6  95299933.735 6        39.300
R01  22276095.148 7 119078481.069 7        43.700    22276094.160 6 119078439.075 6        41.800    22276112.602 6  92616569.295 6        37.100    22276113.648 6  92616565.291 6        36.300
G30  24914398.977 5 130926045.698 5        33.700    24914418.395 4 102020375.216 4        25.800    24914418.547 5 102020373.213 5        35.900    24914424.383 7  97769542.722 7        42.100
E30  28361840.016 6 149042483.214 6        36.000    28361872.098 6 111298064.193 6        38.900    28361865.770 6 114201471.667 6        37.800
E29  24359475.891 8 128009905.408 8        49.500    24359491.719 8  95591791.203 8        49.500    24359487.781 8  98085490.835 8        49.800    24359489.559 9  96838638.127 9        56.600
E27  25179041.734 7 132316755.148 7        46.300    25179058.949 7  98807947.551 7        47.600    25179054.734 7 101385545.936 7        46.900    25179056.629 9 100096744.352 9        54.200
E21  25530783.406 7 134165173.994 7        45.100    25530800.750 7 100188253.809 7        46.200    25530796.434 7 102801860.298 7        46.400    25530798.453 8 101495056.661 8        53.500
E19  25466006.117 6 133824767.288 6        39.100    25466023.730 6  99934066.461 6        39.900    25466019.730 6 102541031.685 6        40.200    25466021.527 7 101237540.680 7        46.600
E15  26003827.906 7 136651034.938 7        42.400    26003851.414 7 102044659.135 7        45.400    26003846.227 7 104706689.147 7        44.900    26003848.813 8 103375680.392 8        51.900
E13  25748615.195 7 135309879.737 7        42.900    25748638.746 7 101043097.640 7        45.300    25748633.832 7 103678981.367 7        45.600    25748636.148 8 102361063.611 8        52.000
E07  26401520.672 6 138740918.695 6        41.200    26401546.801 7 103605315.878 7        43.200    26401541.906 7 106308050.358 7        43.900
G27  22646202.609 6 119006598.711 6        39.700    22646220.707 6  92732483.978 6        36.500    22646220.625 6  92732404.977 6        41.400    22646225.754 7  88868550.270 7        47.100
G16  24451037.813 5 128491075.362 5        33.200    24451059.434 2 100122981.914 2        15.600
G14  25425441.906 5 133611555.717 5        31.600                                                    25425461.184 5 104113009.311 5        35.900    25425471.363 6  99774999.853 6        38.800
G09  21532609.359 7 113154622.049 7        45.900    21532624.883 7  88172484.051 7        45.500    21532624.922 7  88172428.047 7        45.800    21532630.305 8  84498574.568 8        51.000
G08  20352698.508 8 106954149.285 8        48.800    20352711.848 8  83340942.277 8        49.200    20352712.371 7  83340890.273 7        47.600    20352715.695 8  79868348.879 8        53.100
G07  22248217.336 7 116915169.409 7        45.600    22248229.504 6  91102774.589 6        41.500    22248229.527 7  91102723.587 7        43.700
G04  21939014.438 7 115290292.346 7        43.100    21939031.289 5  89836646.194 5        31.200    21939031.188 7  89836587.185 7        45.200    21939040.105 8  86093391.545 8        48.600
G02  21803213.930 7 114576659.769 7        45.000    21803226.906 5  89280559.085 5        35.300
G01  23146254.570 6 121634392.334 6        40.800    23146274.348 4  94780125.547 4        25.300    23146274.250 7  94780034.553 7        42.900    23146284.332 7  90830890.847 7        46.500
C11  23821696.086 6 124045819.196 6        41.600    23821704.566 7  95920051.620 7        43.900
C06  35967071.773 7 187289978.181 7        45.900    35967074.109 7 144824448.056 7        46.700
C05  38609247.594 6 201048485.159 6        36.200    38609256.273 6 155463474.207 6        39.200
C04  39236517.969 5 204314841.978 5        34.400    39236529.418 6 157989244.329 6        37.900
C03  36233681.625 7 188678277.127 7        43.900    36233684.637 7 145898030.231 7        44.600
C02  36798754.211 6 191620770.960 6        40.400    36798757.719 7 148173346.560 7        44.100
C01  38020834.055 6 197984456.756 6        39.700    38020842.332 6 153094173.378 6        41.200
S27  38822595.719 7 204014107.386 7        42.100    38822606.191 7 152348217.537 7        43.600
S37  36836757.688 6 193578434.387 6        41.900
> 2025  2 28  3 28 18.0000000  0 36       0.000360012000
R23  23628443.102 6 126396230.801 6        38.700    23628442.340 6 126396189.803 6        37.400
R22  20406803.023 8 108932898.053 8        51.800    20406803.637 8 108932862.054 8        50.500    20406816.559 7  84725565.077 7        47.900    20406817.020 7  84725562.079 7        47.200
R21  20561861.586 8 110030674.260 8        50.200    20561861.559 8 110030634.266 8        48.500    20561874.477 7  85579387.962 7        46.400    20561874.766 7  85579384.960 7        46.200
R12  22670243.305 7 121100373.331 7        44.300    22670243.691 7 121100330.336 7        43.800    22670260.105 6  94189151.659 6        41.800    22670260.203 6  94189147.653 6        40.600
R11  21241252.891 8 113506815.243 8        48.900    21241253.684 7 113506773.252 7        47.300    21241265.891 7  88283055.387 7        45.700    21241266.660 7  88283052.382 7        44.900
R10  23411314.523 5 124795512.945 5        35.300    23411314.305 5 124795436.962 5        34.000
R08  23975287.758 6 128386571.076 6        38.100    23975287.695 6 128386528.092 6        37.100    23975309.398 5  99856272.356 5        35.700    23975309.633 6  99856273.361 6        36.000
R02  22961557.234 7 122527267.582 7        43.400    22961557.945 7 122527226.581 7        42.500    22961575.105 6  95298962.604 6        39.700    22961575.867 6  95298959.610 6        39.400
R01  22276367.938 7 119079940.600 7        43.600    22276367.473 7 119079898.609 7        42.000    22276385.902 6  92617704.473 6        37.200    22276386.816 5  92617700.469 5        35.800
G30  24913609.977 5 130921904.738 5        33.700    24913630.238 4 102017148.496 4        25.200    24913630.438 5 102017146.494 5        35.400    24913636.262 6  97766450.445 6        41.900
E30  28361906.859 6 149042833.418 6        36.400    28361938.711 6 111298325.695 6        38.400    28361932.484 6 114201739.994 6        38.100
E29  24359526.789 8 128010173.141 8        49.500    24359542.707 8  95591991.126 8        49.800    24359538.750 8  98085695.973 8        50.100    24359540.539 9  96838840.657 9        56.500
E27  25179000.086 7 132316536.062 7        46.300    25179017.176 7  98807783.943 7        47.400    25179012.996 7 101385378.059 7        47.000    25179014.938 9 100096578.609 9        54.100
E21  25530529.359 7 134163838.603 7        45.300    25530546.656 7 100187256.599 7        45.900    25530542.441 7 102800837.075 7        46.500    25530544.375 8 101494046.444 8        53.300
E19  25465638.922 6 133822837.560 6        39.700    25465656.363 6  99932625.424 6        40.200    25465652.441 6 102539553.058 6        40.000    25465654.262 7 101236080.848 7        46.500
E15  26003578.391 7 136649723.894 7        42.300    26003601.840 7 102043680.107 7        45.100    26003596.777 7 104705684.582 7        44.900    26003598.961 8 103374688.496 8        51.800
E13  25748002.352 7 135306659.034 7        43.300    25748026.203 7 101040692.575 7        45.500    25748021.223 7 103676513.560 7        45.900    25748023.492 8 102358627.174 8        51.800
E07  26401883.648 6 138742826.663 6        41.500    26401910.098 7 103606740.646 7        43.000    26401905.129 7 106309512.295 7        44.000
G27  22646653.930 6 119008971.501 6        39.800    22646672.750 6  92734332.894 6        36.000    22646672.766 7  92734253.895 7        42.100    22646677.902 7  88870322.147 7        47.200
G16  24451257.609 5                        32.200
G14  25424949.211 5 133608962.903 5        32.400                                                    25424968.551 6 104110988.939 6        36.300    25424978.633 6  99773063.661 6        38.600
G09  21532702.766 7 113155113.177 7        45.900    21532718.230 7  88172866.741 7        45.600    21532718.094 7  88172810.740 7        45.900    21532723.598 8  84498941.314 8        51.000
G08  20352843.172 8 106954910.367 8        48.800    20352856.648 8  83341535.324 8        49.100    20352857.043 7  83341483.321 7        47.800    20352860.480 8  79868917.217 8        52.900
G07  22247528.570 7 116911550.670 7        45.300    22247540.484 6  91099954.793 6        41.700    22247540.605 7  91099903.793 7        43.700
G04  21939372.508 7 115292173.083 7        43.200    21939389.387 5  89838111.697 5        31.900    21939389.098 7  89838052.686 7        45.400    21939398.168 8  86094795.979 8        48.300
G02  21802607.164 7 114573472.693 7        44.700    21802620.664 5  89278075.653 5        34.700
G01  23145540.172 6 121630639.472 6        40.600    23145560.004 4  94777201.247 4        25.200    23145559.840 7  94777110.249 7        42.900    23145570.074 7  90828088.389 7        46.600
C11  23821926.500 6 124047017.836 6        41.600    23821934.586 7  95920978.478 7        43.900
C06  35966834.828 7 187288745.678 7        45.800    35966837.398 7 144823495.005 7        47.200
C05  38609081.867 6 201047620.876 6        36.100    38609090.266 6 155462805.883 6        39.100
C04  39236346.734 5 204313950.175 5        34.700    39236358.223 6 157988554.721 6        38.100
C03  36233510.398 7 188677384.503 7        43.900    36233513.422 7 145897339.994 7        45.000
C02  36798591.086 6 191619918.629 6        40.500    36798594.031 7 148172687.476 7        44.300
C01  38020664.820 6 197983575.390 6        39.600    38020673.340 6 153093491.846 6        41.000
S27  38822427.250 7 204013221.493 7        42.600    38822437.887 7 152347556.045 7        43.600
S37  36836587.203 6 193577542.675 6        41.800
> 2025  2 28  3 28 19.0000000  0 36       0.000359446000
R23  23627445.414 6 126390894.464 6        38.300    23627444.684 6 126390853.460 6        37.100
R22  20406094.961 8 108929118.601 8        51.300    20406095.246 8 108929082.607 8        50.200    20406108.043 8  84722625.504 8        48.000    20406108.637 7  84722622.508 7        47.400
R21  20561945.977 8 110031127.546 8        50.200    20561946.078 8 110031087.551 8        48.300    20561959.102 7  85579740.515 7        46.500    20561959.391 7  85579737.514 7        46.600
R12  22669727.750 7 121097620.516 7        44.600    22669728.434 7 121097577.517 7        43.900    22669744.340 7  94187010.582 7        42.100    22669744.902 6  94187006.578 6        41.000
R11  21241012.867 8 113505528.338 8        48.900    21241012.871 7 113505486.344 7        47.300    21241025.137 7  88282054.462 7        45.700    21241025.824 7  88282051.459 7        45.300
R10  23411377.742 5 124795851.690 5        35.200    23411378.648 5 124795775.694 5        34.200
R08  23975770.977 6 128389158.967 6        38.100    23975770.895 6 128389115.986 6        36.900    23975792.711 6  99858285.163 6        36.300    23975792.852 6  99858286.168 6        36.200
R02  22961323.820 7 122526015.812 7        43.500    22961323.574 7 122525974.813 7        42.600    22961340.512 6  95297989.003 6        39.700    22961341.172 6  95297986.009 6        39.700
R01  22276640.594 7 119081400.482 7        43.600    22276640.309 6 119081358.495 6        41.600    22276658.824 6  92618839.928 6        37.600    22276659.957 6  92618835.925 6        36.000
G30  24912821.953 5 130917763.695 5        34.000    24912842.305 4 102013921.726 4        26.400    24912842.531 5 102013919.708 5        35.500    24912848.547 7  97763358.112 7        42.000
E30  28361973.320 6 149043183.532 6        36.700    28362005.273 6 111298587.128 6        38.500    28361998.953 6 114202008.251 6        38.200
E29  24359577.781 8 128010441.239 8        49.800    24359593.773 8  95592191.322 8        49.500    24359589.746 8  98085901.392 8        50.100    24359591.535 9  96839043.467 9        56.600
E27  25178958.320 7 132316316.900 7        46.100    25178975.465 7  98807620.280 7        47.400    25178971.297 7 101385210.128 7        47.200    25178973.199 9 100096412.812 9        54.200
E21  25530275.156 7 134162503.179 7        45.100    25530292.348 7 100186259.364 7        46.300    25530288.090 7 102799813.823 7        47.000    25530290.117 8 101493036.201 8        53.500
E19  25465271.906 6 133820908.264 6        39.500    25465289.203 6  99931184.713 6        40.400    25465285.195 6 102538074.762 6        40.400    25465287.059 7 101234621.346 7        46.400
E15  26003329.000 7 136648413.239 7        42.300    26003352.512 7 102042701.371 7        45.100    26003347.496 7 104704680.311 7        45.100    26003349.613 8 103373696.93718        51.800
E13  25747389.586 7 135303438.450 7        43.700    25747413.176 7 101038287.599 7        45.800    25747408.215 7 103674045.845 7        46.000    25747410.500 8 102356190.830 8        51.900
E07  26402246.703 6 138744734.662 6        41.500    26402272.910 7 103608165.435 7        43.300    26402268.102 7 106310974.256 7        44.200
G27  22647105.820 6 119011344.437 6        39.600    22647123.996 6  92736181.926 6        36.200    22647124.059 7  92736102.925 7        42.300    22647128.828 7  88872094.134 7        47.100
G16  24451476.906 5 128493382.710 5        32.300    24451498.246 2 100124779.81612        13.900
G14  25424456.492 5 133606370.059 5        32.900                                                    25424475.031 6 104108968.539 6        36.000    25424484.691 6  99771127.446 6        38.500
G09  21532796.375 7 113155604.791 7        45.600    21532811.676 7  88173249.810 7        45.600    21532811.547 7  88173193.809 7        45.500    21532817.086 8  84499308.419 8        50.900
G08  20352988.219 8 106955671.893 8        48.800    20353001.727 8  83342128.718 8        49.200    20353002.215 7  83342076.714 7        47.800    20353005.578 8  79869485.884 8        53.000
G07  22246840.398 7 116907932.053 7        45.200    22246852.219 6  91097135.095 6        41.600    22246852.457 7  91097084.094 7        43.700
G04  21939730.313 7 115294054.100 7        43.100    21939747.070 5  89839577.413 5        32.000    21939746.801 7  89839518.406 7        45.500    21939755.934 8  86096200.623 8        48.400
G02  21802000.594 7 114570285.980 7        44.600    21802014.020 5  89275592.497 5        34.100
G01  23144826.211 6 121626886.654 6        40.800    23144845.676 4  94774276.976 4        26.400    23144845.594 7  94774185.981 7        43.100    23144855.910 7  90825285.966 7        46.400
C11  23822157.102 6 124048216.856 6        41.000    23822164.938 7  95921905.629 7        44.100
C06  35966598.250 7 187287513.274 7        45.500    35966600.500 7 144822542.031 7        47.200
C05  38608916.063 5 201046756.573 5        35.900    38608924.195 6 155462137.547 6        39.300
C04  39236175.859 5 204313058.352 5        34.600    39236186.816 6 157987865.102 6        38.400
C03  36233338.734 7 188676491.860 7        43.700    36233341.637 7 145896649.743 7        45.200
C02  36798427.391 6 191619066.287 6        39.900    36798430.125 7 148172028.390 7        44.600
C01  38020495.047 6 197982694.010 6        39.500    38020503.855 6 153092810.304 6        41.000
S27  38822258.609 7 204012335.583 7        42.600    38822269.285 7 152346894.545 7        43.600
S37  36836416.031 6 193576650.941 6        41.700
> 2025  2 28  3 28 20.0000000  0 36       0.000358879000
R23  23626447.531 6 126385558.187 6        38.500    23626447.465 6 126385517.192 6        36.800
R22  20405387.195 8 108925339.822 8        51.200    20405387.465 8 108925303.826 8        50.300    20405400.418 8  84719686.458 8        48.100    20405400.898 7  84719683.461 7        47.300
R21  20562030.828 8 110031581.752 8        50.300    20562030.727 8 110031541.753 8        48.100    20562043.523 7  85580093.785 7        46.800    20562044.180 7  85580090.783 7        46.500
R12  22669213.047 7 121094867.641 7        44.900    22669212.770 7 121094824.645 7        43.900    22669228.641 7  94184869.460 7        42.400    22669229.121 6  94184865.456 6        41.100
R11  21240771.977 8 113504241.579 8        48.800    21240772.410 7 113504199.584 7        47.200    21240784.688 7  88281053.647 7        45.800    21240785.324 7  88281050.645 7        45.100
R10  23411441.313 5 124796190.671 5        34.700    23411441.867 5 124796114.669 5        34.100
R08  23976253.094 6 128391746.685 6        38.800    23976253.797 6 128391703.706 6        37.300    23976275.559 6  99860297.832 6        36.400    23976275.727 6  99860298.837 6        36.500
R02  22961089.273 7 122524764.815 7        43.200    22961089.590 7 122524723.816 7        42.300    22961107.047 6  95297016.007 6        39.300    22961107.359 6  95297013.009 6        40.000
R01  22276913.555 7 119082860.807 7        43.400    22276913.656 6 119082818.824 6        41.400    22276932.207 6  92619975.726 6        37.300    22276933.430 5  92619971.727 5        35.800
G30  24912033.766 5 130913622.651 5        34.300    24912054.258 4 102010694.944 4        25.300    24912054.418 5 102010692.918 5        35.500    24912060.355 7  97760265.777 7        42.000
E30  28362040.188 6 149043533.630 6        36.800    28362071.934 6 111298848.548 6        38.500    28362065.656 6 114202276.491 6        37.700
E29  24359628.992 8 128010709.788 8        49.800    24359644.855 8  95592391.856 8        49.300    24359640.754 8  98086107.159 8        49.700    24359642.586 9  96839246.616 9        56.600
E27  25178916.875 7 132316097.739 7        45.900    25178933.746 7  98807456.617 7        47.300    25178929.496 7 101385042.196 7        47.400    25178931.438 9 100096247.015 9        54.200
E21  25530021.000 7 134161167.817 7        44.900    25530038.539 7 100185262.178 7        46.300    25530034.117 7 102798790.625 7        46.900    25530036.168 8 101492026.010 8        53.500
E19  25464904.828 6 133818979.428 6        39.300    25464922.473 6  99929744.347 6        40.200    25464918.504 6 102536596.820 6        40.900    25464920.273 7 101233162.192 7        46.400
E15  26003079.289 6 136647103.072 6        41.800    26003103.055 7 102041723.000 7        45.400    26003098.016 7 104703676.420 7        45.300    26003100.191 8 103372705.770 8        51.800
E13  25746776.836 7 135300218.062 7        43.300    25746800.465 7 101035882.773 7        45.200    25746795.539 7 103671578.281 7        45.900    25746797.793 8 102353754.635 8        51.900
E07  26402609.852 6 138746642.763 6        41.500    26402636.074 7 103609590.304 7        43.600    26402631.363 7 106312436.296 7        44.300
G27  22647557.438 6 119013717.607 6        39.600    22647575.785 6  92738031.142 6        36.300    22647576.113 7  92737952.139 7        42.500    22647580.719 7  88873866.297 7        47.200
G16  24451697.422 5 128494536.295 5        32.200    24451718.129 2 100125678.668 2        13.900
G14  25423962.625 5 133603777.296 5        32.000                                                    25423981.570 6 104106948.202 6        36.200    25423991.117 6  99769191.291 6        38.700
G09  21532889.695 7 113156096.962 7        45.800    21532905.605 7  88173633.317 7        45.700    21532905.402 7  88173577.315 7        45.800    21532911.070 8  84499675.943 8        50.900
G08  20353133.148 8 106956433.933 8        48.800    20353146.641 8  83342722.514 8        49.100    20353147.109 7  83342670.509 7        47.600    20353150.441 8  79870054.938 8        53.100
G07  22246151.492 7 116904313.640 7        44.800    22246163.480 6  91094315.555 6        41.100    22246163.465 7  91094264.555 7        43.200
G04  21940088.234 7 115295935.457 7        43.300    21940104.840 5  89841043.390 5        32.400    21940104.629 7  89840984.389 7        45.500    21940113.652 8  86097605.520 8        48.600
G02  21801394.406 7 114567099.704 7        44.500    21801407.691 5  89273109.690 5        34.600
G01  23144111.883 6 121623133.956 6        40.600    23144131.492 4  94771352.799 4        26.100    23144131.668 7  94771261.809 7        43.200    23144141.793 7  90822483.633 7        46.500
C11  23822386.883 6 124049416.346 6        40.900    23822395.117 7  95922833.147 7        44.500
C06  35966361.688 7 187286281.045 7        45.400    35966364.012 7 144821589.193 7        47.000
C05  38608749.750 6 201045892.348 6        36.000    38608758.230 6 155461469.272 6        39.700
C04  39236003.750 5 204312166.591 5        34.600    39236015.750 6 157987175.532 6        38.200
C03  36233167.523 7 188675599.287 7        43.600    36233170.188 7 145895959.546 7        45.300
C02  36798263.781 6 191618213.997 6        40.000    36798266.496 7 148171369.346 7        44.600
C01  38020326.258 6 197981812.691 6        39.000    38020334.523 6 153092128.808 6        41.100
S27  38822089.859 7 204011449.707 7        42.400    38822100.586 7 152346233.054 7        43.600
S37  36836248.172 6 193575759.274 6        41.600
> 2025  2 28  3 28 21.0000000  0 36       0.000358313000
R23  23625448.969 6 126380221.854 6        38.900    23625449.324 6 126380180.868 6        36.700
R22  20404679.484 8 108921561.606 8        51.400    20404679.539 8 108921525.608 8        50.300    20404692.621 8  84716747.846 8        48.400    20404692.969 7  84716744.851 7        47.000
R21  20562115.984 8 110032036.728 8        50.300    20562115.789 8 110031996.727 8        48.300    20562128.590 7  85580447.651 7        47.000    20562129.105 7  85580444.649 7        46.400
R12  22668697.211 7 121092114.544 7        45.400    22668697.965 7 121092071.545 7        43.900    22668713.961 7  94182728.162 7        42.200    22668714.336 6  94182724.162 6        40.900
R11  21240530.813 8 113502954.802 8        48.600    21240531.152 7 113502912.807 7        47.000    21240543.395 7  88280052.817 7        46.100    21240543.984 7  88280049.817 7        45.300
R10  23411505.203 5 124796529.768 5        35.000    23411505.461 5 124796453.770 5        34.400
R08  23976737.867 6 128394334.145 6        38.800    23976737.809 6 128394291.168 6        36.900    23976759.043 6  99862310.299 6        36.100    23976759.301 6  99862311.303 6        36.200
R02  22960853.984 7 122523514.508 7        43.700    22960854.938 7 122523473.511 7        42.100    22960872.203 6  95296043.548 6        39.300    22960872.652 6  95296040.545 6        39.900
R01  22277186.914 7 119084321.453 7        43.200    22277186.402 6 119084279.469 6        41.800    22277205.293 6  92621111.773 6        36.900    22277206.398 5  92621107.773 5        35.900
G30  24911246.367 5 130909481.492 5        33.900    24911266.012 4 102007468.064 4        25.600    24911266.148 5 102007466.043 5        35.700    24911272.141 7  97757173.357 7        42.100
E30  28362107.156 6 149043883.594 6        37.000    28362138.461 6 111299109.865 6        38.700    28362132.305 6 114202544.627 6        38.000
E29  24359680.109 8 128010978.659 8        49.800    24359696.055 8  95592592.630 8        49.400    24359692.000 8  98086313.172 8        49.700    24359693.816 9  96839450.009 9        56.600
E27  25178875.023 7 132315878.448 7        46.000    25178892.113 7  98807292.856 7        47.800    25178887.844 7 101384874.163 7        47.100    25178889.734 9 100096081.118 9        54.100
E21  25529766.883 7 134159832.382 7        44.900    25529784.414 7 100184264.936 7        46.200    25529780.078 7 102797767.367 7        46.800    25529782.148 8 101491015.761 8        53.400
E19  25464537.977 6 133817050.940 6        39.300    25464555.383 6  99928304.241 6        40.400    25464551.430 6 102535119.145 6        40.500    25464553.250 7 101231703.301 7        46.500
E15  26002830.266 7 136645793.252 7        42.000    26002853.770 7 102040744.887 7        45.100    26002848.852 7 104702672.788 7        45.600    26002850.898 8 103371714.903 8        51.800
E13  25746163.977 7 135296997.730 7        43.200    25746187.539 7 101033477.985 7        45.500    25746182.613 7 103669110.759 7        45.600    25746184.887 8 102351318.481 8        51.900
E07  26402973.063 6 138748550.852 6        41.400    26402999.211 7 103611015.161 7        43.600    26402994.582 7 106313898.324 7        44.200
G27  22648008.961 6 119016090.891 6        40.000    22648027.152 6  92739880.445 6        36.000    22648027.285 7  92739801.441 7        42.200    22648032.031 7  88875638.543 7        47.300
G16  24451916.531 5 128495689.779 5        31.900    24451937.570 2 100126577.487 2        14.800
G14  25423469.000 5 133601184.480 5        32.800                                                    25423488.090 6 104104927.821 6        36.200    25423497.730 6  99767255.091 6        38.300
G09  21532983.664 7 113156589.576 7        45.800    21532999.496 7  88174017.165 7        45.600    21532999.250 7  88173961.162 7        45.600    21533004.957 8  84500043.795 8        51.000
G08  20353278.422 8 106957196.373 8        49.000    20353291.828 8  83343316.618 8        49.300    20353292.246 7  83343264.614 7        47.300    20353295.629 8  79870624.290 8        53.100
G07  22245463.305 7 116900695.312 7        45.100    22245475.090 6  91091496.078 6        41.400    22245474.809 7  91091445.079 7        43.300
G04  21940446.609 7 115297817.034 7        43.600    21940463.113 5  89842509.538 5        32.300    21940462.941 7  89842450.543 7        45.500    21940471.953 8  86099010.581 8        48.500
G02  21800788.070 7 114563913.743 7        44.800    21800801.398 5  89270627.132 5        35.000
G01  23143397.594 6 121619381.261 6        40.900    23143417.406 4  94768428.626 4        27.800    23143417.313 7  94768337.639 7        43.400    23143427.664 7  90819681.305 7        46.500
C11  23822617.313 6 124050616.174 6        41.700    23822625.867 7  95923760.924 7        44.500
C06  35966125.219 7 187285048.862 7        46.300    35966127.512 7 144820636.390 7        46.900
C05  38608583.805 5 201045028.065 5        35.800    38608592.277 6 155460800.951 6        39.900
C04  39235832.164 5 204311274.769 5        35.100    39235844.594 6 157986485.914 6        38.100
C03  36232996.078 7 188674706.642 7        44.100    36232998.906 7 145895269.294 7        45.400
C02  36798099.953 6 191617361.650 6        40.400    36798102.867 7 148170710.254 7        45.000
C01  38020156.922 6 197980931.307 6        39.800    38020165.453 6 153091447.264 6        41.300
S27  38821921.219 7 204010563.823 7        42.600    38821931.906 7 152345571.575 7        43.900
S37  36836084.172 6 193574867.546 6        41.900
> 2025  2 28  3 28 22.0000000  0 36       0.000357746000
R23  23624452.102 6 126374885.613 6        38.700    23624451.977 6 126374844.623 6        36.700
R22  20403971.797 8 108917784.073 8        51.600    20403971.730 8 108917748.078 8        50.200    20403984.746 8  84713809.767 8        48.700    20403985.094 7  84713806.772 7        47.800
R21  20562201.273 8 110032492.638 8        50.100    20562200.625 8 110032452.638 8        48.500    20562213.344 7  85580802.244 7        47.100    20562213.980 7  85580799.241 7        46.500
R12  22668182.750 7 121089361.357 7        45.400    22668182.359 7 121089318.359 7        43.800    22668198.332 7  94180586.798 7        42.100    22668198.594 6  94180582.795 6        41.100
R11  21240290.508 8 113501668.181 8        48.600    21240290.738 7 113501626.185 7        46.800    21240302.926 7  88279052.111 7        46.300    21240303.461 7  88279049.109 7        45.300
R10  23411569.094 5 124796869.104 5        35.500    23411568.965 5 124796793.111 5        34.800
R08  23977220.828 6 128396921.475 6        38.800    23977220.254 6 128396878.490 6        37.500    23977241.637 6  99864322.666 6        36.500    23977242.180 6  99864323.663 6        36.400
R02  22960620.328 7 122522265.046 7        43.700    22960620.824 7 122522224.046 7        42.200    22960637.863 6  95295071.747 6        39.900    22960638.539 6  95295068.740 6        39.700
R01  22277460.289 7 119085782.565 7        43.400    22277459.520 6 119085740.578 6        41.900    22277477.750 6  92622248.182 6        37.000    22277479.234 5  92622244.181 5        35.800
G30  24910459.313 5 130905340.341 5        34.300    24910478.219 4 102004241.181 4        26.000    24910478.469 5 102004239.172 5        35.500    24910484.457 7  97754080.936 7        42.000
E30  28362173.586 6 149044233.541 6        37.500    28362205.293 6 111299371.173 6        38.500    28362199.016 6 114202812.754 6        38.300
E29  24359731.297 8 128011247.987 8        49.700    24359747.348 8  95592793.747 8        49.700    24359743.250 8  98086519.537 8        50.200    24359745.027 9  96839653.750 9        56.700
E27  25178833.391 7 132315659.177 7        45.900    25178850.379 7  98807129.109 7        47.700    25178846.199 7 101384706.146 7        47.500    25178848.035 9 100095915.237 9        54.200
E21  25529512.813 7 134158497.020 7        45.100    25529530.094 7 100183267.748 7        46.600    25529525.824 7 102796744.169 7        47.300    25529527.816 8 101490005.566 8        53.500
E19  25464171.070 6 133815122.961 6        39.100    25464188.652 6  99926864.514 6        40.700    25464184.488 6 102533641.864 6        40.600    25464186.391 7 101230244.797 7        46.500
E15  26002580.766 7 136644483.927 7        42.400    26002604.793 7 102039767.143 7        44.900    26002599.660 7 104701669.539 7        45.500    26002601.848 8 103370724.425 8        51.800
E13  25745551.117 7 135293777.621 7        43.700    25745574.910 7 101031073.362 7        45.600    25745569.895 7 103666643.409 7        46.000    25745572.203 8 102348882.496 8        51.900
E07  26403336.055 6 138750459.052 6        41.500    26403362.262 7 103612440.100 7        43.600    26403357.609 7 106315360.438 7        44.400
G27  22648460.836 6 119018464.408 6        40.300    22648479.008 6  92741729.929 6        36.300    22648479.063 7  92741650.923 7        42.500    22648483.773 7  88877410.965 7        47.300
G16  24452137.398 5                        31.600
G14  25422975.383 5 133598591.727 5        32.000                                                    25422994.906 6 104102907.493 6        36.200    25423004.504 6  99765318.939 6        38.200
G09  21533077.195 7 113157082.764 7        45.600    21533093.223 7  88174401.460 7        45.700    21533093.250 7  88174345.456 7        45.800    21533098.703 8  84500412.078 8        51.100
G08  20353423.656 8 106957959.348 8        48.800    20353437.074 8  83343911.144 8        49.400    20353437.598 7  83343859.138 7        47.900    20353440.965 8  79871194.041 8        53.100
G07  22244774.781 7 116897077.201 7        44.700    22244786.313 6  91088676.770 6        41.900    22244786.051 7  91088625.770 7        43.900
G04  21940805.016 7 115299698.970 7        43.700    21940821.293 5  89843975.973 5        32.600    21940821.082 7  89843916.975 7        46.000    21940830.207 8  86100415.910 8        48.500
G02  21800182.391 7 114560728.241 7        44.900    21800195.402 5  89268144.929 5        34.700
G01  23142683.930 6 121615628.709 6        40.700    23142703.461 4  94765504.569 4        25.800    23142703.238 7  94765413.579 7        43.500    23142713.652 7  90816879.082 7        46.800
C11  23822848.023 6 124051816.458 6        40.900    23822856.121 7  95924689.052 7        44.500
C06  35965888.406 7 187283816.853 7        45.700    35965891.000 7 144819683.721 7        47.200
C05  38608417.531 5 201044163.850 5        35.700    38608426.348 6 155460132.684 6        39.900
C04  39235660.695 5 204310383.017 5        34.200    39235673.465 6 157985796.350 6        38.400
C03  36232824.602 7 188673814.074 7        43.700    36232827.559 7 145894579.102 7        46.000
C02  36797936.234 6 191616509.378 6        40.200    36797939.316 7 148170051.220 7        45.100
C01  38019987.531 6 197980050.003 6        39.400    38019995.996 6 153090765.783 6        41.200
S27  38821753.188 7 204009678.020 7        42.100    38821763.508 7 152344910.168 7        43.900
S37  36835910.484 7 193573975.887 7        42.100
> 2025  2 28  3 28 23.0000000  0 36       0.000357178000
R23  23623454.344 6 126369549.344 6        38.600    23623454.891 6 126369508.353 6        37.100
R22  20403264.133 8 108914007.124 8        51.500    20403264.539 8 108913971.128 8        50.300    20403277.449 8  84710872.140 8        48.800    20403277.824 7  84710869.146 7        47.700
R21  20562287.055 8 110032949.389 8        50.100    20562286.652 8 110032909.391 8        48.600    20562299.773 7  85581157.491 7        47.600    20562300.102 7  85581154.488 7        46.800
R12  22667667.477 7 121086607.983 7        44.600    22667666.750 7 121086564.990 7        43.500    22667683.195 6  94178445.286 6        41.800    22667683.152 6  94178441.284 6        40.700
R11  21240049.359 7 113500381.605 7        47.900    21240050.043 7 113500339.611 7        47.200    21240062.191 7  88278051.440 7        46.600    21240062.883 7  88278048.436 7        45.600
R10  23411632.695 5 124797208.612 5        35.300    23411632.465 5 124797132.624 5        34.000
R08  23977703.445 6 128399508.536 6        38.600    23977703.363 6 128399465.557 6        37.900    23977724.910 6  99866334.827 6        37.100    23977725.383 6  99866335.825 6        36.900
R02  22960385.953 7 122521016.321 7        43.800    22960386.656 7 122520975.327 7        42.400    22960403.422 6  95294100.518 6        40.300    22960404.328 6  95294097.512 6        40.000
R01  22277733.695 7 119087244.025 7        43.700    22277733.297 6 119087202.031 6        41.600    22277751.512 6  92623384.859 6        37.300    22277752.984 6  92623380.858 6        36.000
G30  24909670.180 5 130901199.102 5        34.000    24909690.320 4 102001014.229 4        24.300    24909690.746 5 102001012.232 5        35.600    24909696.527 7  97750988.448 7        42.100
E30  28362240.430 6 149044583.389 6        37.800    28362271.855 6 111299632.407 6        39.100    28362265.680 6 114203080.807 6        38.900
E29  24359782.594 8 128011517.669 8        49.800    24359798.563 8  95592995.128 8        49.800    24359794.508 8  98086726.169 8        50.000    24359796.344 9  96839857.757 9        56.700
E27  25178791.578 7 132315439.814 7        46.000    25178808.730 7  98806965.294 7        47.800    25178804.488 7 101384538.058 7        47.800    25178806.371 9 100095749.285 9        54.400
E21  25529258.695 7 134157161.620 7        45.500    25529276.039 7 100182270.533 7        46.800    25529271.691 7 102795720.939 7        47.400    25529273.695 8 101488995.345 8        53.500
E19  25463804.281 6 133813195.378 6        38.700    25463821.695 6  99925425.085 6        40.300    25463817.617 6 102532164.885 6        40.900    25463819.500 7 101228786.591 7        46.600
E15  26002331.820 7 136643174.990 7        42.000    26002355.664 7 102038789.690 7        45.400    26002350.430 7 104700666.588 7        45.300    26002352.715 8 103369734.243 8        52.000
E13  25744938.391 7 135290557.601 7        43.500    25744962.160 7 101028668.808 7        45.500    25744957.016 7 103664176.126 7        46.000    25744959.324 8 102346446.575 8        52.100
E07  26403699.172 6 138752367.272 6        41.300    26403725.293 7 103613865.057 7        43.800    26403720.676 7 106316822.568 7        44.400
G27  22648912.711 6 119020838.066 6        39.900    22648930.875 6  92743579.526 6        36.200    22648930.918 7  92743500.520 7        42.600    22648935.785 7  88879183.493 7        47.200
G16  24452357.258 5                        31.300
G14  25422481.766 5 133595998.941 5        32.200                                                    25422501.109 6 104100887.138 6        36.500    25422511.031 6  99763382.764 6        38.200
G09  21533171.477 7 113157576.426 7        45.400    21533187.324 7  88174786.126 7        45.800    21533187.219 7  88174730.121 7        45.700    21533192.762 8  84500780.714 8        51.100
G08  20353568.969 8 106958722.746 8        49.000    20353582.160 8  83344505.996 8        49.400    20353582.664 8  83344453.992 8        48.400    20353586.047 8  79871764.107 8        53.100
G07  22244086.125 7 116893459.204 7        44.800    22244097.949 6  91085857.552 6        41.600    22244098.191 7  91085806.553 7        44.200
G04  21941163.469 7 115301581.159 7        43.800    21941179.660 5  89845442.611 5        32.400    21941179.586 7  89845383.606 7        46.100    21941188.527 8  86101821.431 8        48.600
G02  21799575.859 7 114557543.087 7        44.800    21799589.316 5  89265662.997 5        34.900
G01  23141970.102 6 121611876.186 6        41.200    23141989.379 4  94762580.537 4        26.700    23141989.125 7  94762489.542 7        43.400    23141999.574 7  90814076.881 7        46.700
C11  23823078.641 6 124053017.130 6        40.800    23823086.742 7  95925617.486 7        44.400
C06  35965651.836 7 187282584.917 7        45.700    35965654.281 7 144818731.109 7        47.200
C05  38608251.539 5 201043299.609 5        35.700    38608260.461 6 155459464.394 6        40.000
C04  39235489.953 5 204309491.232 5        34.600    39235502.105 6 157985106.760 6        38.700
C03  36232653.148 7 188672921.476 7        43.900    36232656.117 7 145893888.885 7        45.900
C02  36797772.789 6 191615657.097 6        40.300    36797775.789 7 148169392.181 7        45.300
C01  38019818.203 6 197979168.662 6        39.400    38019827.203 6 153090084.275 6        41.400
S27  38821584.422 7 204008792.158 7        42.300    38821594.988 7 152344248.730 7        44.100
S37  36835744.344 6 193573084.211 6        41.900
> 2025  2 28  3 28 24.0000000  0 36       0.000356611000
R23  23622457.578 6 126364213.147 6        38.700    23622457.023 6 126364172.155 6        36.600
R22  20402556.367 8 108910230.841 8        51.400    20402557.012 8 108910194.849 8        50.300    20402569.855 8  84707935.035 8        48.700    20402570.207 7  84707932.042 7        47.700
R21  20562371.742 8 110033407.040 8        50.200    20562371.879 8 110033367.044 8        48.500    20562385.105 7  85581513.441 7        47.500    20562385.270 7  85581510.438 7        46.700
R12  22667151.914 7 121083854.547 7        44.500    22667151.691 7 121083811.547 7        43.600    22667168.039 7  94176303.730 7        42.000    22667167.891 6  94176299.725 6        41.000
R11  21239808.242 7 113499095.150 7        47.800    21239809.219 7 113499053.152 7        47.100    21239821.535 7  88277050.861 7        46.300    21239822.059 7  88277047.855 7        45.600
R10  23411697.727 5 124797548.365 5        35.500    23411696.594 5 124797472.364 5        34.600
R08  23978186.484 6 128402095.398 6        38.100    23978186.410 6 128402052.420 6        37.100    23978208.008 6  99868346.832 6        36.700    23978208.523 6  99868347.830 6        36.700
R02  22960152.273 7 122519768.382 7        43.400    22960152.660 7 122519727.392 7        42.400    22960169.598 6  95293129.897 6        40.200    22960170.621 6  95293126.895 6        40.000
R01  22278006.422 7 119088705.905 7        43.700    22278006.699 6 119088663.914 6        41.400    22278024.781 6  92624521.858 6        37.400    22278026.250 6  92624517.859 6        36.000
G30  24908882.805 5 130897057.828 5        33.900    24908902.184 4 101997787.255 4        25.300    24908902.609 5 101997785.262 5        35.000    24908908.430 7  97747895.933 7        42.200
E30  28362306.719 6 149044933.219 6        37.300    28362338.422 6 111299893.628 6        38.900    28362332.152 6 114203348.848 6        38.600
E29  24359834.070 8 128011787.791 8        49.200    24359849.902 8  95593196.836 8        49.700    24359845.934 8  98086933.142 8        50.000    24359847.699 9  96840062.097 9        56.600
E27  25178749.742 7 132315220.439 7        46.000    25178766.902 7  98806801.470 7        47.600    25178762.730 7 101384369.960 7        47.700    25178764.559 9 100095583.324 9        54.300
E21  25529004.336 7 134155826.255 7        44.800    25529021.941 7 100181273.344 7        47.200    25529017.602 7 102794697.735 7        47.400    25529019.656 8 101487985.148 8        53.500
E19  25463437.813 6 133811268.239 6        39.100    25463455.047 6  99923985.986 6        40.200    25463450.992 6 102530688.244 6        40.600    25463452.781 7 101227328.721 7        46.500
E15  26002082.719 7 136641866.522 7        42.200    26002106.664 7 102037812.589 7        45.500    26002101.691 7 104699663.998 7        45.200    26002103.906 8 103368744.409 8        51.800
E13  25744325.633 7 135287337.770 7        43.600    25744349.594 7 101026264.392 7        45.600    25744344.453 7 103661708.986 7        45.900    25744346.789 8 102344010.798 8        51.900
E07  26404062.391 6 138754275.586 6        41.400    26404088.559 7 103615290.080 7        43.800    26404083.996 7 106318284.772 7        44.300
G27  22649364.664 6 119023211.952 6        39.700    22649382.719 6  92745429.298 6        36.800    22649382.969 7  92745350.294 7        42.300    22649387.543 7  88880956.190 7        47.200
G16  24452576.063 5                        31.600
G14  25421988.773 5 133593406.219 5        32.600                                                    25422007.230 6 104098866.829 6        36.500    25422017.063 6  99761446.636 6        38.000
G09  21533265.578 7 113158070.636 7        45.400    21533281.082 7  88175171.217 7        45.500    21533281.043 7  88175115.212 7        45.800    21533286.531 8  84501149.760 8        51.100
G08  20353714.305 8 106959486.652 8        48.600    20353727.773 8  83345101.243 8        49.100    20353728.559 8  83345049.240 8        48.600    20353731.672 8  79872334.553 8        53.200
G07  22243397.648 7 116889841.404 7        44.900    22243409.289 6  91083038.487 6        41.400    22243409.566 7  91082987.484 7        43.900
G04  21941521.445 7 115303463.684 7        43.500    21941537.645 5  89846909.509 5        31.600    21941537.820 7  89846850.498 7        45.800    21941546.746 8  86103227.204 8        48.500
G02  21798969.727 7 114554358.366 7        44.500    21798983.285 5  89263181.396 5        34.400
G01  23141255.406 6 121608123.778 6        41.100    23141274.934 4  94759656.588 4        26.200    23141274.484 7  94759565.589 7        43.200    23141285.355 7  90811274.762 7        46.500
C11  23823309.094 6 124054218.252 6        40.800    23823317.246 7  95926546.265 7        44.100
C06  35965415.438 7 187281353.150 7        45.800    35965417.738 7 144817778.624 7        47.000
C05  38608085.766 5 201042435.418 5        35.800    38608094.688 6 155458796.140 6        40.400
C04  39235318.766 5 204308599.497 5        34.500    39235330.684 6 157984417.210 6        38.700
C03  36232481.711 7 188672028.930 7        43.600    36232484.598 7 145893198.709 7        46.000
C02  36797608.484 6 191614804.829 6        40.100    36797611.820 7 148168733.150 7        45.200
C01  38019649.313 6 197978287.379 6        39.400    38019657.816 6 153089402.808 6        41.200
S27  38821415.969 6 204007906.303 6        41.900    38821426.531 7 152343587.306 7        44.400
S37  36835566.797 6 193572192.581 6        41.700
> 2025  2 28  3 28 25.0000000  0 36       0.000356045000
R23  23621460.281 6 126358877.022 6        38.100    23621459.840 6 126358836.033 6        36.800
R22  20401849.344 8 108906455.237 8        51.300    20401850.121 8 108906419.242 8        50.500    20401863.117 8  84704998.456 8        48.600    20401863.266 7  84704995.464 7        47.500
R21  20562458.016 8 110033865.604 8        50.400    20562457.684 8 110033825.608 8        48.700    20562470.508 7  85581870.099 7        47.500    20562471.137 7  85581867.096 7        46.700
R12  22666636.609 7 121081101.038 7        44.500    22666636.578 7 121081058.039 7        43.600    22666652.652 7  94174162.114 7        42.000    22666652.805 6  94174158.109 6        41.200
R11  21239567.195 8 113497808.824 8        48.000    21239568.477 7 113497766.830 7        47.100    21239580.590 7  88276050.383 7        46.500    21239581.215 7  88276047.377 7        45.400
R10  23411762.188 5 124797888.349 5        35.700    23411760.512 5 124797812.358 5        34.800
R08  23978669.672 6 128404682.087 6        38.100    23978669.117 6 128404639.109 6        36.800    23978690.965 6  99870358.700 6        36.600    23978691.605 6  99870359.701 6        36.600
R02  22959918.523 7 122518521.211 7        43.200    22959919.082 7 122518480.216 7        42.300    22959936.078 6  95292159.874 6        40.500    22959937.148 6  95292156.875 6        39.800
R01  22278280.063 7 119090168.227 7        43.500    22278280.324 6 119090126.231 6        41.900    22278298.594 6  92625659.204 6        37.900    22278299.891 6  92625655.206 6        36.200
G30  24908094.617 5 130892916.581 5        34.200    24908114.027 4 101994560.309 4        24.600    24908114.160 5 101994558.320 5        35.400    24908120.461 7  97744803.442 7        42.200
E30  28362373.531 6 149045283.025 6        37.100    28362405.137 6 111300154.838 6        38.600    28362398.789 6 114203616.870 6        38.700
E29  24359885.680 8 128012058.355 8        49.700    24359901.633 8  95593398.876 8        49.700    24359897.496 8  98087140.452 8        49.900    24359899.281 9  96840266.772 9        56.700
E27  25178708.063 7 132315001.062 7        46.000    25178725.133 7  98806637.646 7        47.400    25178720.980 8 101384201.862 8        48.000    25178722.844 9 100095417.362 9        54.300
E21  25528750.289 7 134154490.954 7        45.400    25528767.883 7 100180276.202 7        47.400    25528763.605 7 102793674.581 7        47.000    25528765.602 8 101486975.000 8        53.500
E19  25463070.906 6 133809341.599 6        39.300    25463088.105 6  99922547.255 6        40.200    25463084.066 6 102529211.983 6        40.800    25463086.035 7 101225871.230 7        46.600
E15  26001833.891 7 136640558.538 7        42.200    26001857.555 7 102036835.848 7        45.700    26001852.621 7 104698661.775 7        44.800    26001854.867 8 103367754.930 8        51.900
E13  25743712.969 7 135284118.120 7        43.400    25743736.664 7 101023860.114 7        45.400    25743731.582 7 103659241.985 7        46.100    25743733.902 8 102341575.158 8        51.900
E07  26404425.516 6 138756183.995 6        41.700    26404451.680 7 103616715.178 7        43.900    26404447.102 7 106319747.046 7        44.500
G27  22649816.469 6 119025586.061 6        39.700    22649834.000 6  92747279.245 6        36.400    22649834.465 7  92747200.243 7        42.300    22649838.957 7  88882729.056 7        47.200
G16  24452796.836 5 128500303.232 5        31.900    24452814.996 2 100130172.34912        16.300
G14  25421495.133 5 133590813.565 5        32.900                                                    25421514.059 5 104096846.575 5        35.900    25421523.992 6  99759510.563 6        37.800
G09  21533359.742 7 113158565.413 7        45.500    21533375.375 7  88175556.752 7        45.500    21533375.367 7  88175500.749 7        45.600    21533380.805 8  84501519.229 8        51.100
G08  20353859.977 8 106960251.084 8        48.800    20353873.094 8  83345696.904 8        49.300    20353873.703 8  83345644.898 8        48.600    20353876.910 8  79872905.392 8        53.000
G07  22242709.125 7 116886223.809 7        44.700    22242721.324 6  91080219.584 6        41.200    22242721.266 7  91080168.584 7        44.100
G04  21941879.406 7 115305346.561 7        43.200    21941896.059 5  89848376.685 5        31.900    21941896.086 7  89848317.667 7        45.900    21941905.012 8  86104633.238 8        48.400
G02  21798363.367 7 114551174.074 7        44.600    21798376.973 5  89260700.134 5        34.900
G01  23140542.070 6 121604371.493 6        41.300    23140560.879 4  94756732.733 4        26.800    23140560.516 7  94756641.731 7        43.500    23140571.398 7  90808472.736 7        46.500
C11  23823540.102 6 124055419.824 6        41.100    23823548.047 7  95927475.390 7        44.500
C06  35965178.875 7 187280121.552 7        45.800    35965181.094 7 144816826.275 7        47.200
C05  38607920.219 6 201041571.290 6        36.100    38607928.879 6 155458127.938 6        40.100
C04  39235147.297 5 204307707.795 5        34.600    39235159.418 6 157983727.683 6        38.400
C03  36232310.328 7 188671136.440 7        43.800    36232313.367 7 145892508.576 7        46.300
C02  36797444.625 6 191613952.624 6        40.000    36797448.176 7 148168074.167 7        45.000
C01  38019479.734 6 197977406.161 6        39.100    38019488.598 6 153088721.392 6        41.100
S27  38821246.641 7 204007020.471 7        42.000    38821257.441 7 152342925.880 7        43.600
S37  36835400.594 6 193571301.016 6        41.800
> 2025  2 28  3 28 26.0000000  0 36       0.000355480000
R23  23620461.477 6 126353540.840 6        38.300    23620461.684 6 126353499.844 6        36.700
R22  20401142.016 8 108902680.162 8        51.400    20401142.602 8 108902644.170 8        50.700    20401155.328 8  84702062.289 8        48.500    20401155.719 7  84702059.296 7        47.100
R21  20562543.766 8 110034324.957 8        50.500    20562543.641 8 110034284.964 8        48.700    20562556.473 7  85582227.371 7        47.100    20562556.922 7  85582224.371 7        46.400
R12  22666121.148 7 121078347.305 7        44.600    22666120.938 7 121078304.310 7        43.900    22666137.375 7  94172020.326 7        42.500    22666137.250 6  94172016.317 6        41.100
R11  21239326.367 7 113496522.487 7        47.900    21239327.832 7 113496480.492 7        47.300    21239339.773 7  88275049.896 7        46.500    21239340.582 7  88275046.892 7        45.500
R10  23411825.148 6 124798228.450 6        36.000    23411824.238 5 124798152.452 5        34.300
R08  23979152.227 6 128407268.488 6        38.000    23979152.363 6 128407225.507 6        36.600    23979174.023 6  99872370.346 6        36.100    23979174.852 5  99872371.351 5        35.800
R02  22959684.297 7 122517274.654 7        43.200    22959685.707 7 122517233.648 7        42.600    22959702.363 6  95291190.323 6        40.100    22959703.438 6  95291187.323 6        39.600
R01  22278552.672 7 119091630.850 7        43.300    22278554.063 6 119091588.863 6        41.700    22278572.637 6  92626796.788 6        37.300    22278573.613 6  92626792.789 6        36.200
G30  24907306.758 5 130888775.175 5        33.900    24907325.918 4 101991333.246 4        26.400    24907325.992 5 101991331.254 5        35.200    24907332.297 6  97741710.836 6        41.900
E30  28362440.117 6 149045632.682 6        37.500    28362471.887 6 111300415.935 6        38.800    28362465.566 6 114203884.779 6        38.100
E29  24359937.211 8 128012329.234 8        49.300    24359953.063 8  95593601.148 8        49.400    24359949.027 8  98087348.003 8        49.300    24359950.773 9  96840471.684 9        56.700
E27  25178666.484 7 132314781.546 7        45.700    25178683.398 7  98806473.717 7        47.100    25178679.090 7 101384033.659 7        47.700    25178681.031 9 100095251.295 9        54.300
E21  25528496.242 7 134153155.571 7        45.200    25528513.590 7 100179279.000 7        46.800    25528509.355 7 102792651.365 7        46.800    25528511.352 8 101485964.790 8        53.500
E19  25462704.266 6 133807415.314 6        38.900    25462721.918 6  99921108.795 6        39.900    25462717.773 6 102527735.996 6        40.800    25462719.695 7 101224414.003 7        46.600
E15  26001585.094 7 136639250.890 7        42.000    26001608.789 7 102035859.356 7        45.300    26001603.746 7 104697659.810 7        45.100    26001606.102 8 103366765.700 8        51.800
E13  25743100.469 7 135280898.533 7        43.300    25743123.996 7 101021455.884 7        45.500    25743118.836 7 103656775.034 7        45.500    25743121.223 8 102339139.567 8        52.000
E07  26404788.563 6 138758092.379 6        41.600    26404814.957 7 103618140.256 7        43.500    26404810.441 7 106321209.302 7        44.200
G27  22650267.930 6 119027960.273 6        39.900    22650285.688 6  92749129.276 6        36.500    22650286.027 7  92749050.273 7        42.500    22650290.609 7  88884501.998 7        47.200
G16  24453014.531 5 128501456.423 5        31.600    24453034.789 2 100131070.947 2        17.400
G14  25421003.219 5 133588220.824 5        32.900                                                    25421020.953 6 104094826.248 6        36.200    25421030.688 6  99757574.423 6        37.600
G09  21533453.500 7 113159060.618 7        45.600    21533469.371 7  88175942.620 7        45.600    21533469.363 7  88175886.616 7        45.800    21533474.898 8  84501889.019 8        51.000
G08  20354005.406 8 106961015.893 8        48.800    20354018.445 8  83346292.857 8        49.300    20354018.988 8  83346240.851 8        48.600    20354022.320 8  79873476.513 8        53.100
G07  22242020.680 7 116882606.285 7        44.800    22242032.695 6  91077400.735 6        41.000    22242032.781 7  91077349.736 7        43.900
G04  21942237.875 7 115307229.644 7        43.300    21942254.215 5  89849844.011 5        31.700    21942254.020 7  89849784.995 7        45.400    21942263.164 8  86106039.424 8        48.500
G02  21797758.383 7 114547990.092 7        44.800    21797771.102 5  89258219.111 5        34.900
G01  23139827.078 6 121600619.192 6        40.600    23139846.887 4  94753808.866 4        26.800    23139846.750 7  94753717.862 7        43.500    23139857.477 7  90805670.696 7        46.600
C11  23823771.188 6 124056621.736 6        41.000    23823779.109 7  95928404.779 7        44.100
C06  35964942.516 7 187278890.000 7        45.400    35964944.719 7 144815873.959 7        46.600
C05  38607753.797 5 201040707.086 5        35.700    38607762.758 6 155457459.675 6        39.900
C04  39234976.063 5 204306816.051 5        34.700    39234988.070 6 157983038.131 6        38.400
C03  36232138.898 7 188670243.880 7        43.400    36232141.887 7 145891818.387 7        45.800
C02  36797281.289 6 191613100.343 6        40.100    36797284.535 7 148167415.126 7        44.700
C01  38019310.508 6 197976524.855 6        39.000    38019319.176 6 153088039.907 6        41.500
S27  38821078.172 6 204006134.565 6        41.700    38821088.859 7 152342264.363 7        43.700
S37  36835231.281 7 193570409.383 7        42.100
> 2025  2 28  3 28 27.0000000  0 36       0.000354914000
R23  23619463.953 6 126348204.787 6        38.600    23619464.180 6 126348163.789 6        36.800
R22  20400434.906 8 108898905.823 8        51.300    20400435.879 8 108898869.832 8        50.800    20400448.758 8  84699126.699 8        48.900    20400448.988 7  84699123.703 7        47.300
R21  20562628.961 8 110034785.299 8        50.200    20562629.438 8 110034745.306 8        49.000    20562642.395 7  85582585.413 7        47.100    20562642.844 7  85582582.415 7        46.800
R12  22665604.805 7 121075593.538 7        44.600    22665605.094 7 121075550.537 7        43.800    22665621.563 7  94169878.514 7        42.400    22665621.395 6  94169874.500 6        40.900
R11  21239085.695 8 113495236.359 8        48.000    21239086.715 7 113495194.363 7        47.500    21239098.871 7  88274049.570 7        46.300    21239099.668 7  88274046.566 7        45.500
R10  23411888.211 5 124798568.828 5        35.800    23411887.918 5 124798492.843 5        34.600
R08  23979634.398 6 128409854.814 6        38.200    23979635.492 6 128409811.821 6        36.800    23979657.688 6  99874381.925 6        36.300    23979658.180 6  99874382.934 6        36.200
R02  22959450.852 7 122516028.916 7        43.500    22959452.359 7 122515987.918 7        42.600    22959469.379 6  95290221.410 6        40.500    22959470.133 6  95290218.407 6        39.800
R01  22278827.789 7 119093093.966 7        43.400    22278827.867 7 119093051.974 7        42.200    22278846.453 6  92627934.752 6        37.700    22278847.355 5  92627930.753 5        35.900
G30  24906518.313 5 130884633.854 5        34.300    24906537.742 4 101988106.246 4        24.800    24906537.668 5 101988104.253 5        35.400    24906544.074 7  97738618.293 7        42.000
E30  28362506.477 6 149045982.375 6        37.300    28362538.395 6 111300677.055 6        39.000    28362532.207 6 114204152.713 6        38.800
E29  24359988.797 8 128012600.618 8        49.000    24360004.688 8  95593803.799 8        49.600    24360000.664 8  98087555.940 8        49.600    24360002.402 9  96840676.978 9        56.700
E27  25178624.695 7 132314562.093 7        46.000    25178641.645 7  98806309.835 7        47.400    25178637.410 8 101383865.501 8        48.000    25178639.309 9 100095085.276 9        54.400
E21  25528242.258 7 134151820.296 7        45.900    25528259.500 7 100178281.878 7        47.200    25528255.301 7 102791628.232 7        46.700    25528257.313 8 101484954.663 8        53.600
E19  25462337.617 6 133805489.565 6        39.300    25462355.414 6  99919670.734 6        40.300    25462351.301 6 102526260.420 6        41.000    25462353.066 7 101222957.186 7        46.600
E15  26001336.219 7 136637943.781 7        42.200    26001360.133 7 102034883.266 7        45.300    26001355.172 7 104696658.255 7        44.900    26001357.457 8 103365776.874 8        51.900
E13  25742487.781 7 135277679.197 7        43.600    25742511.402 7 101019051.840 7        45.500    25742506.305 7 103654308.275 7        45.700    25742508.637 8 102336704.167 8        52.000
E07  26405151.531 6 138760000.933 6        41.800    26405178.266 7 103619565.462 7        43.800    26405173.617 7 106322671.687 7        44.500
G27  22650719.336 6 119030334.763 6        39.900    22650737.715 6  92750979.520 6        36.900    22650737.934 7  92750900.516 7        42.500    22650742.492 7  88886275.146 7        47.200
G16  24453234.625 5 128502609.649 5        31.900    24453253.992 2 100131969.546 2        15.600
G14  25420508.695 5 133585628.204 5        33.200                                                    25420527.773 6 104092806.020 6        36.300    25420537.418 6  99755638.370 6        38.100
G09  21533547.984 7 113159556.442 7        45.800    21533563.984 7  88176328.969 7        45.800    21533564.164 7  88176272.966 7        45.800    21533569.387 8  84502259.270 8        51.000
G08  20354150.930 8 106961781.280 8        48.900    20354164.113 8  83346889.260 8        49.500    20354164.797 8  83346837.254 8        48.600    20354168.004 8  79874048.065 8        53.100
G07  22241332.656 7 116878989.031 7        44.800    22241344.477 6  91074582.097 6        41.600    22241344.414 7  91074531.097 7        44.300
G04  21942596.367 7 115309113.125 7        43.400    21942612.758 5  89851311.646 5        32.500    21942612.316 7  89851252.635 7        46.000    21942621.730 8  86107445.907 8        48.600
G02  21797152.406 7 114544806.602 7        45.100    21797165.500 5  89255738.474 5        34.500
G01  23139112.969 6 121596867.067 6        40.500    23139133.082 4  94750885.139 4        26.200    23139133.070 7  94750794.137 7        43.000    23139143.738 7  90802868.797 7        46.700
C11  23824001.633 6 124057824.166 6        41.000    23824009.980 7  95929334.567 7        44.300
C06  35964705.898 7 187277658.667 7        45.800    35964708.246 7 144814921.812 7        47.200
C05  38607588.273 6 201039843.009 6        36.300    38607596.711 6 155456791.512 6        40.100
C04  39234805.211 5 204305924.416 5        34.900    39234817.121 6 157982348.665 6        38.100
C03  36231967.320 7 188669351.442 7        44.200    36231970.375 7 145891128.296 7        46.000
C02  36797117.805 6 191612248.197 6        40.500    36797120.730 7 148166756.190 7        45.100
C01  38019141.602 6 197975643.680 6        39.600    38019149.938 6 153087358.523 6        41.400
S27  38820909.813 7 204005248.853 7        42.100    38820920.105 7 152341602.935 7        43.700
S37  36835056.891 6 193569517.861 6        41.400
> 2025  2 28  3 28 28.0000000  0 36       0.000354345000
R23  23618467.188 6 126342868.804 6        38.400    23618466.281 6 126342827.797 6        36.700
R22  20399728.516 8 108895132.151 8        51.000    20399728.691 8 108895096.156 8        50.500    20399741.309 8  84696191.624 8        48.700    20399741.805 7  84696188.627 7        47.400
R21  20562715.297 8 110035246.529 8        50.100    20562715.383 8 110035206.535 8        48.800    20562728.402 7  85582944.144 7        47.000    20562728.785 7  85582941.145 7        46.800
R12  22665089.055 7 121072839.663 7        44.300    22665089.660 7 121072796.661 7        43.900    22665106.098 6  94167736.612 6        41.800    22665105.766 6  94167732.597 6        40.600
R11  21238845.648 8 113493950.339 8        48.400    21238846.359 7 113493908.346 7        47.500    21238858.660 7  88273049.328 7        46.500    21238859.273 7  88273046.325 7        45.300
R10  23411951.664 6 124798909.429 6        36.700    23411952.012 5 124798833.423 5        34.700
R08  23980118.359 6 128412440.951 6        38.300    23980117.910 6 128412397.969 6        36.900    23980139.902 5  99876393.356 5        35.800    23980140.660 5  99876394.364 5        35.800
R02  22959218.141 7 122514783.979 7        43.400    22959219.359 7 122514742.982 7        42.400    22959236.719 6  95289253.123 6        40.000    22959237.246 6  95289250.119 6        39.900
R01  22279101.117 7 119094557.509 7        43.200    22279101.508 6 119094515.516 6        41.400    22279120.480 6  92629073.056 6        37.100    22279121.141 5  92629069.055 5        35.500
G30  24905729.914 5 130880492.504 5        33.700    24905749.535 4 101984879.222 4        24.700    24905749.262 5 101984877.224 5        35.500    24905755.902 6  97735525.725 6        41.800
E30  28362573.078 6 149046332.045 6        36.500    28362604.945 6 111300938.160 6        38.900    28362598.676 6 114204420.634 6        38.500
E29  24360040.500 8 128012872.431 8        49.300    24360056.422 8  95594006.770 8        49.600    24360052.320 8  98087764.206 8        49.300    24360054.141 9  96840882.596 9        56.700
E27  25178582.875 7 132314342.625 7        45.800    25178599.816 7  98806145.941 7        47.300    25178595.586 7 101383697.332 7        47.700    25178597.504 9 100094919.245 9        54.200
E21  25527988.164 7 134150485.069 7        45.600    25528005.637 7 100177284.792 7        46.500    25528001.223 7 102790605.136 7        47.100    25528003.277 8 101483944.572 8        53.500
E19  25461971.250 6 133803564.274 6        38.900    25461988.949 6  99918233.013 6        40.200    25461984.977 6 102524785.192 6        40.800    25461986.691 7 101221500.710 7        46.600
E15  26001087.836 6 136636637.136 6        41.900    26001111.570 7 102033907.522 7        45.400    26001106.508 7 104695657.061 7        44.900    26001108.809 8 103364788.401 8        51.800
E13  25741875.148 7 135274460.045 7        43.700    25741898.871 7 101016647.931 7        45.800    25741893.719 7 103651841.656 7        45.500    25741896.109 8 102334268.902 8        51.900
E07  26405514.758 6 138761909.572 6        41.600    26405541.348 7 103620990.730 7        43.500    26405536.762 7 106324134.136 7        44.600
G27  22651171.883 6 119032709.475 6        39.800    22651189.863 6  92752829.936 6        36.200    22651190.254 7  92752750.932 7        42.200    22651194.695 7  88888048.460 7        47.100
G16  24453453.398 5 128503762.852 5        32.300    24453473.770 2 100132868.149 2        15.600
G14  25420015.461 5 133583035.631 5        31.800                                                    25420034.547 6 104090785.838 6        36.600    25420043.910 6  99753702.362 6        37.600
G09  21533642.266 7 113160052.815 7        45.900    21533658.465 7  88176715.747 7        45.300    21533658.477 7  88176659.743 7        45.300    21533663.816 8  84502629.928 8        51.000
G08  20354296.617 8 106962547.172 8        48.500    20354310.371 8  83347486.054 8        49.300    20354311.148 8  83347434.050 8        48.400    20354314.254 8  79874619.992 8        53.000
G07  22240644.156 7 116875371.965 7        44.900    22240656.266 6  91071763.606 6        41.300    22240656.352 7  91071712.604 7        44.100
G04  21942955.023 7 115310996.948 7        43.200    21942971.180 5  89852779.545 5        32.400    21942970.836 7  89852720.540 7        46.100    21942980.098 8  86108852.644 8        48.400
G02  21796546.430 7 114541623.544 7        45.300    21796559.742 5  89253258.175 5        34.400
G01  23138399.492 6 121593115.063 6        40.800    23138418.781 4  94747961.509 4        26.400    23138418.871 7  94747870.510 7        42.900    23138429.430 7  90800066.990 7        46.700
C11  23824232.883 6 124059027.048 6        40.400    23824241.023 7  95930264.705 7        44.100
C06  35964469.305 7 187276427.492 7        45.400    35964471.719 7 144813969.787 7        47.000
C05  38607422.234 5 201038978.977 5        35.600    38607430.484 6 155456123.385 6        39.900
C04  39234633.922 5 204305032.837 5        33.700    39234645.883 6 157981659.238 6        38.300
C03  36231795.750 7 188668459.044 7        43.600    36231799.176 7 145890438.232 7        45.800
C02  36796954.313 6 191611396.106 6        39.800    36796957.281 7 148166097.299 7        45.100
C01  38018972.063 6 197974762.555 6        38.700    38018980.637 6 153086677.181 6        41.500
S27  38820741.359 6 204004363.256 6        41.900    38820751.891 7 152340941.602 7        43.800
S37  36834889.656 6 193568626.400 6        41.800
> 2025  2 28  3 28 29.0000000  0 36       0.000353779000
R23  23617470.898 6 126337532.803 6        38.100    23617469.563 6 126337491.806 6        36.300
R22  20399021.367 8 108891359.095 8        50.900    20399021.887 8 108891323.102 8        50.100    20399034.531 8  84693257.024 8        48.700    20399035.000 8  84693254.028 8        48.000
R21  20562802.172 8 110035708.600 8        50.000    20562801.871 8 110035668.602 8        48.600    20562814.836 7  85583303.529 7        46.800    20562815.254 7  85583300.532 7        47.000
R12  22664573.891 7 121070085.664 7        44.300    22664573.945 7 121070042.660 7        43.600    22664590.203 7  94165594.611 7        42.200    22664590.113 6  94165590.596 6        40.500
R11  21238605.352 8 113492664.393 8        48.900    21238605.602 7 113492622.403 7        47.400    21238618.152 7  88272049.147 7        46.300    21238618.543 7  88272046.143 7        45.200
R10  23412015.992 6 124799250.182 6        36.800    23412016.293 5 124799174.190 5        34.800
R08  23980602.055 6 128415026.853 6        38.300    23980601.500 6 128414983.866 6        36.700    23980623.230 5  99878404.606 5        35.900    23980623.602 5  99878405.610 5        35.800
R02  22958984.531 7 122513539.787 7        43.800    22958985.383 7 122513498.795 7        42.300    22959002.996 6  95288285.418 6        40.400    22959003.215 6  95288282.412 6        39.800
R01  22279375.172 7 119096021.422 7        43.300    22279375.516 6 119095979.433 6        41.500    22279393.863 6  92630211.645 6        37.300    22279394.703 6  92630207.641 6        36.000
G30  24904941.109 5 130876351.097 5        33.700    24904961.359 4 101981652.148 4        24.400    24904961.203 5 101981650.151 5        35.100    24904967.746 6  97732433.111 6        41.800
E30  28362639.680 6 149046681.640 6        36.700    28362671.703 6 111301199.205 6        39.100    28362665.273 6 114204688.492 6        38.600
E29  24360092.336 8 128013144.635 8        49.100    24360108.281 8  95594210.033 8        49.400    24360104.266 8  98087972.773 8        49.400    24360106.043 9  96841088.511 9        56.700
E27  25178541.086 7 132314123.097 7        45.900    25178558.133 7  98805982.002 7        47.400    25178553.883 7 101383529.120 7        47.900    25178555.824 9 100094753.170 9        54.400
E21  25527734.008 7 134149149.838 7        45.300    25527751.387 7 100176287.701 7        46.900    25527747.027 7 102789582.034 7        47.400    25527749.102 8 101482934.475 8        53.600
E19  25461605.227 6 133801639.428 6        38.700    25461622.832 6  99916795.626 6        40.500    25461618.652 6 102523310.310 6        40.800    25461620.582 7 101220044.576 7        46.600
E15  26000839.242 7 136635330.921 7        42.000    26000862.902 7 102032932.102 7        45.600    26000857.738 7 104694656.192 7        45.100    26000860.082 8 103363800.255 8        51.900
E13  25741262.531 7 135271241.025 7        43.600    25741286.289 7 101014244.123 7        45.700    25741281.227 7 103649375.138 7        45.600    25741283.551 8 102331833.738 8        52.000
E07  26405878.094 6 138763818.257 6        41.100    26405904.672 7 103622416.033 7        43.900    26405900.000 7 106325596.623 7        44.800
G27  22651623.195 6 119035084.371 6        39.700    22651641.664 6  92754680.493 6        36.400    22651642.145 7  92754601.490 7        42.900    22651646.602 7  88889821.912 7        47.200
G16  24453672.828 5 128504915.977 5        31.900    24453693.223 2 100133766.675 2        15.600
G14  25419521.297 5 133580443.077 5        32.000                                                    25419541.176 6 104088765.661 6        36.200    25419550.633 6  99751766.355 6        37.400
G09  21533737.148 7 113160549.702 7        46.000    21533753.070 7  88177102.923 7        45.500    21533753.266 7  88177046.918 7        45.600    21533758.461 8  84503000.972 8        51.000
G08  20354442.336 8 106963313.531 8        48.300    20354455.961 8  83348083.215 8        49.100    20354456.551 8  83348031.210 8        48.200    20354459.719 8  79875192.271 8        53.100
G07  22239956.086 7 116871755.054 7        45.100    22239967.914 7  91068945.234 7        42.000    22239967.746 7  91068894.231 7        44.300
G04  21943313.352 7 115312881.057 7        43.100    21943329.777 5  89854247.667 5        32.600    21943329.371 7  89854188.665 7        46.100    21943338.852 8  86110259.596 8        48.800
G02  21795941.008 7 114538440.867 7        45.100    21795954.281 5  89250778.170 5        34.700
G01  23137686.188 6 121589363.126 6        41.200    23137705.164 4  94745037.928 4        26.900    23137705.102 7  94744946.933 7        43.300    23137715.590 7  90797265.230 7        46.800
C11  23824464.109 6 124060230.318 6        40.600    23824472.023 7  95931195.144 7        44.300
C06  35964233.172 7 187275196.431 7        45.100    35964235.340 7 144813017.853 7        47.100
C05  38607256.336 5 201038114.950 5        35.700    38607264.715 6 155455455.263 6        40.400
C04  39234462.367 5 204304141.217 5        33.600    39234474.711 6 157980969.774 6        38.500
C03  36231624.633 7 188667566.651 7        43.200    36231627.680 7 145889748.175 7        45.600
C02  36796790.500 6 191610544.003 6        39.600    36796793.617 7 148165438.397 7        45.000
C01  38018802.906 6 197973881.429 6        38.700    38018811.332 6 153085995.835 6        41.300
S27  38820572.906 7 204003477.658 7        42.200    38820583.664 7 152340280.251 7        43.700
S37  36834720.328 6 193567734.945 6        41.700
> 2025  2 28  3 28 30.0000000  0 36       0.000353212000
R23  23616471.813 6 126332196.835 6        38.200    23616471.555 6 126332155.842 6        36.800
R22  20398314.664 8 108887586.678 8        51.800    20398315.508 8 108887550.683 8        50.000    20398328.199 8  84690322.924 8        48.800    20398328.719 8  84690319.927 8        48.300
R21  20562888.438 8 110036171.548 8        50.300    20562888.512 8 110036131.551 8        48.700    20562901.375 7  85583663.595 7        47.200    20562901.891 7  85583660.598 7        47.000
R12  22664059.086 7 121067331.551 7        44.500    22664058.566 7 121067288.544 7        43.400    22664074.719 7  94163452.522 7        42.600    22664074.906 6  94163448.511 6        40.800
R11  21238364.430 8 113491378.564 8        48.300    21238365.145 7 113491336.573 7        47.300    21238377.684 7  88271049.057 7        46.200    21238377.965 7  88271046.056 7        45.500
R10  23412080.797 6 124799591.130 6        36.900    23412080.895 5 124799515.143 5        34.700
R08  23981085.789 6 128417612.552 6        38.100    23981084.133 6 128417569.552 6        36.300    23981105.465 6  99880415.707 6        36.400    23981106.246 5  99880416.706 5        35.400
R02  22958751.977 7 122512296.347 7        44.100    22958752.875 7 122512255.352 7        42.100    22958770.242 6  95287318.297 6        40.200    22958770.613 6  95287315.295 6        40.000
R01  22279649.297 7 119097485.734 7        43.100    22279649.703 7 119097443.744 7        42.100    22279667.578 6  92631350.544 6        37.000    22279668.758 6  92631346.542 6        36.000
G30  24904154.258 5 130872209.646 5        33.900    24904173.391 4 101978425.051 4        25.200    24904173.160 5 101978423.049 5        34.500    24904179.602 7  97729340.472 7        42.000
E30  28362706.023 6 149047031.180 6        36.500    28362738.281 6 111301460.209 6        39.200    28362731.527 6 114204956.305 6        38.100
E29  24360144.234 8 128013417.243 8        49.100    24360160.199 8  95594413.598 8        49.900    24360156.195 8  98088181.649 8        49.600    24360157.938 9  96841294.732 9        56.700
E27  25178499.313 7 132313903.529 7        46.100    25178516.305 7  98805818.036 7        47.300    25178511.980 8 101383360.876 8        48.100    25178513.977 9 100094587.063 9        54.300
E21  25527480.008 7 134147814.620 7        45.500    25527497.391 7 100175290.623 7        46.700    25527493.051 7 102788558.945 7        47.200    25527495.121 8 101481924.392 8        53.500
E19  25461238.938 6 133799714.998 6        38.500    25461256.445 6  99915358.550 6        39.900    25461252.355 6 102521835.745 6        40.800    25461254.246 7 101218588.755 7        46.500
E15  26000590.625 6 136634025.139 6        41.200    26000614.395 7 102031957.005 7        45.600    26000609.285 7 104693655.659 7        45.100    26000611.574 8 103362812.438 8        51.900
E13  25740650.211 7 135268022.154 7        44.000    25740673.641 7 101011840.425 7        45.700    25740668.641 7 103646908.736 7        45.700    25740670.965 8 102329398.689 8        52.000
E07  26406241.242 6 138765727.007 6        41.400    26406267.926 7 103623841.384 7        43.800    26406263.254 7 106327059.159 7        44.800
G27  22652075.875 6 119037459.448 6        39.700    22652093.648 6  92756531.192 6        37.000    22652094.191 7  92756452.188 7        42.700    22652098.668 7  88891595.496 7        47.200
G16  24453891.750 5 128506069.054 5        31.600    24453912.953 2 100134665.122 2        16.300
G14  25419027.477 5 133577850.535 5        32.600                                                    25419047.250 6 104086745.498 6        36.600    25419057.199 6  99749830.360 6        38.300
G09  21533831.609 7 113161047.103 7        45.900    21533847.766 7  88177490.503 7        45.700    21533847.965 7  88177434.497 7        45.700    21533853.152 8  84503372.399 8        51.100
G08  20354588.250 8 106964080.371 8        48.300    20354601.637 8  83348680.751 8        49.200    20354602.398 8  83348628.745 8        48.400    20354605.547 8  79875764.908 8        53.200
G07  22239267.797 7 116868138.305 7        45.400    22239279.480 7  91066126.988 7        42.000    22239279.383 7  91066075.984 7        43.800
G04  21943672.297 7 115314765.468 7        43.400    21943688.488 5  89855716.028 5        32.300    21943688.031 7  89855657.027 7        46.000    21943697.418 8  86111666.774 8        48.800
G02  21795335.336 7 114535258.589 7        45.400    21795348.531 5  89248298.478 5        34.700
G01  23136973.203 6 121585611.277 6        41.400    23136991.457 4  94742114.424 4        28.100    23136991.262 7  94742023.419 7        43.600    23137001.781 7  90794463.530 7        46.700
C11  23824694.688 6 124061434.010 6        41.100    23824703.336 7  95932125.909 7        44.400
C06  35963996.563 7 187273965.499 7        45.800    35963999.020 7 144812066.016 7        47.200
C05  38607090.008 5 201037250.945 5        35.500    38607098.895 6 155454787.157 6        40.500
C04  39234291.969 5 204303250.69515        33.900    39234303.410 6 157980280.28816        37.000
C03  36231453.141 7 188666674.281 7        43.700    36231456.227 7 145889058.136 7        46.000
C02  36796626.984 6 191609691.923 6        40.000    36796630.055 7 148164779.514 7        44.600
C01  38018633.672 6 197973000.322 6        39.400    38018642.242 6 153085314.506 6        41.300
S27  38820404.016 6 204002592.077 6        41.800    38820415.172 7 152339618.905 7        43.900
S37  36834553.328 7 193566843.504 7        42.000
> 2025  2 28  3 28 31.0000000  0 36       0.000352648000
R23  23615473.961 6 126326860.926 6        38.600    23615474.133 6 126326819.933 6        36.800
R22  20397608.102 8 108883814.939 8        51.800    20397608.605 8 108883778.942 8        50.000    20397621.188 8  84687389.349 8        49.100    20397621.723 8  84687386.354 8        48.500
R21  20562975.359 8 110036635.419 8        50.700    20562975.359 8 110036595.422 8        49.000    20562988.086 7  85584024.380 7        47.100    20562988.871 7  85584021.381 7        46.900
R12  22663543.211 7 121064577.359 7        44.700    22663543.109 7 121064534.351 7        43.800    22663559.211 7  94161310.372 7        42.800    22663559.523 6  94161306.362 6        40.600
R11  21238123.570 8 113490092.859 8        48.400    21238124.629 7 113490050.871 7        47.300    21238136.992 7  88270049.063 7        46.300    21238137.473 7  88270046.059 7        45.300
R10  23412144.172 6 124799932.306 6        36.900    23412145.055 5 124799856.313 5        34.800
R08  23981567.867 6 128420198.062 6        38.300    23981567.523 6 128420155.083 6        36.300    23981588.020 5  99882426.664 5        35.900    23981589.262 6  99882427.661 6        36.000
R02  22958519.555 7 122511053.679 7        43.800    22958520.078 7 122511012.684 7        42.300    22958537.590 6  95286351.771 6        40.200    22958538.125 6  95286348.774 6        39.800
R01  22279923.445 7 119098950.478 7        43.500    22279923.863 6 119098908.479 6        41.700    22279941.539 6  92632489.777 6        36.600    22279942.930 6  92632485.778 6        36.000
G30  24903365.367 5 130868068.189 5        34.000    24903385.242 4 101975197.933 4        24.900    24903384.691 5 101975195.932 5        35.000    24903391.344 6  97726247.821 6        41.800
E30  28362772.383 6 149047380.707 6        36.800    28362804.973 6 111301721.207 6        39.000    28362798.090 6 114205224.113 6        38.700
E29  24360196.125 8 128013690.291 8        48.900    24360212.160 8  95594617.492 8        49.400    24360208.133 8  98088390.862 8        49.300    24360209.871 9  96841501.285 9        56.700
E27  25178457.703 7 132313683.961 7        46.500    25178474.480 7  98805654.069 7        47.300    25178470.398 7 101383192.632 7        47.700    25178472.199 9 100094420.958 9        54.300
E21  25527226.023 7 134146479.452 7        45.700    25527243.320 7 100174293.580 7        46.300    25527239.000 7 102787535.892 7        47.600    25527241.102 8 101480914.345 8        53.700
E19  25460872.992 6 133797791.052 6        38.900    25460890.238 6  99913921.836 6        40.200    25460886.270 6 102520361.552 6        40.400    25460888.027 7 101217133.301 7        46.600
E15  26000342.445 6 136632719.830 6        41.100    26000366.047 7 102030982.261 7        45.600    26000361.016 7 104692655.487 7        45.000    26000363.270 8 103361824.981 8        51.900
E13  25740037.344 7 135264803.473 7        44.200    25740061.227 7 101009436.868 7        45.600    25740056.266 7 103644442.478 7        45.800    25740058.500 8 102326963.782 8        52.000
E07  26406604.648 6 138767635.867 6        41.700    26406631.035 7 103625266.815 7        43.700    26406626.203 7 106328521.778 7        44.900
G27  22652528.445 6 119039834.755 6        39.700    22652545.531 6  92758382.071 6        37.100    22652546.246 7  92758303.063 7        42.600    22652550.508 7  88893369.251 7        47.500
G16  24454111.508 5                        32.000
G14  25418534.914 5 133575258.073 5        33.400                                                    25418554.020 6 104084725.396 6        36.900    25418564.285 6  99747894.426 6        37.700
G09  21533926.523 7 113161545.062 7        45.800    21533942.383 7  88177878.517 7        45.600    21533942.258 7  88177822.511 7        45.800    21533947.676 8  84503744.244 8        51.000
G08  20354734.141 8 106964847.716 8        48.600    20354747.770 8  83349278.679 8        49.300    20354748.457 8  83349226.675 8        48.600    20354751.664 8  79876337.924 8        53.200
G07  22238579.711 7 116864521.758 7        45.800    22238591.277 7  91063308.898 7        42.100    22238591.215 7  91063257.895 7        44.200
G04  21944030.938 7 115316650.220 7        43.300    21944046.859 5  89857184.661 5        32.500    21944046.867 7  89857125.656 7        45.900    21944055.918 8  86113074.209 8        48.700
G02  21794729.273 7 114532076.744 7        45.300    21794743.289 5  89245819.120 5        34.300
G01  23136258.891 6 121581859.547 6        41.400    23136277.426 4  94739191.000 4        27.800    23136277.180 7  94739099.993 7        44.000    23136287.844 7  90791661.914 7        46.400
C11  23824926.039 6 124062638.171 6        40.900    23824934.418 7  95933057.036 7        44.500
C06  35963760.031 7 187272734.745 7        45.700    35963762.559 7 144811114.317 7        47.200
C05  38606924.383 5 201036386.988 5        35.500    38606933.160 6 155454119.089 6        40.400
C04  39234120.680 5 204302359.162 5        34.100    39234132.422 6 157979590.976 6        37.500
C03  36231282.258 7 188665781.968 7        43.600    36231284.793 7 145888368.141 7        45.600
C02  36796463.258 6 191608839.915 6        39.900    36796466.422 7 148164120.682 7        44.400
C01  38018464.320 6 197972119.282 6        39.300    38018472.949 6 153084633.228 6        41.100
S27  38820236.047 7 204001706.563 7        42.300    38820246.461 7 152338957.601 7        44.100
S37  36834379.891 6 193565952.129 6        41.800
> 2025  2 28  3 28 32.0000000  0 36       0.000352081000
R23  23614476.281 6 126321525.149 6        39.000    23614476.387 6 126321484.150 6        37.300
R22  20396901.758 8 108880043.913 8        51.700    20396902.227 8 108880007.917 8        50.000    20396914.758 8  84684456.331 8        48.700    20396915.387 8  84684453.336 8        48.700
R21  20563062.367 8 110037100.248 8        50.400    20563062.129 8 110037060.248 8        48.800    20563074.836 7  85584385.913 7        46.400    20563075.523 7  85584382.912 7        46.500
R12  22663026.906 7 121061823.124 7        44.300    22663027.180 7 121061780.118 7        43.800    22663043.652 7  94159168.192 7        42.400    22663043.734 6  94159164.182 6        40.000
R11  21237883.406 8 113488807.327 8        48.600    21237883.887 7 113488765.333 7        47.200    21237896.359 7  88269049.200 7        45.800    21237896.813 7  88269046.195 7        45.900
R10  23412209.008 6 124800273.781 6        36.200    23412209.422 5 124800197.770 5        35.000
R08  23982049.633 6 128422783.470 6        38.300    23982050.289 6 128422740.484 6        36.800    23982070.762 6  99884437.553 6        36.900    23982071.852 6  99884438.551 6        36.400
R02  22958286.414 7 122509811.852 7        43.700    22958286.488 7 122509770.853 7        42.000    22958303.973 6  95285385.905 6        39.900    22958304.617 6  95285382.909 6        39.600
R01  22280197.320 7 119100415.709 7        43.900    22280197.949 6 119100373.724 6        41.600    22280215.820 6  92633629.392 6        37.300    22280216.949 5  92633625.393 5        35.800
G30  24902577.313 5 130863926.775 5        34.000    24902596.777 4 101971970.853 4        25.400    24902596.414 5 101971968.847 5        34.400    24902603.387 7  97723155.208 7        42.000
E30  28362838.938 6 149047730.254 6        36.900    28362871.539 6 111301982.216 6        39.100    28362864.656 6 114205491.934 6        38.500
E29  24360248.219 8 128013963.826 8        49.000    24360264.121 8  95594821.747 8        49.400    24360260.152 8  98088600.449 8        49.200    24360261.848 9  96841708.207 9        56.600
E27  25178415.969 7 132313464.439 7        46.200    25178432.676 7  98805490.134 7        47.000    25178428.480 7 101383024.421 7        47.400    25178430.387 9 100094254.887 9        54.300
E21  25526971.781 7 134145144.376 7        46.100    25526989.270 7 100173296.605 7        46.500    25526984.996 7 102786512.908 7        47.300    25526987.051 8 101479904.365 8        53.600
E19  25460506.938 6 133795867.630 6        39.000    25460524.242 6  99912485.513 6        40.200    25460520.367 6 102518887.759 6        40.700    25460522.125 7 101215678.244 7        46.400
E15  26000093.773 6 136631415.048 6        41.600    26000117.813 7 102030007.912 7        45.700    26000112.559 7 104691655.719 7        45.200    26000114.965 8 103360837.924 8        51.800
E13  25739424.859 7 135261585.025 7        44.400    25739448.840 7 101007033.487 7        45.600    25739443.684 7 103641976.399 7        46.000    25739446.027 8 102324529.051 8        52.000
E07  26406968.000 6 138769544.853 6        41.600    26406994.504 7 103626692.341 7        43.700    26406989.477 7 106329984.492 7        44.600
G27  22652980.563 6 119042210.331 6        40.000    22652997.793 6  92760233.161 6        37.100    22652998.215 7  92760154.151 7        42.400    22653002.691 7  88895143.209 7        47.100
G16  24454330.797 5 128508375.255 5        31.600    24454352.285 2 100136462.14512        17.400
G14  25418042.578 5 133572665.706 5        33.700                                                    25418060.949 6 104082705.356 6        36.800    25418071.313 6  99745958.554 6        37.700
G09  21534021.703 7 113162043.620 7        45.400    21534037.281 7  88178266.996 7        45.500    21534037.195 7  88178210.992 7        45.400    21534042.676 8  84504116.537 8        51.000
G08  20354880.297 8 106965615.623 8        48.700    20354894.027 8  83349877.044 8        49.100    20354894.645 8  83349825.040 8        48.500    20354897.840 8  79876911.357 8        53.000
G07  22237891.266 7 116860905.455 7        45.400    22237903.219 6  91060490.999 6        41.900    22237903.215 7  91060439.996 7        43.900
G04  21944389.500 7 115318535.361 7        43.600    21944405.566 5  89858653.596 5        32.600    21944405.348 7  89858594.588 7        45.300    21944414.605 8  86114481.935 8        48.400
G02  21794124.641 7 114528895.380 7        45.800    21794137.918 5  89243340.144 5        35.300
G01  23135544.719 6 121578107.994 6        41.400    23135563.688 4  94736267.712 4        26.500    23135563.438 7  94736176.705 7        43.700    23135574.152 7  90788860.429 7        46.600
C11  23825157.633 6 124063842.816 6        41.100    23825165.527 7  95933988.538 7        44.600
C06  35963524.000 7 187271504.189 7        45.800    35963526.211 7 144810162.769 7        46.900
C05  38606758.625 5 201035523.142 5        35.800    38606767.234 6 155453451.101 6        39.900
C04  39233949.219 5                        34.200
C03  36231110.695 7 188664889.760 7        43.600    36231113.434 7 145887678.225 7        45.200
C02  36796299.836 6 191607988.000 6        40.100    36796302.645 7 148163461.928 7        44.400
C01  38018295.438 6 197971238.338 6        39.200    38018304.098 6 153083952.023 6        40.600
S27  38820067.609 7 204000821.229 7        42.200    38820077.926 7 152338296.408 7        43.900
S37  36834212.984 7 193565060.862 7        42.200
> 2025  2 28  3 28 33.0000000  0 36       0.000351515000
R23  23613478.141 6 126316189.446 6        38.800    23613478.602 6 126316148.448 6        37.000
R22  20396195.805 8 108876273.573 8        51.800    20396195.727 8 108876237.573 8        50.100    20396208.609 8  84681523.848 8        48.600    20396208.926 8  84681520.852 8        48.900
R21  20563149.297 8 110037565.985 8        50.500    20563148.820 8 110037525.987 8        48.400    20563161.836 7  85584748.151 7        46.700    20563162.145 7  85584745.151 7        47.000
R12  22662511.359 7 121059068.789 7        44.000    22662511.652 7 121059025.785 7        43.500    22662528.074 7  94157025.930 7        42.500    22662528.051 6  94157021.921 6        40.000
R11  21237642.914 8 113487521.920 8        49.000    21237643.258 7 113487479.923 7        47.300    21237655.492 7  88268049.434 7        46.000    21237656.063 7  88268046.429 7        46.000
R10  23412274.414 6 124800615.490 6        36.900    23412272.492 5 124800539.487 5        35.700
R08  23982533.547 6 128425368.743 6        38.200    23982533.023 6 128425325.748 6        36.400    23982554.527 6  99886448.329 6        37.500    23982555.035 6  99886449.324 6        37.300
R02  22958053.227 7 122508570.848 7        43.800    22958054.090 7 122508529.848 7        42.100    22958071.504 6  95284420.673 6        39.900    22958072.176 6  95284417.677 6        39.800
R01  22280471.359 7 119101881.408 7        43.500    22280472.285 6 119101839.425 6        41.700    22280489.730 6  92634769.374 6        37.200    22280491.184 5  92634765.374 5        35.600
G30  24901789.695 5 130859785.360 5        34.600    24901808.617 4 101968743.779 4        24.900    24901808.703 5 101968741.764 5        35.100    24901815.230 7  97720062.589 7        42.000
E30  28362905.609 6 149048079.802 6        37.200    28362938.012 6 111302243.227 6        39.000    28362931.172 6 114205759.755 6        38.400
E29  24360300.328 8 128014237.823 8        49.300    24360316.316 8  95595026.351 8        49.700    24360312.398 8  98088810.390 8        49.500    24360314.141 9  96841915.478 9        56.700
E27  25178374.156 7 132313244.922 7        46.500    25178390.938 7  98805326.204 7        47.300    25178386.727 7 101382856.212 7        47.700    25178388.645 9 100094088.815 9        54.300
E21  25526717.859 7 134143809.369 7        45.700    25526735.191 7 100172299.684 7        46.800    25526730.883 7 102785489.981 7        47.100    25526732.953 8 101478894.439 8        53.600
E19  25460140.977 6 133793944.716 6        38.900    25460158.359 6  99911049.569 6        40.500    25460154.484 6 102517414.358 6        40.900    25460156.250 7 101214223.572 7        46.600
E15  25999845.789 6 136630110.748 6        41.900    25999869.516 7 102029033.922 7        45.900    25999864.551 7 104690656.320 7        45.600    25999866.777 8 103359851.228 8        51.900
E13  25738812.555 7 135258366.796 7        44.300    25738836.172 7 101004630.268 7        45.500    25738831.176 7 103639510.488 7        46.000    25738833.449 8 102322094.486 8        52.000
E07  26407331.398 6 138771453.971 6        41.900    26407357.848 7 103628117.967 7        43.600    26407352.805 7 106331447.309 7        44.600
G27  22653433.031 6 119044586.145 6        39.500    22653449.531 6  92762084.437 6        36.900    22653450.148 7  92762005.426 7        42.600    22653454.547 7  88896917.349 7        47.300
G16  24454548.094 5 128509528.367 5        31.900    24454571.473 2 100137360.668 2        15.600
G14  25417548.992 5 133570073.391 5        33.700                                                    25417567.824 6 104080685.358 6        36.800    25417578.031 6  99744022.723 6        37.800
G09  21534116.719 7 113162542.755 7        45.500    21534132.375 7  88178655.924 7        45.900    21534132.520 7  88178599.920 7        45.400    21534137.906 8  84504489.259 8        51.000
G08  20355026.750 8 106966384.073 8        48.700    20355040.316 8  83350475.834 8        49.400    20355040.914 8  83350423.831 8        48.300    20355044.090 8  79877485.197 8        53.100
G07  22237203.063 7 116857289.372 7        45.400    22237215.156 7  91057673.275 7        42.100    22237215.348 7  91057622.273 7        44.000
G04  21944748.141 7 115320420.857 7        43.700    21944764.965 5  89860122.803 5        32.300    21944764.750 7  89860063.795 7        45.500    21944773.977 8  86115889.922 8        48.400
G02  21793518.852 7 114525714.473 7        45.500    21793532.336 5  89240861.520 5        34.900
G01  23134830.336 6 121574356.571 6        41.300    23134849.617 4  94733344.525 4        26.900    23134849.633 7  94733253.519 7        43.700    23134860.230 7  90786059.044 7        46.800
C11  23825388.758 6 124065047.944 6        41.500    23825397.133 7  95934920.414 7        45.000
C06  35963287.875 7 187270273.823 7        45.800    35963289.797 7 144809211.369 7        46.800
C05  38606592.453 6 201034659.386 6        36.100    38606601.145 6 155452783.184 6        40.100
C04  39233777.844 5 204300576.467 5        34.300    39233790.305 6 157978212.53416        37.900
C03  36230939.141 7 188663997.630 7        43.800    36230942.383 7 145886988.372 7        45.300
C02  36796136.086 6 191607136.152 6        40.300    36796139.164 7 148162803.223 7        44.600
C01  38018126.469 6 197970357.468 6        39.200    38018134.961 6 153083270.877 6        40.900
S27  38819899.375 7 203999935.971 7        42.400    38819909.660 7 152337635.314 7        44.100
S37  36834042.375 6 193564169.668 6        41.700
> 2025  2 28  3 28 34.0000000  0 36       0.000350950000
R23  23612482.641 6 126310853.836 6        38.900    23612481.277 6 126310812.836 6        37.000
R22  20395489.188 8 108872503.902 8        51.600    20395489.539 8 108872467.902 8        50.100    20395502.301 8  84678591.884 8        48.400    20395502.836 8  84678588.887 8        48.900
R21  20563236.508 8 110038032.631 8        50.400    20563236.258 8 110037992.637 8        48.200    20563249.074 7  85585111.098 7        46.300    20563249.613 7  85585108.097 7        46.900
R12  22661994.766 7 121056314.367 7        44.000    22661995.988 7 121056271.365 7        43.200    22662012.488 7  94154883.603 7        42.100    22662012.484 6  94154879.598 6        40.100
R11  21237402.766 8 113486236.648 8        48.600    21237403.059 7 113486194.651 7        47.200    21237415.441 7  88267049.774 7        45.800    21237416.000 7  88267046.767 7        45.700
R10  23412338.297 6 124800957.434 6        36.700    23412337.395 5 124800881.429 5        35.000
R08  23983014.656 6 128427953.851 6        38.100    23983015.152 6 128427910.856 6        36.300    23983037.184 6  99888458.965 6        37.900    23983038.027 6  99888459.964 6        37.200
R02  22957821.133 7 122507330.617 7        43.600    22957821.484 7 122507289.616 7        42.100    22957838.699 6  95283456.046 6        39.500    22957839.336 6  95283453.048 6        39.600
R01  22280746.406 7 119103347.553 7        43.300    22280746.328 7 119103305.565 7        42.000    22280764.043 6  92635909.701 6        37.100    22280765.457 6  92635905.697 6        36.400
G30  24901000.961 5 130855643.960 5        33.800    24901020.895 4 101965516.713 4        25.300    24901020.977 5 101965514.701 5        35.300    24901027.504 7  97716969.985 7        42.400
E30  28362972.188 6 149048429.324 6        37.400    28363004.355 6 111302504.215 6        39.300    28362997.703 6 114206027.553 6        38.400
E29  24360352.453 8 128014512.259 8        49.300    24360368.383 8  95595231.283 8        49.800    24360364.438 8  98089020.668 8        49.700    24360366.176 9  96842123.082 9        56.600
E27  25178332.320 7 132313025.401 7        46.400    25178349.254 7  98805162.270 7        47.200    25178345.027 7 101382688.003 7        47.700    25178346.902 9 100093922.746 9        54.200
E21  25526463.750 7 134142474.417 7        46.000    25526481.219 7 100171302.800 7        46.800    25526476.887 7 102784467.093 7        46.900    25526479.008 8 101477884.556 8        53.500
E19  25459775.336 6 133792022.267 6        39.300    25459792.449 6  99909613.973 6        40.500    25459788.766 6 102515941.312 6        40.900    25459790.438 7 101212769.250 7        46.600
E15  25999597.625 6 136628806.929 6        41.900    25999621.504 7 102028060.291 7        45.300    25999616.539 7 104689657.291 7        45.100    25999618.805 8 103358864.899 8        51.800
E13  25738200.367 7 135255148.748 7        44.000    25738223.902 7 101002227.185 7        45.300    25738218.977 7 103637044.716 7        46.000    25738221.254 8 102319660.059 8        51.900
E07  26407694.555 7 138773363.178 7        42.100    26407721.184 7 103629543.661 7        43.500    26407716.035 7 106332910.195 7        44.200
G27  22653884.680 6 119046962.190 6        39.700    22653902.063 6  92763935.896 6        36.400    22653902.902 7  92763856.887 7        42.500    22653907.043 7  88898691.661 7        47.000
G16  24454767.164 5 128510681.466 5        32.000    24454790.766 2 100138259.213 2        14.800
G14  25417055.445 5 133567481.151 5        33.600                                                    25417074.434 6 104078665.424 6        36.500    25417084.680 6  99742086.950 6        37.900
G09  21534211.781 7 113163042.452 7        45.800    21534227.207 7  88179045.293 7        45.800    21534227.109 7  88178989.288 7        45.600    21534232.641 8  84504862.401 8        50.900
G08  20355172.891 8 106967153.022 8        48.100    20355186.387 8  83351075.013 8        48.900    20355186.945 8  83351023.010 8        48.300    20355190.246 8  79878059.408 8        53.000
G07  22236514.930 7 116853673.493 7        45.500    22236526.906 6  91054855.709 6        41.900    22236527.086 7  91054804.711 7        44.100
G04  21945107.258 7 115322306.689 7        43.400    21945123.371 5  89861592.272 5        31.400    21945123.109 7  89861533.268 7        45.400    21945132.355 8  86117298.163 8        48.400
G02  21792913.750 7 114522534.007 7        44.800    21792927.047 5  89238383.240 5        34.900
G01  23134116.055 6 121570605.266 6        41.400    23134135.438 4  94730421.432 4        26.500    23134135.504 7  94730330.430 7        43.600    23134146.063 7  90783257.748 7        46.400
C11  23825620.273 6 124066253.531 6        41.100    23825628.777 7  95935852.644 7        45.100
C06  35963051.414 7 187269043.622 7        45.800    35963053.684 7 144808260.099 7        47.000
C05  38606426.680 5 201033795.669 5        35.700    38606435.469 6 155452115.300 6        39.500
C04  39233606.305 5 204299685.15215        34.200    39233618.996 6 157977523.29516        38.100
C03  36230767.922 7 188663105.551 7        43.700    36230771.059 7 145886298.556 7        45.300
C02  36795972.492 6 191606284.371 6        39.900    36795975.699 7 148162144.569 7        44.600
C01  38017957.070 6 197969476.654 6        39.200    38017965.469 6 153082589.773 6        41.100
S27  38819731.156 7 203999050.737 7        42.500    38819741.043 7 152336974.228 7        43.800
S37  36833873.922 6 193563278.526 6        41.600
> 2025  2 28  3 28 35.0000000  0 36       0.000350382000
R23  23611485.211 6 126305518.275 6        38.600    23611484.457 6 126305477.284 6        37.500
R22  20394783.102 8 108868734.900 8        51.900    20394783.539 8 108868698.905 8        49.800    20394796.258 7  84675660.441 7        47.700    20394796.703 8  84675657.444 8        48.300
R21  20563323.875 8 110038500.205 8        50.200    20563323.367 8 110038460.208 8        48.300    20563336.063 7  85585474.764 7        45.900    20563336.668 7  85585471.764 7        46.500
R12  22661478.961 7 121053559.876 7        43.900    22661480.430 7 121053516.876 7        43.300    22661496.715 6  94152741.228 6        41.900    22661496.914 6  94152737.223 6        40.100
R11  21237162.867 8 113484951.516 8        48.800    21237162.605 7 113484909.523 7        47.000    21237175.012 7  88266050.219 7        45.600    21237175.516 7  88266047.216 7        45.100
R10  23412400.898 6 124801299.603 6        36.800    23412401.672 5 124801223.599 5        35.500
R08  23983497.859 6 128430538.767 6        37.300    23983497.742 6 128430495.775 6        36.300    23983520.199 6  99890469.446 6        37.700    23983521.117 6  99890470.448 6        37.500
R02  22957589.867 7 122506091.129 7        43.800    22957589.137 7 122506050.134 7        42.200    22957606.441 6  95282492.002 6        39.000    22957607.137 6  95282489.001 6        39.600
R01  22281020.805 7 119104814.134 7        43.500    22281020.426 7 119104772.144 7        42.100    22281038.754 6  92637050.361 6        37.500    22281039.754 6  92637046.358 6        36.000
G30  24900212.242 5 130851502.538 5        33.500    24900233.035 4 101962289.636 4        25.300    24900233.078 5 101962287.627 5        35.300    24900239.609 7  97713877.366 7        42.400
E30  28363039.172 6 149048778.828 6        37.500    28363071.063 6 111302765.191 6        39.100    28363064.578 6 114206295.341 6        39.100
E29  24360404.922 8 128014787.127 8        49.200    24360420.785 8  95595436.535 8        49.500    24360416.816 8  98089231.275 8        49.700    24360418.570 9  96842331.014 9        56.700
E27  25178290.742 7 132312805.870 7        46.800    25178307.512 7  98804998.329 7        47.300    25178303.238 7 101382519.787 7        47.800    25178305.145 9 100093756.668 9        54.200
E21  25526209.766 7 134141139.499 7        45.700    25526227.160 7 100170305.945 7        47.000    25526222.723 7 102783444.232 7        47.100    25526224.859 8 101476874.696 8        53.500
E19  25459409.547 6 133790100.294 6        39.700    25459426.730 6  99908178.728 6        40.400    25459422.898 6 102514468.629 6        41.200    25459424.688 7 101211315.286 7        46.600
E15  25999349.430 6 136627503.581 6        41.800    25999373.328 7 102027087.011 7        45.600    25999368.285 7 104688658.623 7        45.100    25999370.594 8 103357878.926 8        51.800
E13  25737587.875 7 135251930.885 7        44.000    25737611.574 7 100999824.241 7        45.100    25737606.742 7 103634579.084 7        46.200    25737608.938 8 102317225.772 8        51.900
E07  26408057.852 7 138775272.477 7        42.100    26408084.477 7 103630969.423 7        44.000    26408079.410 7 106334373.154 7        44.800
G27  22654337.109 6 119049338.445 6        39.400    22654354.199 6  92765787.517 6        36.900    22654354.762 7  92765708.512 7        42.200    22654359.203 7  88900466.129 7        47.000
G16  24454987.320 5 128511834.492 5        31.300    24455010.285 2 100139157.606 2        14.800
G14  25416561.664 5 133564888.963 5        33.000                                                    25416580.688 6 104076645.539 6        36.800    25416591.059 6  99740151.223 6        38.100
G09  21534307.211 7 113163542.696 7        45.700    21534322.418 7  88179435.087 7        45.800    21534322.133 7  88179379.081 7        45.200    21534327.934 8  84505235.951 8        51.000
G08  20355319.359 8 106967922.486 8        48.300    20355332.734 8  83351674.593 8        49.100    20355333.160 7  83351622.589 7        47.600    20355336.641 8  79878634.006 8        53.000
G07  22235827.148 7 116850057.804 7        45.800    22235838.727 6  91052038.292 6        41.500    22235839.008 7  91051987.294 7        44.100
G04  21945466.258 7 115324192.856 7        43.500    21945482.465 5  89863062.006 5        32.100    21945482.176 7  89863003.000 7        45.600    21945491.457 8  86118706.654 8        48.300
G02  21792308.422 7 114519353.971 7        44.700    21792321.758 5  89235905.297 5        34.600
G01  23133401.867 6 121566854.071 6        41.300    23133421.863 4  94727498.427 4        26.200    23133421.504 7  94727407.424 7        43.400    23133432.309 7  90780456.540 7        46.400
C11  23825852.344 6 124067459.571 6        41.500    23825860.320 7  95936785.226 7        44.900
C06  35962815.289 7 187267813.587 7        46.200    35962817.660 7 144807308.956 7        47.000
C05  38606261.086 6 201032931.999 6        36.200    38606269.730 6 155451447.451 6        39.500
C04  39233435.398 5 204298793.907 5        34.700    39233447.930 6 157976834.103 6        38.100
C03  36230596.516 7 188662213.521 7        44.200    36230599.734 7 145885608.779 7        45.700
C02  36795808.992 6 191605432.621 6        40.400    36795812.184 7 148161485.937 7        44.700
C01  38017787.766 6 197968595.890 6        39.600    38017796.445 6 153081908.707 6        40.900
S27  38819562.375 7 203998165.497 7        42.200    38819572.859 7 152336313.119 7        44.100
S37  36833703.125 6 193562387.450 6        41.800
> 2025  2 28  3 28 36.0000000  0 36       0.000349815000
R23  23610488.258 6 126300182.800 6        38.500    23610487.535 6 126300141.799 6        36.700
R22  20394076.711 8 108864966.554 8        51.900    20394077.965 8 108864930.557 8        49.500    20394090.719 7  84672729.508 7        44.900    20394091.250 7  84672726.514 7        45.300
R21  20563411.930 8 110038968.665 8        50.300    20563411.137 8 110038928.669 8        48.000    20563423.664 7  85585839.117 7        44.100    20563424.488 7  85585836.120 7        43.500
R12  22660963.898 7 121050805.314 7        43.600    22660964.461 7 121050762.314 7        43.300    22660980.785 6  94150598.800 6        40.800    22660980.852 6  94150594.792 6        39.400
R11  21236922.141 8 113483666.519 8        48.400    21236921.879 7 113483624.520 7        46.700    21236934.215 7  88265050.773 7        43.700    21236934.680 7  88265047.773 7        42.900
R10  23412465.078 6 124801641.998 6        37.300    23412466.258 5 124801566.005 5        34.700
R08  23983979.813 6 128433123.463 6        37.300    23983980.438 5 128433080.466 5        35.500    23984002.707 6  99892479.752 6        37.700    23984003.527 6  99892480.756 6        36.500
R02  22957356.977 7 122504852.398 7        43.500    22957357.719 7 122504811.399 7        42.100    22957374.676 6  95281528.546 6        38.200    22957375.543 6  95281525.546 6        38.100
R01  22281295.461 7 119106281.137 7        43.900    22281294.676 7 119106239.149 7        42.400    22281313.367 6  92638191.348 6        36.300    22281314.008 5  92638187.346 5        35.700
G30  24899423.781 5 130847361.104 5        33.600    24899444.934 4 101959062.549 4        24.300    24899444.918 5 101959060.545 5        34.200    24899451.438 6  97710784.741 6        41.600
E30  28363105.141 6 149049128.281 6        37.300    28363137.500 6 111303026.130 6        38.200    28363131.035 6 114206563.086 6        38.300
E29  24360457.328 8 128015062.428 8        49.500    24360473.285 8  95595642.113 8        49.200    24360469.293 8  98089442.216 8        48.800    24360471.020 9  96842539.273 9        56.400
E27  25178248.930 7 132312586.324 7        46.400    25178265.730 7  98804834.380 7        46.900    25178261.395 7 101382351.562 7        46.200    25178263.340 8 100093590.580 8        53.900
E21  25525955.773 7 134139804.619 7        46.100    25525973.188 7 100169309.119 7        46.100    25525968.793 7 102782421.401 7        45.600    25525970.813 8 101475864.869 8        53.200
E19  25459043.539 6 133788178.801 6        39.200    25459061.223 6  99906743.846 6        39.300    25459057.266 6 102512996.313 6        39.700    25459059.000 7 101209861.686 7        46.400
E15  25999101.820 6 136626200.693 6        41.900    25999125.488 7 102026114.077 7        44.500    25999120.441 7 104687660.305 7        43.800    25999122.789 8 103356893.298 8        51.600
E13  25736975.445 7 135248713.199 7        43.600    25736999.270 7 100997421.432 7        44.400    25736994.355 7 103632113.591 7        44.200    25736996.605 8 102314791.620 8        51.700
E07  26408421.180 7 138777181.877 7        42.100    26408447.676 7 103632395.266 7        43.100    26408442.723 7 106335836.194 7        43.400
G27  22654788.586 6 119051714.926 6        39.600    22654806.207 5  92767639.315 5        35.600    22654806.750 6  92767560.312 6        40.700    22654811.082 7  88902240.768 7        46.800
G16  24455206.867 5                        31.500
G14  25416068.289 5 133562296.834 5        33.400                                                    25416087.602 5 104074625.697 5        35.800    25416097.895 6  99738215.541 6        38.000
G09  21534402.602 7 113164043.482 7        45.700    21534417.934 7  88179825.304 7        45.400    21534417.719 7  88179769.301 7        43.900    21534423.477 8  84505609.909 8        50.800
G08  20355465.742 7 106968692.450 7        47.800    20355479.465 8  83352274.567 8        48.800    20355480.055 7  83352222.561 7        46.500    20355483.340 8  79879208.978 8        52.800
G07  22235139.172 7 116846442.335 7        45.800    22235151.105 6  91049221.045 6        40.800    22235151.270 7  91049170.048 7        42.300
G04  21945824.742 7 115326079.357 7        43.000    21945841.258 5  89864531.996 5        31.400    21945841.102 7  89864472.994 7        43.900    21945850.344 8  86120115.396 8        48.200
G02  21791703.523 7 114516174.347 7        44.700    21791716.938 5  89233427.673 5        33.800
G01  23132688.234 6 121563102.990 6        40.900    23132708.281 4  94724575.509 4        26.200    23132708.156 7  94724484.513 7        42.100    23132718.742 7  90777655.420 7        46.100
C11  23826083.813 6 124068666.053 6        41.400    23826091.879 7  95937718.150 7        43.900
C06  35962579.125 7 187266583.703 7        45.900    35962581.309 7 144806357.931 7        46.000
C05  38606095.102 5 201032068.398 5        35.300    38606103.582 6 155450779.659 6        39.000
C04  39233264.352 5 204297902.724 5        34.800    39233276.711 6 157976144.968 6        37.400
C03  36230425.641 7 188661321.543 7        43.800    36230428.578 7 145884919.043 7        44.200
C02  36795645.422 6 191604580.914 6        40.100    36795648.602 7 148160827.344 7        43.700
C01  38017619.008 6 197967715.180 6        39.200    38017627.438 6 153081227.687 6        40.200
S27  38819394.016 6 203997280.222 6        41.900    38819404.172 7 152335652.006 7        42.800
S37  36833529.891 6 193561496.424 6        41.800
> 2025  2 28  3 28 37.0000000  0 36       0.000349249000
R23  23609490.094 6 126294847.384 6        38.200    23609489.750 6 126294806.384 6        37.200
R22  20393370.789 8 108861198.898 8        51.700    20393371.391 8 108861162.905 8        49.800    20393384.082 7  84669799.106 7        45.700    20393384.652 7  84669796.115 7        45.300
R21  20563498.922 8 110039438.033 8        50.300    20563499.234 8 110039398.036 8        48.200    20563512.020 7  85586204.180 7        44.300    20563512.625 7  85586201.182 7        44.000
R12  22660448.039 7 121048050.672 7        43.700    22660449.070 7 121048007.669 7        43.600    22660465.313 6  94148456.304 6        40.800    22660465.602 6  94148452.299 6        39.900
R11  21236681.430 8 113482381.649 8        48.600    21236681.555 7 113482339.649 7        46.800    21236694.188 7  88264051.425 7        43.900    21236694.250 7  88264048.425 7        43.100
R10  23412531.141 6 124801984.640 6        37.300    23412530.320 5 124801908.634 5        35.100
R08  23984463.273 6 128435708.006 6        37.300    23984463.535 5 128435665.019 5        35.400    23984485.688 6  99894489.938 6        38.100    23984486.551 6  99894490.945 6        37.000
R02  22957124.203 7 122503614.472 7        43.300    22957125.652 7 122503573.473 7        42.400    22957142.402 6  95280565.717 6        38.700    22957143.418 6  95280562.715 6        39.100
R01  22281569.063 7 119107748.589 7        44.500    22281569.379 7 119107706.599 7        42.100    22281587.918 6  92639332.689 6        36.900    22281588.969 6  92639328.686 6        36.300
G30  24898637.023 5 130843219.669 5        34.300    24898656.762 4 101955835.457 4        24.500    24898656.691 5 101955833.454 5        34.200    24898663.211 7  97707692.109 7        42.000
E30  28363171.844 6 149049477.741 6        37.500    28363203.965 6 111303287.078 6        38.400    28363197.461 6 114206830.846 6        38.100
E29  24360509.820 8 128015338.176 8        49.200    24360525.680 8  95595848.024 8        49.400    24360521.680 8  98089653.499 8        49.200    24360523.387 9  96842747.870 9        56.700
E27  25178207.164 7 132312366.775 7        46.300    25178223.902 7  98804670.428 7        47.100    25178219.711 7 101382183.334 7        46.800    25178221.598 9 100093424.489 9        54.300
E21  25525701.844 7 134138469.802 7        45.400    25525719.246 7 100168312.340 7        46.300    25525714.867 7 102781398.622 7        46.000    25525716.977 8 101474855.090 8        53.500
E19  25458678.195 6 133786257.782 6        39.700    25458695.727 6  99905309.312 6        39.300    25458691.895 6 102511524.358 6        40.200    25458693.543 7 101208408.443 7        46.500
E15  25998854.078 6 136624898.288 6        41.900    25998877.664 7 102025141.505 7        44.800    25998872.418 7 104686662.362 7        44.100    25998874.863 8 103355908.041 8        51.800
E13  25736363.227 7 135245495.699 7        43.400    25736386.809 7 100995018.757 7        44.900    25736382.016 7 103629648.237 7        44.600    25736384.262 8 102312357.606 8        52.000
E07  26408784.867 6 138779091.376 6        41.900    26408811.301 7 103633821.177 7        43.300    26408806.188 7 106337299.307 7        43.100
G27  22655240.648 6 119054091.632 6        39.700    22655258.508 5  92769491.289 5        35.700    22655258.859 6  92769412.285 6        41.400    22655263.309 7  88904015.573 7        47.100
G16  24455425.766 5                        31.600
G14  25415574.016 5 133559704.788 5        32.600                                                    25415594.707 6 104072605.919 6        36.400    25415605.031 6  99736279.925 6        38.200
G09  21534497.836 7 113164544.828 7        45.400    21534513.367 7  88180215.958 7        45.700    21534513.090 7  88180159.955 7        44.600    21534518.832 8  84505984.287 8        51.000
G08  20355612.711 8 106969462.935 8        48.000    20355626.145 8  83352874.942 8        49.300    20355626.633 7  83352822.938 7        46.900    20355630.020 8  79879784.338 8        53.100
G07  22234451.281 7 116842827.018 7        45.900    22234463.141 6  91046403.909 6        41.400    22234463.027 7  91046352.910 7        42.900
G04  21946183.727 7 115327966.203 7        43.200    21946200.430 5  89866002.256 5        31.400    21946200.270 7  89865943.254 7        44.600    21946209.441 8  86121524.395 8        48.400
G02  21791099.094 7 114512995.184 7        45.100    21791112.051 5  89230950.407 5        34.900
G01  23131974.570 6 121559352.033 6        40.900    23131994.230 4  94721652.697 4        26.800    23131994.520 7  94721561.697 7        42.200    23132004.652 7  90774854.392 7        46.500
C11  23826315.820 6 124069873.003 6        41.700    23826323.828 7  95938651.440 7        44.000
C06  35962342.945 7 187265353.997 7        45.500    35962344.980 7 144805407.044 7        45.900
C05  38605929.711 5 201031204.842 5        35.500    38605937.980 6 155450111.902 6        39.200
C04  39233093.570 5 204297011.596 5        34.700    39233105.594 6 157975455.877 6        38.100
C03  36230254.063 7 188660429.625 7        43.700    36230257.230 7 145884229.353 7        44.300
C02  36795481.898 6 191603729.274 6        40.000    36795485.023 7 148160168.803 7        44.100
C01  38017449.680 6 197966834.525 6        39.000    38017458.340 6 153080546.709 6        40.400
S27  38819225.391 7 203996394.989 7        42.000    38819235.695 7 152334990.911 7        43.000
S37  36833362.828 6 193560605.451 6        41.600
> 2025  2 28  3 28 38.0000000  0 36       0.000348682000
R23  23608492.352 6 126289511.994 6        38.400    23608492.238 6 126289470.992 6        36.800
R22  20392665.375 8 108857431.878 8        52.100    20392665.961 8 108857395.883 8        49.900    20392678.859 7  84666869.200 7        46.700    20392679.148 7  84666866.213 7        46.200
R21  20563586.547 8 110039908.276 8        50.600    20563587.004 8 110039868.280 8        48.600    20563599.539 7  85586569.920 7        45.000    20563600.426 7  85586566.922 7        44.900
R12  22659932.336 7 121045295.874 7        43.600    22659933.043 7 121045252.873 7        43.500    22659949.336 6  94146313.678 6        41.300    22659949.746 6  94146309.677 6        40.200
R11  21236441.430 8 113481096.851 8        48.500    21236441.063 7 113481054.858 7        47.200    21236453.832 7  88263052.135 7        44.600    21236453.961 7  88263049.133 7        43.700
R10  23412594.727 6 124802327.464 6        37.000    23412594.199 5 124802251.476 5        35.000
R08  23984946.359 6 128438292.339 6        38.100    23984946.395 5 128438249.358 5        35.900    23984968.492 6  99896499.964 6        38.100    23984969.293 6  99896500.969 6        37.400
R02  22956893.156 7 122502377.326 7        43.200    22956893.906 7 122502336.320 7        42.100    22956910.781 6  95279603.489 6        39.500    22956911.570 6  95279600.487 6        39.400
R01  22281842.844 7 119109216.428 7        43.700    22281844.023 6 119109174.443 6        41.900    22281862.203 6  92640474.328 6        37.200    22281863.457 6  92640470.326 6        36.100
G30  24897849.344 5 130839078.205 5        33.800    24897868.824 4 101952608.337 4        25.600    24897868.504 5 101952606.337 5        34.900    24897875.230 7  97704599.454 7        42.100
E30  28363238.039 6 149049827.130 6        37.500    28363270.336 6 111303547.971 6        38.600    28363263.988 6 114207098.547 6        38.700
E29  24360562.406 8 128015614.333 8        49.300    24360578.297 8  95596054.238 8        49.700    24360574.203 8  98089865.094 8        49.600    24360576.016 9  96842956.774 9        56.800
E27  25178165.406 7 132312147.190 7        46.200    25178182.238 7  98804506.447 7        47.300    25178177.887 7 101382015.075 7        47.200    25178179.848 9 100093258.369 9        54.200
E21  25525447.719 7 134137134.997 7        45.300    25525465.016 7 100167315.570 7        46.500    25525460.781 7 102780375.848 7        46.700    25525462.840 8 101473845.316 8        53.600
E19  25458312.961 6 133784337.196 6        39.500    25458330.082 6  99903875.106 6        39.500    25458326.363 6 102510052.739 6        40.500    25458328.066 7 101206955.529 7        46.600
E15  25998606.016 7 136623596.328 7        42.000    25998629.965 7 102024169.261 7        45.100    25998624.938 7 104685664.755 7        44.600    25998627.262 8 103354923.117 8        51.900
E13  25735751.078 7 135242278.355 7        43.200    25735774.875 7 100992616.199 7        45.200    25735769.914 7 103627183.003 7        45.200    25735772.109 8 102309923.710 8        52.100
E07  26409148.203 6 138781000.941 6        41.600    26409174.656 7 103635247.137 7        43.500    26409169.543 7 106338762.466 7        43.700
G27  22655693.297 6 119056468.536 6        40.000    22655711.133 6  92771343.409 6        36.000    22655711.324 6  92771264.404 6        41.600    22655715.938 7  88905790.519 7        47.200
G16  24455645.867 5                        31.800
G14  25415081.438 5                        33.400
G09  21534593.148 7 113165046.710 7        45.600    21534609.059 7  88180607.030 7        45.700    21534608.988 7  88180551.030 7        44.900    21534614.461 8  84506359.063 8        51.100
G08  20355759.602 8 106970233.900 8        48.200    20355772.922 8  83353475.689 8        49.500    20355773.375 7  83353423.685 7        47.500    20355776.863 8  79880360.054 8        53.300
G07  22233763.492 7 116839211.901 7        45.700    22233775.113 6  91043586.940 6        41.600    22233775.094 7  91043535.940 7        43.600
G04  21946542.641 7 115329853.355 7        43.100    21946559.793 5  89867472.753 5        31.900    21946559.555 7  89867413.749 7        45.100    21946568.789 8  86122933.620 8        48.600
G02  21790493.844 7 114509816.417 7        44.700    21790506.945 5  89228473.446 5        35.500
G01  23131260.516 6 121555601.165 6        40.900    23131280.598 4  94718729.954 4        27.600    23131280.871 7  94718638.953 7        42.700    23131291.051 7  90772053.428 7        46.600
C11  23826547.391 6 124071080.350 6        41.400    23826555.586 7  95939585.029 7        44.300
C06  35962106.883 7 187264124.420 7        45.300    35962109.078 7 144804456.253 7        46.400
C05  38605763.570 5 201030341.321 5        35.800    38605772.160 6 155449444.168 6        39.000
C04  39232922.320 5 204296120.495 5        34.500    39232934.387 6 157974766.816 6        38.500
C03  36230083.008 7 188659537.726 7        43.800    36230085.891 7 145883539.674 7        44.900
C02  36795318.578 6 191602877.649 6        40.100    36795321.672 7 148159510.264 7        44.500
C01  38017280.336 6 197965953.902 6        39.400    38017289.168 6 153079865.754 6        41.100
S27  38819057.719 7 203995509.842 7        42.200    38819067.508 7 152334329.889 7        43.300
S37  36833195.750 7 193559714.501 7        42.100
> 2025  2 28  3 28 39.0000000  0 36       0.000348118000
R23  23607494.461 6 126284176.622 6        38.800    23607494.609 6 126284135.634 6        37.400
R22  20391960.406 8 108853665.505 8        51.900    20391960.484 8 108853629.511 8        50.000    20391973.207 7  84663939.807 7        47.000    20391973.766 7  84663936.816 7        46.800
R21  20563675.227 8 110040379.406 8        50.700    20563674.805 8 110040339.409 8        48.600    20563687.316 7  85586936.349 7        45.000    20563688.227 7  85586933.351 7        45.500
R12  22659416.141 7 121042540.949 7        43.700    22659417.145 7 121042497.955 7        43.800    22659433.805 6  94144170.960 6        41.500    22659433.824 6  94144166.958 6        39.900
R11  21236200.063 8 113479812.179 8        48.600    21236200.996 7 113479770.186 7        46.900    21236213.398 7  88262052.946 7        44.900    21236213.691 7  88262049.944 7        44.000
R10  23412657.688 6 124802670.512 6        36.800    23412658.590 5 124802594.508 5        35.100
R08  23985428.563 6 128440876.487 6        37.700    23985428.828 6 128440833.507 6        36.200    23985451.742 6  99898509.852 6        38.000    23985452.043 6  99898510.854 6        37.300
R02  22956661.367 7 122501140.959 7        43.700    22956661.379 7 122501099.960 7        42.400    22956678.715 6  95278641.866 6        39.500    22956679.188 6  95278638.862 6        39.300
R01  22282117.742 7 119110684.670 7        43.600    22282118.680 7 119110642.684 7        42.100    22282137.023 6  92641616.280 6        36.900    22282138.000 6  92641612.279 6        36.400
G30  24897061.148 5 130834936.709 5        33.800    24897080.402 4 101949381.187 4        24.600    24897080.277 5 101949379.189 5        34.600    24897086.934 6  97701506.775 6        41.900
E30  28363304.867 6 149050176.493 6        37.400    28363336.801 6 111303808.845 6        38.200    28363330.527 6 114207366.230 6        38.900
E29  24360614.992 8 128015890.907 8        49.300    24360630.914 8  95596260.764 8        49.900    24360626.910 8  98090077.007 8        49.500    24360628.676 9  96843165.994 9        56.700
E27  25178123.586 7 132311927.580 7        46.600    25178140.406 7  98804342.446 7        47.500    25178136.211 7 101381846.798 7        47.100    25178138.156 9 100093092.231 9        54.300
E21  25525193.664 7 134135800.219 7        45.400    25525211.250 7 100166318.818 7        46.500    25525206.809 7 102779353.094 7        47.000    25525208.902 8 101472835.565 8        53.500
E19  25457947.313 6 133782417.058 6        39.400    25457964.898 6  99902441.233 6        39.700    25457961.027 6 102508581.459 6        40.200    25457962.727 7 101205502.954 7        46.800
E15  25998358.758 6 136622294.819 6        41.400    25998382.277 7 102023197.351 7        44.900    25998377.246 7 104684667.494 7        44.800    25998379.590 8 103353938.532 8        51.800
E13  25735138.781 7 135239061.177 7        43.400    25735162.367 7 100990213.765 7        45.100    25735157.641 7 103624717.899 7        45.500    25735159.824 8 102307489.941 8        52.000
E07  26409511.648 6 138782910.583 6        41.600    26409538.191 7 103636673.153 7        43.700    26409532.980 7 106340225.682 7        44.200
G27  22656146.242 6 119058845.644 6        39.900    22656163.621 6  92773195.689 6        36.400    22656164.000 6  92773116.682 6        41.500    22656168.438 7  88907565.621 7        47.000
G16  24455865.328 5                        32.000
G14  25414588.102 5 133554520.655 5        33.300                                                    25414607.711 6 104068566.34516        36.700    25414618.074 6  99732408.66216        37.600
G09  21534688.531 7 113165549.118 7        45.700    21534704.441 7  88180998.509 7        45.500    21534704.402 7  88180942.510 7        45.200    21534709.820 8  84506734.228 8        50.900
G08  20355906.313 8 106971005.356 8        48.700    20355919.543 8  83354076.820 8        49.200    20355920.203 7  83354024.817 7        47.800    20355923.469 8  79880936.137 8        53.000
G07  22233075.227 7 116835596.960 7        45.600    22233087.090 6  91040770.105 6        41.400    22233087.211 7  91040719.107 7        43.700
G04  21946901.938 7 115331740.824 7        43.000    21946919.066 5  89868943.496 5        32.200    21946918.574 7  89868884.493 7        45.200    21946927.852 8  86124343.076 8        48.400
G02  21789888.828 7 114506638.064 7        44.600    21789902.195 5  89225996.806 5        34.700
G01  23130547.359 6 121551850.402 6        41.000    23130566.895 4  94715807.289 4        27.200    23130567.129 7  94715716.287 7        42.800    23130577.234 7  90769252.542 7        46.700
C11  23826779.789 6 124072288.136 6        41.800    23826787.523 7  95940518.955 7        44.500
C06  35961870.766 7 187262894.994 7        45.800    35961872.973 7 144803505.580 7        47.000
C05  38605597.844 5 201029477.829 5        35.600    38605606.379 6 155448776.455 6        39.000
C04  39232751.469 5 204295229.422 5        34.800    39232763.379 6 157974077.779 6        38.300
C03  36229911.820 7 188658645.863 7        43.900    36229914.637 7 145882850.025 7        45.100
C02  36795154.609 6 191602026.077 6        40.200    36795158.078 7 148158851.771 7        44.400
C01  38017111.547 6 197965073.313 6        39.500    38017119.930 6 153079184.822 6        41.300
S27  38818889.438 7 203994624.756 7        42.500    38818898.664 7 152333668.940 7        43.700
S37  36833025.641 6 193558823.610 6        41.600
> 2025  2 28  3 28 40.0000000  0 36       0.000347551000
R23  23606498.570 6 126278841.383 6        39.200    23606497.918 6 126278800.382 6        37.600
R22  20391254.531 8 108849899.843 8        51.700    20391255.039 8 108849863.849 8        49.700    20391267.754 7  84661010.966 7        46.800    20391268.344 7  84661007.972 7        46.700
R21  20563763.344 8 110040851.485 8        50.700    20563763.223 8 110040811.488 8        48.800    20563775.746 7  85587303.521 7        44.900    20563776.656 7  85587300.522 7        45.700
R12  22658900.188 7 121039785.998 7        44.100    22658901.477 7 121039743.003 7        44.000    22658917.938 6  94142028.228 6        41.800    22658918.047 6  94142024.223 6        40.200
R11  21235959.359 8 113478527.671 8        48.400    21235959.969 7 113478485.675 7        46.900    21235972.770 7  88261053.885 7        45.100    21235972.852 7  88261050.881 7        44.500
R10  23412722.609 6 124803013.793 6        36.500    23412723.352 5 124802937.811 5        35.500
R08  23985910.688 6 128443460.513 6        37.600    23985911.465 6 128443417.533 6        36.700    23985934.461 6  99900519.648 6        37.700    23985934.781 6  99900520.649 6        37.500
R02  22956430.352 7 122499905.435 7        43.200    22956430.383 7 122499864.434 7        42.700    22956447.172 6  95277680.899 6        39.400    22956448.074 6  95277677.898 6        39.100
R01  22282392.297 7 119112153.372 7        43.400    22282393.730 6 119112111.387 6        41.800    22282412.059 6  92642758.588 6        37.100    22282413.199 6  92642754.592 6        36.800
G30  24896273.094 5 130830795.238 5        33.200    24896292.172 4 101946154.066 4        24.000    24896292.180 5 101946152.061 5        34.800    24896298.652 7  97698414.116 7        42.200
E30  28363371.336 6 149050525.863 6        37.100    28363403.051 6 111304069.721 6        38.500    28363396.934 6 114207633.914 6        38.900
E29  24360667.758 8 128016167.960 8        49.200    24360683.594 8  95596467.648 8        49.900    24360679.574 8  98090289.289 8        49.500    24360681.355 9  96843375.577 9        56.800
E27  25178081.805 7 132311707.997 7        46.600    25178098.563 7  98804178.469 7        47.100    25178094.348 7 101381678.542 7        47.100    25178096.246 9 100092926.112 9        54.300
E21  25524939.688 7 134134465.528 7        45.100    25524957.125 7 100165322.133 7        46.700    25524952.801 7 102778330.406 7        46.900    25524954.883 8 101471825.877 8        53.600
E19  25457582.086 6 133780497.459 6        39.400    25457599.547 6  99901007.767 6        39.800    25457595.633 6 102507110.597 6        40.500    25457597.379 7 101204050.788 7        46.600
E15  25998111.031 6 136620993.822 6        41.400    25998134.602 7 102022225.825 7        44.900    25998129.570 7 104683670.622 7        45.000    25998131.895 8 103352954.332 8        51.800
E13  25734526.703 7 135235844.234 7        43.500    25734550.199 7 100987811.508 7        45.200    25734545.418 7 103622252.972 7        45.400    25734547.609 8 102305056.348 8        52.000
E07  26409874.906 6 138784820.360 6        41.700    26409901.633 7 103638099.270 7        43.400    26409896.387 7 106341689.005 7        44.100
G27  22656598.094 6 119061223.004 6        40.600    22656615.582 6  92775048.166 6        36.200    22656616.012 6  92774969.157 6        41.900    22656620.484 7  88909340.908 7        47.200
G16  24456086.055 5 128517599.611 5        31.800    24456107.461 2 100143649.88912        16.300
G14  25414096.078 5 133551928.728 5        32.400                                                    25414115.023 6 104066546.666 6        37.100    25414125.281 6  99730473.138 6        38.400
G09  21534784.211 7 113166052.129 7        46.300    21534800.012 7  88181390.459 7        45.700    21534800.133 7  88181334.458 7        45.600    21534805.586 8  84507109.843 8        51.100
G08  20356053.023 8 106971777.359 8        49.100    20356066.379 8  83354678.377 8        49.400    20356066.664 7  83354626.374 7        47.900    20356070.184 8  79881512.627 8        53.100
G07  22232387.617 7 116831982.265 7        45.900    22232399.066 6  91037953.463 6        41.400    22232399.012 7  91037902.464 7        44.200
G04  21947261.195 7 115333628.667 7        43.200    21947278.180 5  89870414.529 5        31.800    21947277.668 7  89870355.527 7        45.500    21947287.113 8  86125752.815 8        48.600
G02  21789284.031 7 114503460.182 7        44.500    21789297.211 5  89223520.537 5        34.900
G01  23129833.789 6 121548099.796 6        41.000    23129853.188 4  94712884.745 4        27.600    23129853.359 7  94712793.744 7        43.100    23129863.516 7  90766451.770 7        46.700
C11  23827011.523 7 124073496.421 7        42.000    23827019.875 7  95941453.273 7        44.700
C06  35961634.797 7 187261665.757 7        46.400    35961636.863 7 144802555.055 7        47.000
C05  38605432.070 6 201028614.446 6        36.100    38605440.551 6 155448108.828 6        39.100
C04  39232580.289 5 204294338.434 5        34.900    39232592.215 6 157973388.808 6        38.700
C03  36229740.664 7 188657754.094 7        44.200    36229743.352 7 145882160.451 7        44.900
C02  36794990.898 6 191601174.585 6        40.500    36794994.469 7 148158193.341 7        44.300
C01  38016942.398 6 197964192.801 6        39.800    38016951.016 6 153078503.952 6        40.900
S27  38818719.438 7 203993739.796 7        42.200    38818730.563 7 152333008.136 7        43.900
S37  36832862.219 6 193557932.799 6        41.700
> 2025  2 28  3 28 41.0000000  0 36       0.000346985000
R23  23605502.148 6 126273506.187 6        39.600    23605500.617 6 126273465.187 6        37.300
R22  20390549.336 8 108846134.842 8        51.700    20390549.621 8 108846098.851 8        49.800    20390562.523 7  84658082.639 7        47.100    20390562.852 7  84658079.643 7        46.800
R21  20563851.859 8 110041324.485 8        50.500    20563851.746 8 110041284.488 8        48.700    20563864.504 7  85587671.408 7        45.300    20563865.141 7  85587668.406 7        45.700
R12  22658385.391 7 121037030.973 7        44.500    22658385.664 7 121036987.975 7        43.700    22658401.895 6  94139885.437 6        41.300    22658402.406 6  94139881.429 6        40.400
R11  21235719.391 8 113477243.276 8        48.200    21235719.879 7 113477201.283 7        47.100    21235732.547 7  88260054.909 7        45.000    21235732.609 7  88260051.904 7        44.700
R10  23412787.453 6 124803357.343 6        36.600    23412787.719 5 124803281.345 5        35.000
R08  23986393.055 6 128446044.353 6        37.700    23986393.809 6 128446001.371 6        36.600    23986416.762 6  99902529.297 6        37.400    23986417.133 6  99902530.299 6        37.200
R02  22956198.227 7 122498670.666 7        42.600    22956199.359 7 122498629.669 7        42.600    22956216.051 6  95276720.523 6        39.200    22956217.004 6  95276717.520 6        39.200
R01  22282667.141 7 119113622.492 7        43.200    22282668.457 7 119113580.499 7        42.300    22282686.918 6  92643901.222 6        36.800    22282688.180 6  92643897.225 6        36.200
G30  24895484.922 5 130826653.765 5        33.300    24895504.406 4 101942926.946 4        24.700    24895504.254 5 101942924.938 5        34.500    24895510.859 7  97695321.459 7        42.100
E30  28363437.750 6 149050875.206 6        37.600    28363469.293 6 111304330.579 6        38.500    28363463.441 6 114207901.578 6        39.200
E29  24360720.516 8 128016445.445 8        49.800    24360736.473 8  95596674.853 8        49.500    24360732.551 8  98090501.903 8        49.000    24360734.238 9  96843585.486 9        56.700
E27  25178040.016 7 132311488.407 7        46.600    25178056.883 7  98804014.484 7        47.200    25178052.516 7 101381510.278 7        47.000    25178054.473 9 100092759.989 9        54.300
E21  25524685.633 7 134133130.872 7        45.300    25524703.090 7 100164325.472 7        46.400    25524698.648 7 102777307.745 7        46.800    25524700.813 8 101470816.216 8        53.500
E19  25457217.000 6 133778578.298 6        38.800    25457234.352 6  99899574.622 6        39.600    25457230.371 6 102505640.067 6        40.200    25457232.207 7 101202598.951 7        46.500
E15  25997863.656 6 136619693.279 6        41.400    25997887.195 7 102021254.639 7        45.100    25997882.023 7 104682674.100 7        44.600    25997884.469 8 103351970.476 8        51.800
E13  25733914.484 7 135232627.460 7        43.400    25733938.211 7 100985409.378 7        44.900    25733933.445 7 103619788.178 7        45.400    25733935.605 8 102302622.885 8        52.000
E07  26410238.242 7 138786730.228 7        42.100    26410265.137 7 103639525.456 7        43.300    26410259.824 7 106343152.397 7        44.200
G27  22657051.031 6 119063600.584 6        40.100    22657068.305 6  92776900.817 6        36.600    22657068.605 6  92776821.807 6        41.600    22657073.250 7  88911116.363 7        47.200
G16  24456304.789 5 128518752.583 5        32.300    24456326.984 2 100144548.297 2        15.600
G14  25413602.094 5 133549336.870 5        33.200                                                    25413621.863 6 104064527.034 6        37.000    25413631.797 6  99728537.657 6        38.300
G09  21534879.945 7 113166555.677 7        46.000    21534895.816 7  88181782.825 7        45.400    21534896.098 7  88181726.823 7        45.300    21534901.266 8  84507485.861 8        51.100
G08  20356200.078 8 106972549.872 8        49.100    20356213.457 8  83355280.333 8        49.300    20356214.074 7  83355228.330 7        47.800    20356217.309 8  79882089.503 8        53.100
G07  22231699.969 7 116828367.761 7        45.800    22231711.457 6  91035136.970 6        41.600    22231711.246 7  91035085.970 7        43.800
G04  21947620.266 7 115335516.840 7        43.200    21947637.406 5  89871885.823 5        31.900    21947637.109 7  89871826.822 7        45.300    21947646.379 8  86127162.802 8        48.600
G02  21788679.797 7 114500282.728 7        44.700    21788693.082 5  89221044.608 5        34.700
G01  23129119.938 6 121544349.302 6        41.600    23129139.512 4  94709962.283 4        26.500    23129139.508 7  94709871.282 7        42.700    23129149.730 7  90763651.078 7        46.600
C11  23827243.172 6 124074705.150 6        41.200    23827251.871 7  95942387.932 7        44.200
C06  35961398.711 7 187260436.683 7        46.300    35961400.750 7 144801604.654 7        46.700
C05  38605266.547 5 201027751.099 5        35.800    38605274.879 6 155447441.228 6        38.900
C04  39232409.148 5 204293447.495 5        34.300    39232421.148 6 157972699.874 6        38.800
C03  36229569.242 7 188656862.373 7        43.900    36229572.133 7 145881470.915 7        44.600
C02  36794827.750 6 191600323.136 6        40.400    36794831.008 7 148157534.945 7        44.600
C01  38016773.328 6 197963312.351 6        39.600    38016781.750 6 153077823.128 6        41.400
S27  38818551.672 6 203992854.865 6        41.600    38818562.430 7 152332347.380 7        44.400
S37  36832683.391 6 193557042.038 6        41.800
> 2025  2 28  3 28 42.0000000  0 36       0.000346418000
R23  23604504.070 6 126268171.102 6        38.700    23604503.695 6 126268130.102 6        37.200
R22  20389843.953 8 108842370.560 8        51.900    20389844.570 8 108842334.567 8        49.700    20389857.574 7  84655154.872 7        46.400    20389857.840 7  84655151.875 7        46.200
R21  20563940.516 8 110041798.434 8        50.500    20563940.492 8 110041758.435 8        48.500    20563953.074 7  85588040.032 7        44.700    20563953.645 7  85588037.032 7        45.500
R12  22657869.375 7 121034275.898 7        44.400    22657870.051 7 121034232.906 7        43.800    22657886.188 6  94137742.608 6        41.500    22657886.934 6  94137738.599 6        40.400
R11  21235478.805 8 113475959.076 8        48.200    21235479.531 7 113475917.081 7        46.800    21235492.367 7  88259056.087 7        44.900    21235492.355 7  88259053.083 7        44.400
R10  23412850.531 5 124803701.170 5        35.900    23412852.379 5 124803625.161 5        35.100
R08  23986876.930 6 128448628.080 6        37.700    23986875.883 6 128448585.100 6        36.500    23986899.133 6  99904538.863 6        36.800    23986899.219 6  99904539.863 6        36.300
R02  22955966.539 7 122497436.722 7        43.000    22955967.660 7 122497395.730 7        42.300    22955984.625 6  95275760.789 6        38.800    22955985.480 6  95275757.788 6        39.400
R01  22282942.375 7 119115092.085 7        43.200    22282942.813 7 119115050.091 7        42.400    22282961.332 6  92645044.225 6        36.800    22282962.633 5  92645040.228 5        35.800
G30  24894696.398 5 130822512.336 5        33.800    24894716.352 4 101939699.856 4        25.300    24894716.004 5 101939697.848 5        35.400    24894722.715 7  97692228.835 7        42.400
E30  28363504.313 6 149051224.581 6        36.600    28363535.703 6 111304591.461 6        38.600    28363530.074 6 114208169.267 6        38.600
E29  24360773.406 8 128016723.413 8        49.800    24360789.203 8  95596882.421 8        49.600    24360785.223 8  98090714.885 8        48.900    24360787.008 9  96843795.760 9        56.600
E27  25177998.258 7 132311268.851 7        46.700    25178015.047 7  98803850.524 7        47.000    25178010.734 7 101381342.042 7        46.700    25178012.672 9 100092593.891 9        54.200
E21  25524431.727 7 134131796.325 7        45.500    25524449.125 7 100163328.894 7        46.300    25524444.789 7 102776285.171 7        46.400    25524446.855 8 101469806.641 8        53.500
E19  25456851.703 6 133776659.653 6        38.900    25456869.375 6  99898141.868 6        39.900    25456865.250 6 102504169.937 6        40.300    25456867.094 7 101201147.510 7        46.500
E15  25997615.992 6 136618393.274 6        41.600    25997639.605 7 102020283.855 7        44.800    25997634.699 7 104681677.994 7        44.400    25997636.996 8 103350987.032 8        51.800
E13  25733302.555 7 135229410.929 7        43.300    25733326.125 7 100983007.431 7        44.500    25733321.301 7 103617323.569 7        45.000    25733323.465 8 102300189.608 8        51.800
E07  26410601.953 6 138788640.239 6        41.700    26410628.414 7 103640951.749 7        43.300    26410623.270 7 106344615.901 7        43.900
G27  22657503.211 6 119065978.429 6        40.200    22657520.625 6  92778753.677 6        36.800    22657520.934 7  92778674.669 7        42.000    22657525.617 7  88912892.017 7        47.100
G16  24456524.078 5 128519905.591 5        32.300    24456546.828 2 100145446.728 2        15.600
G14  25413108.445 5 133546745.105 5        33.300                                                    25413128.813 6 104062507.470 6        37.300    25413138.742 6  99726602.242 6        38.400
G09  21534976.117 7 113167059.843 7        45.800    21534991.797 7  88182175.677 7        45.600    21534992.063 7  88182119.673 7        45.300    21534997.184 8  84507862.343 8        51.200
G08  20356347.242 8 106973322.938 8        49.300    20356360.352 8  83355882.721 8        49.300    20356361.133 7  83355830.717 7        47.200    20356364.188 8  79882666.789 8        53.200
G07  22231012.063 7 116824753.514 7        45.400    22231023.902 6  91032320.675 6        41.300    22231023.816 7  91032269.674 7        43.600
G04  21947979.766 7 115337405.401 7        43.000    21947996.531 5  89873357.420 5        31.300    21947996.449 7  89873298.422 7        45.200    21948005.566 8  86128573.081 8        48.700
G02  21788074.563 7 114497105.758 7        44.700    21788088.211 5  89218569.054 5        34.600
G01  23128405.906 6 121540598.969 6        41.400    23128425.773 4  94707039.947 4        26.200    23128425.617 7  94706948.949 7        42.600    23128435.980 7  90760850.509 7        46.600
C11  23827475.445 6 124075914.381 6        41.300    23827484.098 7  95943322.982 7        43.500
C06  35961162.734 7 187259207.824 7        46.000    35961164.789 7 144800654.421 7        46.300
C05  38605100.313 6 201026887.861 6        36.000    38605108.922 6 155446773.715 6        39.500
C04  39232237.242 5 204292556.667 5        33.900    39232249.785 6 157972011.031 6        38.300
C03  36229397.914 7 188655970.751 7        43.900    36229400.773 7 145880781.454 7        44.100
C02  36794664.406 6 191599471.797 6        40.300    36794667.410 7 148156876.635 7        44.400
C01  38016604.055 6 197962432.008 6        39.600    38016612.777 6 153077142.389 6        41.100
S27  38818383.344 6 203991970.075 6        41.400    38818393.680 7 152331686.696 7        44.000
S37  36832516.313 6 193556151.381 6        41.800
