     3.04           OBSERVATION DATA    M: Mixed            RINEX VERSION / TYPE
RTKCONV demo5 b34i                      20250404 113127 UTC PGM / RUN BY / DATE 
format: u-blox UBX                                          COMMENT             
log: D:\20242\demo5_b34i\data\HoDenLu\rieng\d1\hdl1_1m.ubx  COMMENT             
                                                            MARKER NAME         
                                                            MARKER NUMBER       
                                                            MARKER TYPE         
                                                            OBSERVER / AGENCY   
                                                            REC # / TYPE / VERS 
                                                            ANT # / TYPE        
 -1627732.0161  5730976.1917  2269816.2722                  APPROX POSITION XYZ 
        0.0000        0.0000        0.0000                  ANTENNA: DELTA H/E/N
G    8 C1C L1C D1C S1C C2X L2X D2X S2X                      SYS / # / OBS TYPES 
R    8 C1C L1C D1C S1C C2C L2C D2C S2C                      SYS / # / OBS TYPES 
E    8 C1X L1X D1X S1X C7X L7X D7X S7X                      SYS / # / OBS TYPES 
  2025    04    04    11    16   26.0010000     GPS         TIME OF FIRST OBS   
  2025    04    04    11    31   29.0010000     GPS         TIME OF LAST OBS    
G L1C                                                       SYS / PHASE SHIFT   
G L2X  0.00000                                              SYS / PHASE SHIFT   
R L1C                                                       SYS / PHASE SHIFT   
R L2C                                                       SYS / PHASE SHIFT   
E L1X  0.00000                                              SYS / PHASE SHIFT   
E L7X  0.00000                                              SYS / PHASE SHIFT   
  8 R06 -4 R07  5 R08  6 R20  2 R21  4 R22 -3 R26 -6 R27 -5 GLONASS SLOT / FRQ #
 C1C    0.000 C1P    0.000 C2C    0.000 C2P    0.000        GLONASS COD/PHS/BIS 
                                                            END OF HEADER       
> 2025 04 04 11 16 26.0010000  0 22                     
G25  24492593.832   128709465.5971      -2494.107          31.000    24492624.752   100293189.5441      -1943.287          27.000  
G11  22673557.776   119150350.5231      -1734.462          39.000    22673578.177    92844515.7751      -1350.997          38.000  
G06  24742871.967   130024697.8921      -2565.175          36.000    24742901.898   101318053.0631      -1999.251          30.000  
G05  21438300.479   112659032.8081      -1738.141          45.000    21438317.774    87786322.2221      -1353.481          36.000  
E05  25870918.392   135952626.7061      -3159.247          33.000    25870954.101   104171616.5221      -2420.626          31.000  
G13  20422086.734   107318804.5921         23.831          45.000                                                                  
R21  20130206.873   107720809.6091        137.970          49.000    20130225.868    83782955.2001        107.904          38.000  
R06  20489532.239   109336018.5671      -3537.595          37.000                                                                  
R07  19643964.284   105155690.8521        -93.363          47.000    19643982.014    81787859.7671        -72.638          45.000  
R22  22491408.965   120060696.8181       2467.505          43.000    22491430.522    93380620.0661       1919.534          38.000  
G12  24566589.448   129098289.9711      -3157.833          35.000    24566600.512                       -2461.597          25.000  
G15  21426546.217   112597295.2891       1854.737          45.000    21426567.644    87738263.5731       1445.286          40.000  
G29  22276925.803   117066058.0311       1614.044          42.000    22276944.019    91220365.7681       1257.350          37.000  
G20  22708705.139   119335042.4651      -2452.335          33.000                                                                  
R08  22738233.420   121762176.2661       2704.088          46.000    22738256.950    94703966.0751       2103.209          38.000  
R20  22199220.783                       -2764.474          20.000    22199250.564    92329465.2841      -2154.095          36.000  
E03  24071598.931   126497274.2121      -1074.924          45.000    24071627.786    96926479.5991       -823.633          40.000  
E08  24878272.784   130736209.0101       1422.891          45.000    24878301.280   100174644.8431       1090.080          42.000  
E30  27698008.422   145554016.8011      -2955.936          29.000    27698058.473                       -2260.576          22.000  
E27  27105892.817   142442425.9261      -2206.423          40.000    27105933.536   109144364.7281      -1690.399          35.000  
E34  25675532.606   134925834.2401      -1239.510          41.000    25675566.523   103384881.0111       -950.091          39.000  
E15  24843567.083   130553808.8721        130.153          44.000    24843597.346   100034889.3051         99.482          37.000  
> 2025 04 04 11 16 27.0010000  0 23                     
G25  24493068.761   128711959.947       -2494.010          30.000    24493100.398   100295133.263       -1944.224          27.000  
G11  22673887.667   119152084.080       -1733.701          38.000    22673907.995    92845866.615       -1351.125          36.000  
G06  24743360.141   130027263.361       -2565.983          38.000    24743390.130   101320052.170       -2000.850          31.000  
G05  21438631.202   112660771.035       -1738.365          44.000    21438648.515    87787676.701       -1354.487          35.000  
E05  25871519.350   135955785.778       -3158.942          33.000    25871555.209   104174037.106       -2420.715          31.000  
G13  20422082.130   107318781.024          23.249          45.000                                                                  
R26  22240884.725   118598159.144        2514.766          48.000                                                                  
R21  20130181.183   107720671.862         137.444          49.000    20130200.131    83782848.073         107.015          38.000  
R06  20490195.237   109339556.522       -3538.252          37.000                                                                  
R07  19643981.838   105155784.798         -94.111          47.000    19643999.460    81787932.843         -73.217          44.000  
R22  22490946.663   120058229.176        2467.695          43.000    22490968.220    93378700.780        1919.154          39.000  
G12  24567190.195   129101447.578       -3157.516          34.000    24567201.486                       -2458.674          25.000  
G15  21426193.355   112595440.626        1854.332          44.000    21426214.679    87736818.389        1444.853          40.000  
G29  22276618.794   117064444.507        1613.169          42.000    22276636.972    91219108.490        1256.613          37.000  
G20  22709172.028   119337494.810       -2452.455          34.000                                                                  
R08  22737728.428   121759472.447        2703.646          46.000    22737752.058    94701863.099        2102.860          38.000  
R20  22199740.805                       -2768.096          20.000    22199768.696    92331619.389       -2154.363          36.000  
E03  24071803.479   126498349.331       -1075.533          45.000    24071832.334    96927303.407        -824.140          40.000  
E08  24878002.180   130734786.497        1422.357          45.000    24878030.651   100173554.867        1089.885          43.000  
E30  27698571.635   145556973.280       -2956.333          30.000    27698621.009                       -2270.876          22.000  
E27  27106312.420   142444632.244       -2206.551          40.000    27106353.516   109146055.289       -1690.921          36.000  
E34  25675768.804   134927073.952       -1240.012          40.000    25675802.279   103385830.887        -950.115          37.000  
E15  24843542.359   130553678.872         129.795          44.000    24843572.476   100034789.694          99.560          38.000  
> 2025 04 04 11 16 28.0010000  0 22                     
G25  24493543.720   128714454.678       -2494.682          31.000    24493576.116   100297077.197       -1944.097          27.000  
G11  22674217.613   119153818.181       -1733.983          38.000    22674237.963    92847217.868       -1351.452          35.000  
G06  24743848.540   130029829.315       -2566.071          38.000    24743878.379   101322051.586       -1999.431          31.000  
G05  21438961.982   112662509.676       -1738.996          45.000    21438979.316    87789031.484       -1354.903          35.000  
E05  25872120.447   135958945.389       -3160.105          34.000    25872156.392   104176458.130       -2421.770          31.000  
G13  20422077.629   107318758.416          22.107          45.000                                                                  
R21  20130155.612   107720534.848         136.645          49.000    20130174.537    83782741.524         106.185          39.000  
R06  20490858.450   109343095.257       -3539.200          36.000                                                                  
R07  19643999.560   105155879.802         -95.562          47.000    19644017.125    81788006.735         -74.246          44.000  
R22  22490484.375   120055761.788        2467.257          44.000    22490505.926    93376781.714        1918.851          38.000  
G12  24567791.093   129104605.347       -3157.857          34.000    24567801.091                       -2460.385          25.000  
G15  21425840.527   112593586.658        1853.736          44.000    21425861.894    87735373.745        1444.355          40.000  
G29  22276311.868   117062831.690        1612.605          42.000    22276330.110    91217851.729        1256.612          37.000  
G20  22709638.806   119339947.363       -2453.274          34.000                                                                  
R08  22737223.656   121756769.311        2702.716          46.000    22737247.263    94699760.669        2102.143          39.000  
R20  22200257.699                       -2766.309          21.000    22200286.929    92333774.118       -2154.720          36.000  
E03  24072008.050   126499425.172       -1076.107          45.000    24072037.125    96928127.734        -824.291          40.000  
E08  24877731.711   130733364.545        1421.618          45.000    24877759.980   100172465.321        1089.354          42.000  
E30  27699133.524   145559929.949       -2956.227          30.000    27699183.673                       -2268.115          22.000  
E27  27106732.065   142446839.038       -2207.005          41.000    27106773.377   109147746.234       -1691.300          35.000  
E34  25676004.902   134928314.013       -1240.196          39.000    25676038.205   103386781.076        -950.408          37.000  
E15  24843517.401   130553549.100         129.542          43.000    24843547.797   100034690.280          99.068          38.000  
> 2025 04 04 11 16 29.0010000  0 22                     
G25  24494018.882   128716949.524       -2494.797          31.000    24494051.475   100299021.219       -1944.258          28.000  
G11  22674547.706   119155552.539       -1734.733          38.000    22674568.027    92848569.313       -1351.828          36.000  
G06  24744336.926   130032395.469       -2565.785          35.000    24744366.468   101324051.224       -1999.792          32.000  
G05  21439292.876   112664248.431       -1738.806          45.000    21439310.121    87790386.350       -1354.997          34.000  
E05  25872721.857   135962105.132       -3159.419          33.000    25872757.618   104178879.225       -2421.179          31.000  
G13  20422073.467   107318736.414          21.597          46.000                                                                  
R21  20130130.213   107720398.323         136.218          49.000    20130148.982    83782635.339         105.675          38.000  
R06  20491521.778   109346634.425       -3539.604          36.000                                                                  
R07  19644017.391   105155975.560         -96.177          47.000    19644034.992    81788081.211         -74.925          44.000  
R22  22490022.052   120053294.324        2467.417          44.000    22490043.694    93374862.557        1919.226          38.000  
G12  24568391.843   129107762.956       -3157.600          34.000    24568401.912                       -2461.758          24.000  
G15  21425487.795   112591733.113        1853.306          44.000    21425509.285    87733929.424        1444.299          40.000  
G29  22276005.045   117061219.287        1612.311          42.000    22276023.296    91216595.319        1256.452          37.000  
G20  22710105.697   119342399.803       -2451.905          34.000                                                                  
R08  22736718.922   121754066.527        2702.248          45.000    22736742.517    94697658.476        2101.734          38.000  
R20  22200776.083                       -2772.389          22.000    22200805.096    92335929.218       -2155.196          40.000  
E03  24072212.554   126500501.404       -1076.372          45.000    24072242.015    96928952.422        -825.314          40.000  
E08  24877461.195   130731942.825        1421.428          46.000    24877489.457   100171375.953        1089.281          43.000  
E30  27699696.299   145562886.416       -2956.109          30.000    27699743.271                       -2260.425          22.000  
E27  27107152.131   142449045.983       -2207.061          41.000    27107193.329   109149437.241       -1691.346          35.000  
E34  25676240.859   134929554.135       -1240.082          39.000    25676274.283   103387731.308        -950.027          37.000  
E15  24843492.600   130553419.296         129.660          43.000    24843523.087   100034590.801          99.656          38.000  
> 2025 04 04 11 16 30.0010000  0 22                     
G25  24494493.914   128719444.419       -2495.052          32.000    24494525.687   100300965.343       -1944.083          28.000  
G11  22674877.782   119157287.043       -1734.171          36.000    22674898.140    92849920.907       -1351.564          35.000  
G06  24744825.512   130034961.852       -2566.506          35.000    24744854.529   101326050.934       -1999.883          27.000  
G05  21439623.778   112665987.347       -1739.019          45.000    21439641.020    87791741.366       -1354.802          34.000  
E05  25873323.747   135965265.166       -3160.410          33.000    25873358.918   104181300.604       -2421.503          32.000  
G13  20422069.518   107318715.128          20.923          46.000                                                                  
R21  20130104.771   107720262.336         135.744          49.000    20130123.654    83782529.549         105.682          37.000  
R06  20492185.126   109350174.048       -3539.876          36.000                                                                  
R07  19644035.332   105156072.080         -96.962          48.000    19644053.122    81788156.310         -75.589          44.000  
R22  22489559.786   120050826.829        2467.500          44.000    22489581.437    93372943.434        1919.059          38.000  
G12  24568992.552   129110920.482       -3157.505          34.000    24569000.530                       -2456.233          22.000  
G15  21425135.176   112589880.007        1852.898          45.000    21425156.528    87732485.445        1444.163          39.000  
G29  22275698.233   117059607.371        1611.602          42.000    22275716.644    91215339.289        1255.874          38.000  
G20  22710572.857   119344852.277       -2452.658          34.000                                                                  
R08  22736214.246   121751364.145        2702.281          46.000    22736237.869    94695556.637        2101.528          38.000  
R20  22201295.050                       -2775.567          24.000    22201323.400    92338084.730       -2155.657          40.000  
E03  24072417.456   126501578.150       -1077.081          46.000    24072446.884    96929777.419        -824.987          40.000  
E08  24877190.801   130730521.421        1421.146          46.000    24877218.915   100170286.830        1089.064          42.000  
E30  27700259.438   145565842.800       -2956.721          30.000    27700304.759                       -2267.727          23.000  
E27  27107572.001   142451253.159       -2207.434          41.000    27107613.448   109151128.448       -1690.949          34.000  
E34  25676477.217   134930794.414       -1240.339          40.000    25676510.257   103388681.679        -950.641          36.000  
E15  24843468.006   130553289.478         129.761          44.000    24843498.411   100034491.354          99.434          38.000  
> 2025 04 04 11 16 31.0010000  0 22                     
G25  24494969.252   128721939.848       -2496.154          32.000    24495001.213   100302909.798       -1944.792          28.000  
G11  22675207.915   119159022.244       -1735.393          38.000    22675228.365    92851272.998       -1352.583          37.000  
G06  24745314.095   130037528.781       -2566.869          35.000    24745342.785   101328051.214       -2000.480          27.000  
G05  21439954.839   112667726.737       -1739.595          45.000    21439972.025    87793096.763       -1355.644          35.000  
E05  25873926.392   135968425.757       -3161.024          33.000    25873960.407   104183722.379       -2422.177          32.000  
G13  20422065.581   107318694.838          19.803          46.000                                                                  
R21  20130079.557   107720127.232         134.780          49.000    20130098.340    83782424.493         104.762          37.000  
R06  20492848.673   109353714.533       -3540.870          36.000                                                                  
R07  19644053.601   105156169.758         -98.030          48.000    19644071.307    81788232.259         -76.269          44.000  
R22  22489097.538   120048359.679        2467.016          44.000    22489119.334    93371024.555        1918.659          38.000  
G12  24569593.423   129114078.318       -3157.905          34.000    24569602.044                       -2460.768          20.000  
G15  21424782.776   112588027.714        1851.954          45.000    21424804.124    87731042.110        1443.085          39.000  
G29  22275391.672   117057996.242        1610.731          42.000    22275410.028    91214083.893        1254.788          38.000  
G20  22711039.759   119347305.074       -2453.350          33.000                                                                  
R08  22735709.834   121748662.541        2701.386          45.000    22735733.340    94693455.412        2100.990          38.000  
R20  22201813.415                       -2772.213          24.000    22201841.779    92340240.890       -2156.633          40.000  
E03  24072622.344   126502655.646       -1077.726          46.000    24072651.935    96930603.053        -825.818          40.000  
E08  24876920.609   130729100.647        1420.583          46.000    24876948.601   100169198.191        1088.565          42.000  
E30  27700822.832   145568799.351       -2956.198          30.000    27700866.339                       -2266.814          22.000  
E27  27107992.159   142453460.847       -2207.837          41.000    27108033.507   109152820.092       -1691.803          35.000  
E34  25676713.548   134932035.158       -1240.785          40.000    25676746.258   103389632.349        -950.728          37.000  
E15  24843443.379   130553159.964         129.456          44.000    24843473.711   100034392.118          99.335          39.000  
> 2025 04 04 11 16 32.0010000  0 22                     
G25  24495444.428   128724434.909       -2495.197          33.000    24495477.583   100304854.008       -1944.130          29.000  
G11  22675537.956   119160757.142       -1735.284          40.000    22675558.530    92852624.888       -1352.110          37.000  
G06  24745802.580   130040095.618       -2566.643          34.000    24745831.076   101330051.280       -1998.466          29.000  
G05  21440285.733   112669465.881       -1739.095          44.000    21440302.921    87794451.962       -1355.947          35.000  
E05  25874527.755   135971586.190       -3160.655          33.000    25874561.701   104186143.961       -2421.327          31.000  
G13  20422061.577   107318674.819          19.148          45.000                                                                  
R21  20130054.319   107719992.250         134.376          49.000    20130073.098    83782319.458         104.603          37.000  
R06  20493512.110   109357255.084       -3541.401          36.000                                                                  
R07  19644071.773   105156267.780         -98.489          47.000    19644089.755    81788308.516         -76.663          45.000  
R22  22488635.204   120045892.114        2467.112          43.000    22488656.921    93369105.350        1919.044          38.000  
G12  24570194.034   129117235.604       -3157.621          34.000    24570201.227                       -2459.997          21.000  
G15  21424430.200   112586175.431        1852.194          46.000    21424451.725    87729598.762        1442.854          39.000  
G29  22275085.153   117056385.179        1610.498          42.000    22275103.424    91212828.484        1255.217          38.000  
G20  22711506.637   119349757.387       -2453.160          32.000                                                                  
R08  22735205.376   121745960.934        2701.346          46.000    22735228.980    94691354.200        2101.040          38.000  
R20  22202332.705                       -2780.719          23.000    22202360.127    92342397.097       -2156.353          38.000  
E03  24072827.230   126503733.187       -1077.711          45.000    24072856.986    96931428.727        -825.828          39.000  
E08  24876650.101   130727679.786        1420.619          47.000    24876678.341   100168109.486        1088.229          43.000  
E30  27701385.946   145571755.503       -2956.694          31.000    27701427.031                       -2265.589          23.000  
E27  27108412.005   142455668.400       -2208.142          40.000    27108453.669   109154511.594       -1691.369          36.000  
E34  25676949.776   134933275.623       -1240.572          43.000    25676982.307   103390582.801        -950.509          38.000  
E15  24843418.733   130553030.056         129.814          44.000    24843448.929   100034292.588          99.695          37.000  
> 2025 04 04 11 16 33.0010000  0 22                     
G25  24495919.541   128726929.546       -2495.330          32.000    24495951.546   100306797.898       -1944.178          29.000  
G11  22675868.020   119162491.857       -1734.942          41.000    22675888.741    92853976.579       -1351.734          39.000  
G06  24746290.950   130042661.874       -2566.287          34.000    24746319.364   101332051.127       -2000.156          29.000  
G05  21440616.627   112671204.653       -1738.950          45.000    21440633.708    87795806.849       -1354.884          37.000  
E05  25875129.684   135974746.270       -3160.583          34.000    25875163.169   104188565.421       -2421.716          31.000  
G13  20422057.689   107318654.908          19.538          45.000                                                                  
R21  20130029.090   107719857.116         134.710          49.000    20130047.881    83782214.401         105.052          37.000  
R06  20494175.587   109360795.509       -3540.914          37.000                                                                  
R07  19644090.138   105156366.035         -98.875          48.000    19644108.069    81788384.935         -76.733          45.000  
R22  22488172.807   120043423.914        2468.049          44.000    22488194.505    93367185.630        1919.726          39.000  
G12  24570794.556   129120392.262       -3156.485          34.000    24570799.579                       -2456.819          22.000  
G15  21424077.748   112584323.029        1851.887          46.000    21424099.169    87728155.356        1442.879          39.000  
G29  22274778.505   117054773.988        1610.874          42.000    22274796.826    91211573.032        1255.219          38.000  
G20  22711973.349   119352209.110       -2451.630          32.000                                                                  
R08  22734700.899   121743259.212        2701.304          46.000    22734724.507    94689252.872        2101.007          39.000  
R20  22202850.495                       -2772.720          25.000    22202878.569    92344553.250       -2156.426          39.000  
E03  24073032.736   126504810.691       -1078.025          46.000    24073062.134    96932254.307        -825.938          40.000  
E08  24876379.699   130726258.602        1420.652          46.000    24876407.877   100167020.525        1088.664          43.000  
E30  27701948.188   145574710.866       -2956.597          30.000    27701988.742                       -2263.109          22.000  
E27  27108831.776   142457875.508       -2207.583          40.000    27108873.649   109156202.726       -1690.957          35.000  
E34  25677185.742   134934515.633       -1240.289          42.000    25677218.347   103391532.936        -950.434          38.000  
E15  24843393.956   130552899.555         130.229          45.000    24843424.016   100034192.599          99.825          39.000  
> 2025 04 04 11 16 34.0010000  0 22                     
G25  24496394.098   128729423.323       -2493.282          31.000    24496427.015   100308741.058       -1942.712          29.000  
G11  22676197.947   119164225.667       -1732.921          41.000    22676218.722    92855327.638       -1350.359          36.000  
G06  24746779.553   130045227.531       -2564.026          34.000    24746807.651   101334050.321       -1998.092          30.000  
G05  21440947.319   112672942.543       -1736.984          46.000    21440964.447    87797161.037       -1353.378          36.000  
E05  25875730.957   135977905.620       -3158.430          33.000    25875764.513   104190986.139       -2419.920          31.000  
G13  20422053.848   107318634.723          21.086          45.000                                                                  
R21  20130003.751   107719721.493         136.401          49.000    20130022.547    83782108.901         106.096          37.000  
R06  20494839.002   109364335.432       -3539.171          37.000                                                                  
R07  19644108.304   105156464.064         -97.354          47.000    19644126.207    81788461.184         -75.799          44.000  
R22  22487710.173   120040954.677        2470.147          43.000    22487731.870    93365265.117        1921.262          39.000  
G12  24571394.972   129123547.774       -3154.217          33.000    24571401.616                       -2458.107          25.000  
G15  21423725.131   112582470.053        1853.961          45.000    21423746.560    87726711.493        1444.259          38.000  
G29  22274471.836   117053162.269        1612.704          42.000    22274490.062    91210317.141        1256.626          38.000  
G20  22712439.801   119354659.835       -2449.292          34.000                                                                  
R08  22734196.285   121740556.886        2703.127          46.000    22734219.809    94687151.050        2102.672          39.000  
R20  22203368.592   118731389.6423      -2770.631          26.000    22203396.932    92346709.005       -2155.344          38.000  
E03  24073237.809   126505887.575       -1075.957          45.000    24073267.034    96933079.484        -824.547          40.000  
E08  24876109.158   130724836.716        1422.949          46.000    24876137.437   100165931.029        1090.188          42.000  
E30  27702510.167   145577665.165       -2953.627          29.000    27702550.821                       -2265.039          22.000  
E27  27109251.124   142460081.815       -2205.197          40.000    27109293.540   109157893.310       -1689.617          35.000  
E34  25677421.310   134935754.692       -1238.188          41.000    25677454.163   103392482.327        -948.708          38.000  
E15  24843369.099   130552768.028         132.742          45.000    24843399.050   100034091.817         101.755          39.000  
> 2025 04 04 11 16 35.0010000  0 22                     
G25  24496868.371   128731915.667       -2491.838          31.000    24496902.815   100310683.192       -1942.263          28.000  
G11  22676527.615   119165958.372       -1732.713          43.000    22676548.490    92856677.801       -1350.263          38.000  
G06  24747267.395   130047791.811       -2564.827          34.000    24747295.679   101336048.495       -1998.997          31.000  
G05  21441277.691   112674679.092       -1736.667          45.000    21441294.905    87798514.197       -1353.187          36.000  
E05  25876332.146   135981063.653       -3158.237          34.000    25876365.610   104193406.001       -2420.165          31.000  
G13  20422049.973   107318613.685          20.606          46.000                                                                  
R21  20129978.285   107719584.879         136.206          49.000    20129996.980    83782002.673         105.860          38.000  
R06  20495502.190   109367874.318       -3539.040          37.000                                                                  
R07  19644126.451   105156561.383         -97.764          47.000    19644144.277    81788536.873         -76.007          44.000  
R22  22487247.353   120038483.906        2470.650          43.000    22487268.981    93363343.391        1922.032          38.000  
G12  24571995.223   129126701.776       -3154.364          33.000    24572002.989                       -2459.583          25.000  
G15  21423372.353   112580616.043        1853.688          45.000    21423393.790    87725266.826        1444.109          39.000  
G29  22274164.958   117051549.495        1612.650          40.000    22274183.263    91209060.439        1256.956          38.000  
G20  22712905.931   119357108.940       -2449.167          33.000                                                                  
R08  22733691.516   121737853.455        2703.026          47.000    22733714.943    94685048.428        2101.958          39.000  
R20  22203885.493   118734160.4722      -2770.899          26.000    22203915.106    92348864.020       -2155.233          38.000  
E03  24073442.790   126506963.418       -1075.928          45.000    24073471.805    96933903.848        -824.494          41.000  
E08  24875838.438   130723413.651        1422.950          45.000    24875866.746   100164840.624        1090.210          42.000  
E30  27703072.171   145580617.704       -2951.927          29.000    27703113.178                       -2262.190          23.000  
E27  27109670.841   142462286.878       -2205.306          40.000    27109713.096   109159582.922       -1689.493          34.000  
E34  25677656.824   134936992.469       -1237.757          42.000    25677689.571   103393430.780        -948.563          38.000  
E15  24843343.646   130552635.017         132.947          43.000    24843373.886   100033989.891         101.960          39.000  
> 2025 04 04 11 16 36.0010000  0 22                     
G25  24497342.672   128734407.934       -2491.410          31.000    24497377.379   100312625.216       -1941.992          29.000  
G11  22676857.331   119167691.073       -1731.861          40.000    22676878.219    92858027.929       -1349.748          40.000  
G06  24747755.284   130050356.126       -2563.436          33.000    24747783.684   101338046.690       -1997.866          30.000  
G05  21441608.267   112676415.624       -1735.922          45.000    21441625.433    87799867.388       -1353.153          35.000  
E05  25876932.901   135984221.786       -3158.229          34.000    25876966.617   104195825.868       -2419.854          32.000  
G13  20422046.103   107318593.130          21.181          46.000                                                                  
R21  20129952.804   107719448.575         137.019          49.000    20129971.479    83781896.642         106.910          37.000  
R06  20496165.564   109371413.499       -3538.453          37.000                                                                  
R07  19644144.787   105156659.297         -97.217          48.000    19644162.715    81788613.046         -75.612          44.000  
R22  22486784.444   120036012.935        2471.861          44.000    22486806.042    93361421.564        1922.411          39.000  
G12  24572595.307   129129855.441       -3152.922          33.000    24572603.445                       -2456.337          25.000  
G15  21423019.584   112578762.284        1854.370          44.000    21423040.920    87723822.327        1444.927          39.000  
G29  22273858.041   117049937.044        1612.940          41.000    22273876.454    91207803.971        1257.319          38.000  
G20  22713371.819   119359557.852       -2447.757          34.000                                                                  
R08  22733186.747   121735150.223        2703.961          46.000    22733210.222    94682945.917        2102.979          39.000  
R20  22204403.034   118736931.4102      -2771.455          27.000    22204433.319    92351019.235       -2154.587          38.000  
E03  24073647.395   126508039.572       -1076.213          46.000    24073676.821    96934728.396        -824.397          41.000  
E08  24875567.420   130721990.716        1422.757          46.000    24875596.281   100163750.300        1090.165          42.000  
E30  27703634.195   145583570.127       -2952.934          29.000    27703673.330                       -2266.791          23.000  
E27  27110090.594   142464491.942       -2205.021          40.000    27110132.914   109161272.467       -1689.120          35.000  
E34  25677892.654   134938230.106       -1237.637          40.000    25677925.381   103394379.116        -948.448          38.000  
E15  24843317.983   130552501.810         133.331          44.000    24843348.630   100033887.812         102.174          38.000  
> 2025 04 04 11 16 37.0010000  0 22                     
G25  24497816.634   128736898.395       -2489.871          31.000    24497851.618   100314565.909       -1940.531          29.000  
G11  22677186.700   119169422.136       -1730.545          40.000    22677207.615    92859376.763       -1348.852          37.000  
G06  24748243.015   130052918.892       -2562.386          34.000    24748271.520   101340043.648       -1996.199          31.000  
G05  21441938.405   112678150.413       -1734.182          45.000    21441955.502    87801219.166       -1351.404          35.000  
E05  25877533.338   135987378.206       -3155.891          34.000    25877567.177   104198244.475       -2418.881          32.000  
G13  20422041.860   107318571.373          22.109          45.000                                                                  
R21  20129926.994   107719310.884         137.935          48.000    20129945.931    83781789.565         107.059          37.000  
R06  20496828.520   109374951.291       -3537.593          37.000                                                                  
R07  19644162.812   105156756.089         -96.579          47.000    19644180.853    81788688.336         -75.104          44.000  
R22  22486321.155   120033540.039        2473.397          44.000    22486342.749    93359498.169        1923.671          39.000  
G12  24573195.074   129133007.074       -3150.317          32.000    24573203.836                       -2455.959          25.000  
G15  21422666.599   112576907.093        1855.637          45.000    21422687.851    87722376.730        1445.743          39.000  
G29  22273550.864   117048323.085        1614.635          41.000    22273569.367    91206546.394        1257.824          37.000  
G20  22713837.636   119362004.800       -2446.411          34.000                                                                  
R08  22732681.519   121732445.462        2705.338          46.000    22732705.178    94680842.204        2103.913          40.000  
R20  22204920.121   118739700.4961      -2769.058          28.000    22204951.350    92353173.392       -2153.752          36.000  
E03  24073851.776   126509114.240       -1074.314          46.000    24073881.360    96935551.877        -823.072          39.000  
E08  24875296.473   130720566.083        1425.149          46.000    24875325.116   100162658.732        1091.916          43.000  
E30  27704195.117   145586520.479       -2949.473          28.000    27704236.281                       -2266.788          22.000  
E27  27110510.035   142466695.281       -2202.875          40.000    27110552.207   109162960.756       -1687.698          35.000  
E34  25678127.748   134939465.925       -1235.245          40.000    25678160.461   103395326.033        -946.444          38.000  
E15  24843292.094   130552366.651         135.848          43.000    24843322.670   100033784.296         103.909          38.000  
> 2025 04 04 11 16 38.0010000  0 22                     
G25  24498290.548   128739388.189       -2488.226          31.000    24498325.150   100316505.988       -1939.791          28.000  
G11  22677515.925   119171152.604       -1731.034          36.000    22677536.930    92860725.235       -1346.960          30.000  
G06  24748730.483   130055481.033       -2561.749          38.000    24748759.215   101342040.052       -1996.570          35.000  
G05  21442268.339   112679884.519       -1733.502          44.000    21442285.517    87802570.399       -1350.674          35.000  
E05  25878132.999   135990534.136       -3155.479          34.000    25878167.563   104200662.575       -2417.859          32.000  
G13  20422037.578   107318549.472          22.097          46.000                                                                  
R21  20129901.157   107719172.845         138.408          49.000    20129920.129    83781682.216         107.634          39.000  
R06  20497491.396   109378488.741       -3537.343          37.000                                                                  
R07  19644180.812   105156852.820         -96.336          47.000    19644198.899    81788763.584         -75.131          44.000  
R22  22485857.604   120031066.254        2474.172          44.000    22485879.223    93357574.170        1923.973          39.000  
G12  24573794.387   129136157.863       -3150.483          33.000    24573804.023                       -2452.813          23.000  
G15  21422313.468   112575051.533        1855.757          45.000    21422334.790    87720930.828        1446.099          39.000  
G29  22273243.608   117046708.808        1614.878          41.000    22273262.277    91205288.529        1258.077          38.000  
G20  22714303.415   119364451.005       -2446.292          34.000                                                                  
R08  22732176.273   121729740.283        2705.626          46.000    22732200.025    94678738.172        2104.092          40.000  
R20  22205436.927   118742469.732       -2768.343          28.000    22205469.295    92355327.223       -2153.979          39.000  
E03  24074056.146   126510188.549       -1073.889          47.000    24074085.571    96936375.057        -823.241          40.000  
E08  24875025.081   130719140.993        1425.425          46.000    24875053.791   100161566.787        1092.347          42.000  
E30  27704756.005   145589469.919       -2949.061          30.000    27704798.141                       -2254.045          22.000  
E27  27110929.074   142468898.033       -2202.336          42.000    27110971.257   109164648.573       -1687.387          35.000  
E34  25678362.840   134940701.239       -1234.426          40.000    25678395.422   103396272.569        -946.075          33.000  
E15  24843266.303   130552230.722         136.564          44.000    24843296.718   100033680.101         104.640          37.000  
> 2025 04 04 11 16 39.0010000  0 22                     
G25  24498764.390   128741877.462       -2489.306          31.000    24498800.215   100318445.693       -1940.663          29.000  
G11  22677845.124   119172882.608       -1729.544          36.000    22677866.273    92862073.279       -1347.826          32.000  
G06  24749217.926   130058042.622       -2561.366          38.000    24749246.638   101344036.098       -1996.277          36.000  
G05  21442598.210   112681618.073       -1733.380          45.000    21442615.486    87803921.252       -1351.353          35.000  
E05  25878732.557   135993689.486       -3155.790          33.000    25878767.979   104203080.370       -2417.872          33.000  
G13  20422033.529   107318527.531          21.597          46.000                                                                  
R21  20129875.336   107719034.596         138.123          48.000    20129894.308    83781574.682         107.489          37.000  
R06  20498154.280   109382025.866       -3537.381          37.000                                                                  
R07  19644198.857   105156949.578         -97.064          47.000    19644217.024    81788838.851         -75.443          44.000  
R22  22485394.097   120028591.715        2474.399          44.000    22485415.743    93355649.477        1924.850          38.000  
G12  24574393.621   129139307.798       -3149.827          33.000    24574405.543                       -2452.442          23.000  
G15  21421960.282   112573195.648        1855.677          45.000    21421981.637    87719484.739        1445.676          40.000  
G29  22272936.362   117045094.300        1614.578          41.000    22272955.132    91204030.460        1257.906          38.000  
G20  22714768.846   119366896.400       -2445.470          33.000                                                                  
R08  22731670.939   121727034.821        2705.365          46.000    22731694.860    94676633.915        2104.002          40.000  
R20  22205953.780   118745238.696       -2768.948          28.000    22205987.138    92357480.891       -2153.172          33.000  
E03  24074260.628   126511262.642       -1074.396          46.000    24074289.996    96937198.051        -823.128          40.000  
E08  24874754.083   130717715.444        1425.573          45.000    24874782.506   100160474.510        1092.200          42.000  
E30  27705317.321   145592418.495       -2949.158          30.000    27705359.285                       -2266.576          22.000  
E27  27111348.375   142471100.231       -2202.061          41.000    27111390.483   109166335.975       -1687.516          35.000  
E34  25678597.738   134941935.788       -1234.765          39.000    25678630.226   103397218.510        -945.800          37.000  
E15  24843240.650   130552093.992         136.837          44.000    24843270.649   100033575.355         104.410          37.000  
> 2025 04 04 11 16 40.0010000  0 22                     
G25  24499238.235   128744366.710       -2489.351          31.000    24499274.128   100320385.300       -1939.500          29.000  
G11  22678174.329   119174612.708       -1729.857          39.000    22678195.404    92863421.445       -1348.396          34.000  
G06  24749705.478   130060604.376       -2561.461          36.000    24749734.131   101346032.280       -1996.735          31.000  
G05  21442928.133   112683351.768       -1733.846          44.000    21442945.305    87805272.176       -1350.951          35.000  
E05  25879332.950   135996845.022       -3155.983          34.000    25879368.407   104205498.255       -2417.808          32.000  
G13  20422029.644   107318506.259          20.875          45.000                                                                  
R21  20129849.551   107718896.805         137.601          48.000    20129868.554    83781467.497         107.141          37.000  
R06  20498817.223   109385563.512       -3537.875          37.000                                                                  
R07  19644217.024   105157047.152         -97.942          46.000    19644235.180    81788914.736         -76.212          44.000  
R22  22484930.560   120026117.077        2474.672          44.000    22484952.190    93353724.830        1924.516          39.000  
G12  24574992.839   129142457.615       -3149.347          33.000    24575006.331                       -2444.319          23.000  
G15  21421607.241   112571340.216        1855.248          44.000    21421628.527    87718038.946        1445.841          39.000  
G29  22272629.211   117043480.176        1613.933          40.000    22272648.009    91202772.714        1257.646          38.000  
G20  22715234.149   119369341.716       -2444.344          29.000                                                                  
R08  22731165.829   121724329.757        2705.046          46.000    22731189.752    94674530.010        2103.686          39.000  
R20  22206468.245   118748008.228       -2769.324          27.000    22206504.997    92359634.988       -2154.067          36.000  
E03  24074465.073   126512337.134       -1074.603          45.000    24074494.210    96938021.370        -823.356          41.000  
E08  24874482.889   130716290.168        1425.105          45.000    24874511.327   100159382.420        1091.989          42.000  
E30  27705878.791   145595366.901       -2948.088          31.000    27705918.601                       -2261.744          22.000  
E27  27111767.454   142473302.671       -2202.666          42.000    27111809.773   109168023.539       -1687.523          36.000  
E34  25678832.644   134943170.405       -1234.693          40.000    25678864.958   103398164.511        -946.176          37.000  
E15  24843214.733   130551957.273         136.750          45.000    24843244.730   100033470.548         105.033          37.000  
> 2025 04 04 11 16 41.0010000  0 22                     
G25  24499712.256   128746856.272       -2489.328          31.000    24499750.045   100322325.320       -1940.741          30.000  
G11  22678503.629   119176343.432       -1731.009          41.000    22678524.695    92864770.102       -1349.259          39.000  
G06  24750193.008   130063166.627       -2561.741          38.000    24750221.506   101348028.764       -1997.107          31.000  
G05  21443257.993   112685085.822       -1734.229          44.000    21443275.437    87806623.399       -1351.692          35.000  
E05  25879933.433   136000001.134       -3156.012          34.000    25879969.035   104207916.565       -2418.168          30.000  
G13  20422025.718   107318485.907          19.705          46.000                                                                  
R21  20129823.857   107718759.796         136.642          48.000    20129842.948    83781360.947         106.040          38.000  
R06  20499480.228   109389101.885       -3538.829          37.000                                                                  
R07  19644235.352   105157145.755         -99.327          48.000    19644253.593    81788991.428         -77.070          44.000  
R22  22484467.030   120023642.809        2474.006          45.000    22484488.608    93351800.351        1924.109          37.000  
G12  24575592.309   129145607.630       -3149.536          32.000    24575605.531                       -2452.341          22.000  
G15  21421254.401   112569485.516        1854.239          45.000    21421275.585    87716593.735        1444.521          39.000  
G29  22272322.102   117041866.770        1613.058          39.000    22272341.033    91201515.531        1256.662          37.000  
G20  22715699.357   119371787.210       -2445.140          29.000                                                                  
R08  22730660.809   121721625.387        2704.115          47.000    22730684.689    94672426.607        2103.138          41.000  
R20  22206988.178   118750778.547       -2770.587          28.000    22207023.122    92361789.608       -2155.345          35.000  
E03  24074669.972   126513412.366       -1075.641          45.000    24074698.885    96938845.246        -824.206          39.000  
E08  24874211.832   130714865.417        1424.370          45.000    24874240.390   100158290.771        1091.317          42.000  
E30  27706440.395   145598315.500       -2949.031          31.000    27706478.715                       -2258.790          22.000  
E27  27112186.464   142475505.521       -2203.448          42.000    27112229.043   109169711.493       -1688.227          36.000  
E34  25679067.411   134944405.320       -1235.313          43.000    25679099.944   103399110.748        -946.775          39.000  
E15  24843189.005   130551820.787         136.148          44.000    24843218.677   100033366.015         104.501          37.000  
> 2025 04 04 11 16 42.0010000  0 22                     
G25  24500186.200   128749346.241       -2489.635          30.000    24500224.898   100324265.606       -1941.047          30.000  
G11  22678833.088   119178074.619       -1731.461          43.000    22678854.080    92866118.983       -1348.806          40.000  
G06  24750680.707   130065729.300       -2562.303          36.000    24750709.105   101350025.735       -1996.984          35.000  
G05  21443588.082   112686820.271       -1734.339          44.000    21443605.481    87807974.906       -1351.556          35.000  
E05  25880533.737   136003157.670       -3157.055          33.000    25880569.775   104210335.220       -2418.550          29.000  
G13  20422021.710   107318466.434          19.397          46.000                                                                  
R21  20129798.313   107718623.527         136.194          48.000    20129817.572    83781254.945         105.926          38.000  
R06  20500143.502   109392640.929       -3538.854          37.000                                                                  
R07  19644253.997   105157245.373         -99.905          47.000    19644272.109    81789068.912         -77.687          44.000  
R22  22484003.439   120021168.609        2474.352          44.000    22484025.068    93349876.008        1924.595          37.000  
G12  24576191.682   129148757.749       -3149.702          31.000    24576201.341                       -2442.809          21.000  
G15  21420901.551   112567631.431        1854.004          44.000    21420922.694    87715148.968        1444.463          39.000  
G29  22272015.148   117040254.081        1612.721          40.000    22272034.181    91200258.866        1256.837          37.000  
G20  22716164.609   119374232.968       -2445.027          31.000                                                                  
R08  22730155.957   121718921.626        2703.586          46.000    22730179.912    94670323.677        2102.794          40.000  
R20  22207505.154   118753549.546       -2771.207          30.000    22207541.411    92363944.880       -2155.859          33.000  
E03  24074874.741   126514488.215       -1075.938          45.000    24074903.627    96939669.603        -824.305          40.000  
E08  24873940.541   130713441.214        1424.398          45.000    24873969.341   100157199.451        1091.243          42.000  
E30  27707001.731   145601264.133       -2948.676          31.000    27707037.938                       -2253.623          22.000  
E27  27112605.631   142477708.772       -2203.341          41.000    27112648.371   109171399.693       -1688.674          35.000  
E34  25679302.612   134945640.651       -1235.316          43.000    25679335.128   103400057.314        -946.576          41.000  
E15  24843162.916   130551684.464         136.516          45.000    24843192.636   100033261.555         104.344          36.000  
> 2025 04 04 11 16 43.0010000  0 22                     
G25  24500660.347                       -2488.923          29.000    24500697.560   100326206.136       -1940.098          30.000  
G11  22679162.628   119179806.310       -1730.567          43.000    22679183.589    92867468.386       -1348.633          42.000  
G06  24751168.555   130068292.490       -2562.139          34.000    24751196.954   101352023.055       -1997.102          32.000  
G05  21443918.112   112688555.111       -1733.662          45.000    21443935.643    87809326.767       -1351.137          35.000  
E05  25881134.460   136006314.680       -3156.389          33.000    25881170.310   104212754.232       -2418.082          28.000  
G13  20422018.254   107318447.937          19.329          45.000                                                                  
R21  20129773.008   107718488.087         136.369          49.000    20129792.256    83781149.627         106.411          35.000  
R06  20500806.977   109396180.736       -3538.938          37.000                                                                  
R07  19644272.664   105157346.087         -99.945          47.000    19644291.050    81789147.249         -77.702          44.000  
R22  22483539.987   120018694.705        2475.064          44.000    22483561.476    93347951.860        1925.302          36.000  
G12  24576790.944   129151908.077       -3149.286          32.000    24576798.595                       -2452.858          21.000  
G15  21420548.851   112565778.066        1854.259          45.000    21420569.924    87713704.795        1444.748          39.000  
G29  22271708.307   117038642.099        1612.977          39.000    22271727.416    91199002.811        1256.448          37.000  
G20  22716630.115   119376678.876       -2444.288          32.000                                                                  
R08  22729651.126   121716218.518        2704.120          46.000    22729675.211    94668221.286        2103.264          38.000  
R20  22208024.967   118756321.409       -2770.351          31.000    22208059.671    92366100.739       -2155.325          34.000  
E03  24075079.276   126515564.828       -1076.076          46.000    24075109.009    96940494.547        -824.585          41.000  
E08  24873669.675   130712017.567        1424.159          46.000    24873698.809   100156108.599        1091.194          43.000  
E30  27707562.947   145604212.903       -2947.005          31.000    27707599.886                       -2253.574          20.000  
E27  27113024.892   142479912.501       -2202.926          41.000    27113067.903   109173088.262       -1687.927          35.000  
E34  25679537.596   134946876.419       -1234.914          42.000    25679570.711   103401004.218        -946.473          41.000  
E15  24843136.843   130551548.438         136.728          45.000    24843167.097   100033157.340         104.664          37.000  
> 2025 04 04 11 16 44.0010000  0 22                     
G25  24501134.099   128754328.3193      -2489.044          29.000    24501169.622   100328145.763       -1939.970          31.000  
G11  22679491.972   119181536.968       -1730.609          41.000    22679512.991    92868816.954       -1348.677          36.000  
G06  24751656.275   130070854.585       -2562.277          34.000    24751684.567   101354019.507       -1996.206          32.000  
G05  21444248.012   112690288.884       -1733.592          45.000    21444265.509    87810677.778       -1351.231          35.000  
E05  25881734.870   136009470.739       -3155.365          33.000    25881770.920   104215172.597       -2418.727          28.000  
G13  20422014.694   107318428.890          18.841          46.000                                                                  
R21  20129747.496   107718351.904         136.352          47.000    20129766.655    83781043.700         106.029          37.000  
R06  20501470.224   109399719.785       -3538.669          37.000                                                                  
R07  19644291.344   105157446.338        -100.451          47.000    19644309.690    81789225.223         -78.076          45.000  
R22  22483076.312   120016219.552        2475.352          43.000    22483097.838    93346026.782        1925.378          38.000  
G12  24577390.093   129155057.034       -3148.750          33.000    24577396.782                       -2452.693          21.000  
G15  21420196.068   112563923.936        1854.134          45.000    21420217.020    87712259.991        1444.673          38.000  
G29  22271401.307   117037029.333        1612.664          40.000    22271420.579    91197746.087        1257.279          37.000  
G20  22717095.146   119379123.572       -2444.807          27.000                                                                  
R08  22729146.297   121713514.614        2703.867          46.000    22729170.292    94666118.277        2102.631          38.000  
R20  22208544.559   118759092.442       -2771.467          33.000    22208577.721    92368255.969       -2154.972          37.000  
E03  24075284.035   126516640.650       -1075.883          45.000    24075313.355    96941318.860        -824.199          40.000  
E08  24873398.773   130710592.987        1424.536          47.000    24873427.445   100155017.028        1091.601          43.000  
E30  27708123.734   145607160.410       -2947.125          31.000    27708160.599                       -2253.197          20.000  
E27  27113444.060   142482115.217       -2202.593          42.000    27113487.050   109174776.029       -1687.660          35.000  
E34  25679772.584   134948111.027       -1234.605          43.000    25679805.666   103401950.199        -945.903          41.000  
E15  24843110.729   130551411.148         137.358          45.000    24843140.874   100033052.135         105.671          36.000  
> 2025 04 04 11 16 45.0010000  0 22                     
G25  24501607.856   128756817.2102      -2488.655          30.000    24501644.418   100330085.181       -1938.680          30.000  
G11  22679821.315   119183267.445       -1730.209          42.000    22679842.271    92870165.387       -1347.955          42.000  
G06  24752143.851   130073416.500       -2561.866          37.000    24752172.038   101356015.780       -1996.134          31.000  
G05  21444577.806   112692022.346       -1733.283          44.000    21444595.403    87812028.522       -1350.332          35.000  
E05  25882335.671   136012626.532       -3154.983          33.000    25882371.530   104217590.666       -2418.151          28.000  
G13  20422011.125   107318410.030          19.049          46.000                                                                  
R21  20129721.982   107718215.708         136.651          49.000    20129741.160    83780937.809         105.656          37.000  
R06  20502133.364   109403258.847       -3538.899          37.000                                                                  
R07  19644310.060   105157546.884        -100.567          47.000    19644328.524    81789303.421         -78.150          45.000  
R22  22482612.676   120013743.887        2476.082          44.000    22482633.933    93344101.262        1925.660          37.000  
G12  24577989.253   129158205.431       -3147.294          31.000    24577996.486                       -2472.869          21.000  
G15  21419843.159   112562069.750        1854.444          45.000    21419864.244    87710815.210        1445.375          39.000  
G29  22271094.441   117035416.540        1613.432          39.000    22271113.778    91196489.402        1256.911          37.000  
G20  22717560.391   119381567.860       -2444.792          29.000                                                                  
R08  22728641.411   121710810.674        2704.322          46.000    22728665.353    94664015.181        2103.186          38.000  
R20  22209063.519   118761863.558       -2770.979          27.000    22209095.900    92370411.292       -2155.149          37.000  
E03  24075488.912   126517716.434       -1075.450          45.000    24075518.077    96942143.187        -824.150          40.000  
E08  24873127.732   130709168.150        1425.353          44.000    24873156.196   100153925.355        1091.704          42.000  
E30  27708684.668   145610107.334       -2946.250          32.000    27708721.757                       -2260.575          19.000  
E27  27113863.461   142484317.669       -2202.050          42.000    27113906.211   109176463.631       -1687.362          35.000  
E34  25680007.402   134949345.321       -1233.893          43.000    25680040.435   103402895.997        -945.353          41.000  
E15  24843084.774   130551273.367         138.496          45.000    24843114.559   100032946.576         106.131          37.000  
> 2025 04 04 11 16 46.0010000  0 22                     
G25  24502081.544   128759305.4462      -2489.179          29.000    24502117.384   100332023.950       -1937.325          30.000  
G11  22680150.543   119184997.387       -1729.844          43.000    22680171.452    92871513.427       -1348.085          40.000  
G06  24752631.257   130075977.795       -2561.108          34.000    24752659.162   101358011.650       -1996.167          30.000  
G05  21444907.480   112693755.199       -1732.650          44.000    21444925.229    87813378.813       -1350.103          36.000  
E05  25882936.147   136015781.794       -3155.285          33.000    25882971.977   104220008.330       -2417.695          28.000  
G13  20422007.467   107318391.119          18.675          46.000                                                                  
R21  20129696.561   107718079.267         136.397          49.000    20129715.691    83780831.659         106.372          37.000  
R06  20502796.609   109406797.616       -3538.796          37.000                                                                  
R07  19644328.784   105157647.446        -100.761          47.000    19644347.182    81789381.642         -78.553          45.000  
R22  22482148.780   120011267.435        2476.571          43.000    22482170.026    93342175.139        1926.246          37.000  
G12  24578588.330   129161352.989       -3147.442          31.000    24578594.958                       -2453.447          21.000  
G15  21419490.279   112560215.285        1854.279          44.000    21419511.440    87709370.178        1444.968          38.000  
G29  22270787.439   117033803.528        1612.984          39.000    22270806.849    91195232.483        1257.073          37.000  
G20  22718025.611   119384011.204       -2442.895          29.000                                                                  
R08  22728136.411   121708106.420        2704.134          46.000    22728160.420    94661911.880        2103.085          39.000  
R20  22209581.704   118764634.303       -2770.967          28.000    22209613.947    92372566.403       -2155.207          37.000  
E03  24075693.560   126518791.967       -1075.603          45.000    24075722.958    96942967.290        -824.198          41.000  
E08  24872856.436   130707742.973        1425.290          44.000    24872884.820   100152833.269        1092.232          42.000  
E30  27709245.509   145613053.384       -2946.483          32.000    27709282.943                       -2248.971          18.000  
E27  27114282.570   142486519.536       -2201.953          42.000    27114325.179   109178150.808       -1687.150          35.000  
E34  25680242.224   134950578.983       -1233.725          43.000    25680275.109   103403841.235        -945.123          41.000  
E15  24843058.199   130551134.836         138.749          45.000    24843088.227   100032840.449         106.168          37.000  
> 2025 04 04 11 16 47.0010000  0 22                     
G25  24502555.092   128761793.3632      -2487.946          29.000    24502590.521   100333962.717       -1938.848          30.000  
G11  22680479.744   119186727.186       -1729.308          43.000    22680500.677    92872861.312       -1347.312          38.000  
G06  24753118.745   130078539.029       -2560.603          36.000    24753146.365   101360007.373       -1995.416          34.000  
G05  21445237.229   112695487.840       -1732.138          44.000    21445255.082    87814728.894       -1349.576          36.000  
E05  25883536.516   136018936.942       -3154.664          33.000    25883572.539   104222425.930       -2417.634          28.000  
G13  20422003.770   107318372.501          18.681          46.000                                                                  
R21  20129671.048   107717942.965         136.500          48.000    20129690.126    83780725.652         105.919          37.000  
R06  20503459.712   109410336.512       -3538.733          37.000                                                                  
R07  19644347.532   105157748.390        -100.882          46.000    19644366.015    81789460.159         -78.385          45.000  
R22  22481684.717   120008790.582        2477.394          42.000    22481706.031    93340248.716        1926.941          38.000  
G12  24579187.606   129164500.070       -3146.214          32.000    24579194.064                       -2455.270          23.000  
G15  21419137.365   112558360.896        1854.480          44.000    21419158.535    87707925.188        1445.158          39.000  
G29  22270480.429   117032190.542        1613.018          41.000    22270499.903    91193975.644        1257.261          38.000  
G20  22718490.628   119386454.288       -2442.881          28.000                                                                  
R08  22727631.354   121705402.151        2704.604          46.000    22727655.523    94659808.576        2103.496          38.000  
R20  22210100.136   118767405.298       -2770.861          33.000    22210132.036    92374721.601       -2155.587          35.000  
E03  24075898.239   126519867.549       -1075.155          45.000    24075927.515    96943791.445        -823.847          40.000  
E08  24872585.214   130706317.660        1425.651          46.000    24872613.468   100151741.151        1092.487          42.000  
E30  27709806.124   145615998.900       -2945.389          32.000    27709844.646                       -2257.721          18.000  
E27  27114701.402   142488721.248       -2201.400          42.000    27114744.213   109179837.874       -1687.253          35.000  
E34  25680476.732   134951812.323       -1232.851          43.000    25680509.864   103404786.260        -944.740          40.000  
E15  24843031.992   130550995.920         139.313          45.000    24843061.651   100032734.024         106.593          37.000  
> 2025 04 04 11 16 48.0010000  0 22                     
G25  24503028.643   128764280.6682      -2486.885          30.000    24503063.815   100335900.967       -1938.095          29.000  
G11  22680808.871   119188456.613       -1729.063          41.000    22680829.778    92874208.949       -1347.721          37.000  
G06  24753606.198   130081099.779       -2560.320          36.000    24753633.493   101362002.764       -1994.624          33.000  
G05  21445566.809   112697219.969       -1731.943          44.000    21445584.737    87816078.649       -1349.451          36.000  
E05  25884136.568   136022091.668       -3154.240          33.000    25884173.003   104224843.155       -2416.597          28.000  
G13  20422000.160   107318353.923          18.732          46.000                                                                  
R21  20129645.526   107717806.560         136.691          48.000    20129664.441    83780619.566         106.122          38.000  
R06  20504122.906   109413875.234       -3538.543          37.000                                                                  
R07  19644366.258   105157849.501        -101.074          46.000    19644384.889    81789538.804         -78.442          44.000  
R22  22481220.594   120006313.050        2477.963          43.000    22481241.810    93338321.757        1927.247          38.000  
G12  24579786.516   129167646.408       -3145.362          32.000    24579793.792                       -2456.563          24.000  
G15  21418784.463   112556506.311        1854.891          44.000    21418805.600    87706480.057        1445.198          39.000  
G29  22270173.464   117030577.389        1613.298          41.000    22270192.971    91192718.665        1257.041          38.000  
G20  22718955.244   119388896.568       -2442.249          29.000                                                                  
R08  22727126.301   121702697.628        2704.871          46.000    22727150.427    94657705.063        2103.969          39.000  
R20  22210618.365   118770176.157       -2770.823          33.000    22210650.054    92376876.697       -2155.085          36.000  
E03  24076102.840   126520942.958       -1075.161          45.000    24076131.834    96944615.466        -824.240          40.000  
E08  24872313.662   130704891.989        1425.976          46.000    24872342.335   100150648.760        1092.759          43.000  
E30  27710367.043   145618943.649       -2944.320          31.000    27710405.581                       -2246.428          18.000  
E27  27115120.100   142490922.510       -2200.884          41.000    27115162.867   109181524.517       -1686.237          35.000  
E34  25680711.521   134953045.167       -1232.633          43.000    25680744.383   103405730.912        -944.367          40.000  
E15  24843005.157   130550856.358         139.957          45.000    24843035.020   100032627.073         107.301          37.000  
> 2025 04 04 11 16 49.0010000  0 22                     
G25  24503501.973   128766767.3751      -2487.486          30.000    24503537.027   100337839.006       -1937.842          29.000  
G11  22681137.962   119190185.888       -1728.645          42.000    22681158.854    92875556.378       -1346.835          37.000  
G06  24754093.469   130083660.377       -2560.110          36.000    24754120.399   101363998.028       -1994.722          33.000  
G05  21445896.399   112698951.835       -1731.159          44.000    21445914.294    87817428.152       -1348.663          36.000  
E05  25884736.584   136025246.272       -3154.257          33.000    25884773.333   104227260.364       -2417.223          28.000  
G13  20421996.746   107318335.615          18.787          46.000                                                                  
R21  20129620.052   107717670.257         136.640          48.000    20129638.886    83780513.554         106.151          37.000  
R06  20504786.023   109417414.036       -3538.170          37.000                                                                  
R07  19644385.153   105157950.969        -101.029          46.000    19644403.896    81789617.725         -78.742          44.000  
R22  22480756.310   120003835.067        2478.993          43.000    22480777.667    93336394.469        1927.849          38.000  
G12  24580385.263   129170792.327       -3145.068          31.000    24580392.970                       -2450.321          25.000  
G15  21418431.575   112554651.758        1855.061          43.000    21418452.662    87705034.949        1445.391          39.000  
G29  22269866.404   117028964.292        1613.453          41.000    22269886.040    91191461.693        1257.739          38.000  
G20  22719420.092   119391338.467       -2440.501          30.000                                                                  
R08  22726621.341   121699993.108        2705.141          46.000    22726645.276    94655601.554        2103.905          39.000  
R20  22211136.578   118772947.070       -2770.145          33.000    22211168.269    92379031.905       -2155.778          36.000  
E03  24076307.524   126522018.420       -1074.914          45.000    24076336.758    96945439.522        -823.721          40.000  
E08  24872042.293   130703466.204        1426.346          46.000    24872071.583   100149556.293        1092.790          43.000  
E30  27710934.691   145621943.8781      -2942.881          30.000    27710964.880                       -2246.010          20.000  
E27  27115538.804   142493123.574       -2200.400          41.000    27115581.784   109183211.077       -1686.299          35.000  
E34  25680945.755   134954277.747       -1231.938          44.000    25680979.460   103406675.347        -944.125          41.000  
E15  24842978.611   130550716.358         140.680          45.000    24843008.469   100032519.800         107.853          37.000  
> 2025 04 04 11 16 50.0010000  0 22                     
G25  24503975.250   128769253.557       -2486.841          30.000    24504010.063   100339776.303       -1937.583          30.000  
G11  22681466.868   119191914.279       -1728.311          44.000    22681487.820    92876903.156       -1346.627          39.000  
G06  24754580.539   130086220.165       -2559.742          39.000    24754607.517   101365992.721       -1994.677          34.000  
G05  21446225.789   112700682.823       -1731.027          44.000    21446243.729    87818776.967       -1348.774          36.000  
E05  25885336.093   136028400.016       -3153.588          32.000    25885373.569   104229676.830       -2416.339          28.000  
G13  20421993.320   107318316.938          18.427          46.000                                                                  
R21  20129594.417   107717533.352         136.909          47.000    20129613.270    83780407.089         106.519          37.000  
R06  20505449.228   109420952.266       -3538.742          37.000                                                                  
R07  19644404.097   105158052.137        -101.524          47.000    19644422.861    81789696.419         -78.831          44.000  
R22  22480291.907   120001356.023        2479.233          44.000    22480313.249    93334466.333        1928.483          39.000  
G12  24580984.065   129173937.110       -3143.854          31.000    24580991.498                       -2450.633          25.000  
G15  21418078.547   112552796.604        1855.078          43.000    21418099.733    87703589.371        1445.606          39.000  
G29  22269559.409   117027350.597        1613.592          41.000    22269578.949    91190204.284        1257.008          38.000  
G20  22719884.760   119393779.290       -2440.482          35.000                                                                  
R08  22726116.205   121697287.899        2705.270          47.000    22726140.096    94653497.527        2103.612          39.000  
R20  22211654.747   118775717.437       -2770.789          33.000    22211686.140    92381186.643       -2153.812          32.000  
E03  24076512.079   126523093.249       -1074.732          46.000    24076541.132    96946263.115        -823.578          40.000  
E08  24871771.045   130702039.672        1426.626          46.000    24871799.962   100148463.220        1093.143          43.000  
E30  27711493.309   145624887.021       -2942.476          31.000    27711526.499                       -2249.834          20.000  
E27  27115957.725   142495323.796       -2200.708          41.000    27116000.506   109184896.929       -1685.692          35.000  
E34  25681180.479   134955509.311       -1231.159          40.000    25681213.600   103407619.062        -943.795          39.000  
E15  24842951.929   130550575.295         141.303          45.000    24842981.585   100032411.707         108.483          36.000  
> 2025 04 04 11 16 51.0010000  0 22                     
G25  24504447.964   128771742.9053      -2483.963          30.000    24504482.998   100341760.9281      -1936.186          30.000  
G11  22681795.642   119193642.032       -1727.207          43.000    22681816.671    92878249.437       -1345.869          37.000  
G06  24755067.398   130088779.134       -2558.374          37.000    24755094.003   101367986.726       -1993.676          34.000  
G05  21446555.070   112702413.034       -1729.237          44.000    21446572.977    87820125.143       -1347.499          36.000  
E05  25885935.995   136031553.075       -3152.762          32.000    25885974.674                       -2415.172          28.000  
G13  20421989.609   107318298.006          19.521          45.000                                                                  
R21  20129568.810   107717395.974         138.181          45.000    20129587.611    83780300.272         107.392          36.000  
R06  20506112.137   109424489.979       -3536.912          37.000                                                                  
R07  19644422.837   105158153.148        -100.342          47.000    19644441.712    81789774.975         -78.035          44.000  
R22  22479827.268   119998875.976        2481.158          43.000    22479848.674    93332537.396        1929.840          38.000  
G12  24581582.367   129177086.2333      -3142.293          31.000    24581588.195                       -2446.993          24.000  
G15  21417725.365   112550940.940        1856.602          43.000    21417746.481    87702143.406        1446.653          39.000  
G29  22269252.173   117025736.407        1614.541          41.000    22269271.736    91188946.471        1258.501          38.000  
G20  22720348.966   119396219.130       -2438.636          35.000                                                                  
R08  22725610.896   121694582.198        2706.465          47.000    22725634.956    94651393.082        2104.866          39.000  
R20  22212172.895   118778469.8213      -2769.076          32.000    22212204.066    92383341.021       -2154.139          35.000  
E03  24076716.164   126524167.615       -1073.443          45.000    24076745.925    96947086.325        -822.539          41.000  
E08  24871499.284   130700612.476        1427.937          46.000    24871528.473   100147369.652        1094.288          43.000  
E30  27712053.427   145627829.064       -2941.183          31.000    27712087.960                       -2255.849          22.000  
E27  27116376.321   142497523.287       -2198.703          41.000    27116419.272   109186582.246       -1684.742          35.000  
E34  25681414.458   134956740.128       -1229.739          36.000    25681447.843   103408562.142        -942.287          37.000  
E15  24842924.746   130550433.283         142.932          44.000    24842954.721   100032302.893         109.853          36.000  
> 2025 04 04 11 16 52.0010000  0 22                     
G25  24504921.939   128774226.8652      -2484.930          29.000    24504955.868   100343696.450       -1936.980          30.000  
G11  22682124.183   119195368.503       -1727.190          43.000    22682145.209    92879594.744       -1345.977          38.000  
G06  24755554.166   130091336.928       -2558.308          35.000    24755580.475   101369979.777       -1992.609          28.000  
G05  21446884.000   112704141.824       -1729.572          44.000    21446901.998    87821472.259       -1347.402          36.000  
E05  25886535.651   136034704.686       -3151.758          32.000    25886575.531   104234512.7371      -2414.818          28.000  
G13  20421985.699   107318278.228          18.784          45.000                                                                  
R21  20129542.994   107717257.564         137.502          46.000    20129561.687    83780192.640         106.474          35.000  
R06  20506774.997   109428026.635       -3536.944          37.000                                                                  
R07  19644441.413   105158253.369        -100.929          46.000    19644460.334    81789852.936         -78.650          44.000  
R22  22479362.351   119996394.392        2480.694          42.000    22479383.737    93330607.263        1929.734          37.000  
G12  24582180.584   129180230.2892      -3142.931          31.000    24582185.623                       -2448.640          25.000  
G15  21417372.109   112549084.181        1855.795          45.000    21417393.066    87700696.619        1446.166          39.000  
G29  22268944.791   117024121.164        1614.504          40.000    22268964.415    91187687.849        1258.171          38.000  
G20  22720812.803   119398657.322       -2439.063          35.000                                                                  
R08  22725105.327   121691875.346        2705.928          46.000    22725129.531    94649287.769        2104.723          39.000  
R20  22212690.839   118781238.6502      -2770.196          31.000    22212721.772    92385494.573       -2154.173          35.000  
E03  24076920.703   126525240.869       -1073.943          46.000    24076950.050    96947908.700        -822.752          40.000  
E08  24871227.377   130699183.984        1427.903          45.000    24871256.424   100146275.141        1093.866          42.000  
E30  27712606.741   145630769.371       -2940.273          30.000    27712650.006                       -2255.375          22.000  
E27  27116794.737   142499721.381       -2198.757          41.000    27116837.641   109188266.548       -1684.757          36.000  
E34  25681648.304   134957969.435       -1229.548          36.000    25681681.748   103409504.095        -942.313          37.000  
E15  24842897.279   130550289.716         142.991          44.000    24842927.263   100032192.895         109.562          36.000  
> 2025 04 04 11 16 53.0010000  0 22                     
G25  24505394.949   128776709.6282      -2482.809          29.000    24505427.354   100345631.060       -1933.848          30.000  
G11  22682452.529   119197093.896       -1724.644          42.000    22682473.547    92880939.243       -1344.012          39.000  
G06  24756040.793   130093893.492       -2556.588          36.000    24756066.917   101371971.940       -1991.644          35.000  
G05  21447212.761   112705869.529       -1726.904          45.000    21447230.744    87822818.505       -1345.934          36.000  
E05  25887135.328   136037855.423       -3149.894          32.000    25887176.411   104236926.965       -2414.107          29.000  
G13  20421981.795   107318257.856          20.832          46.000                                                                  
R21  20129516.990   107717118.398         139.645          47.000    20129535.632    83780084.360         107.998          35.000  
R06  20507437.632   109431562.483       -3535.187          37.000                                                                  
R07  19644460.102   105158353.131         -99.554          47.000    19644478.948    81789930.542         -77.501          44.000  
R22  22478897.159   119993911.441        2483.860          41.000    22478918.659    93328676.099        1931.802          37.000  
G12  24582778.435   129183370.9472      -3139.942          32.000    24582784.354                       -2446.869          25.000  
G15  21417018.540   112547226.607        1858.224          44.000    21417039.513    87699249.152        1447.655          39.000  
G29  22268637.199   117022505.031        1617.025          39.000    22268656.902    91186428.536        1260.081          37.000  
G20  22721276.479   119401094.275       -2435.983          35.000                                                                  
R08  22724599.742   121689167.638        2708.222          46.000    22724623.895    94647181.799        2106.281          39.000  
R20  22213208.480   118784006.7162      -2767.994          32.000    22213239.506    92387647.487       -2152.475          34.000  
E03  24077124.837   126526313.365       -1071.941          46.000    24077153.786    96948730.470        -821.509          41.000  
E08  24870955.278   130697754.588        1430.007          46.000    24870984.465   100145179.849        1095.834          43.000  
E30  27713166.113   145633708.326       -2938.560          30.000    27713208.718                       -2257.354          23.000  
E27  27117212.914   142501918.422       -2196.265          41.000    27117255.701   109189949.972       -1682.651          36.000  
E34  25681881.796   134959197.675       -1227.503          38.000    25681915.437   103410445.219        -940.302          37.000  
E15  24842869.654   130550144.843         145.650          44.000    24842899.735   100032081.948         111.843          37.000  
> 2025 04 04 11 16 54.0010000  0 22                     
G25  24505865.258   128779190.8522      -2480.156          28.000    24505899.833   100347564.592       -1933.331          31.000  
G11  22682780.496   119198818.041       -1723.319          43.000    22682801.646    92882282.730       -1343.279          39.000  
G06  24756527.209   130096448.816       -2554.363          36.000    24756553.333   101373963.133       -1990.413          34.000  
G05  21447541.165   112707595.854       -1725.665          44.000    21447559.277    87824163.706       -1344.583          36.000  
E05  25887734.426   136041004.838       -3148.858          32.000    25887775.104   104239340.119       -2412.731          28.000  
G13  20421977.775   107318236.650          21.564          46.000                                                                  
R21  20129490.700   107716978.208         140.707          47.000    20129509.398    83779975.369         108.997          35.000  
R06  20508099.848   109435097.274       -3534.413          37.000                                                                  
R07  19644478.592   105158452.148         -98.609          47.000    19644497.416    81790007.568         -76.733          44.000  
R22  22478431.546   119991426.959        2485.327          42.000    22478453.248    93326743.709        1933.015          39.000  
G12  24583376.230   129186509.9732      -3137.773          31.000    24583381.771   100664838.3191      -2445.140          27.000  
G15  21416664.787   112545367.960        1859.248          44.000    21416685.724    87697800.855        1448.906          39.000  
G29  22268329.485   117020887.921        1617.745          39.000    22268349.211    91185168.474        1260.562          37.000  
G20  22721739.833   119403529.679       -2435.040          34.000                                                                  
R08  22724094.008   121686458.802        2709.617          46.000    22724118.128    94645074.924        2107.363          39.000  
R20  22213726.162   118786773.7452      -2766.655          33.000    22213757.123    92389799.614       -2152.074          34.000  
E03  24077328.536   126527384.732       -1070.671          46.000    24077357.704    96949551.394        -820.376          41.000  
E08  24870682.984   130696323.927        1431.387          46.000    24870712.339   100144083.635        1096.776          43.000  
E30  27713726.327   145636645.677       -2936.400          30.000    27713767.996                       -2247.943          22.000  
E27  27117630.751   142504114.168       -2195.205          41.000    27117673.627   109191632.451       -1682.179          36.000  
E34  25682115.225   134960424.527       -1226.230          40.000    25682148.980   103411385.265        -939.506          38.000  
E15  24842841.778   130549998.441         147.187          44.000    24842871.980   100031969.785         112.907          38.000  
> 2025 04 04 11 16 55.0010000  0 22                     
G25  24506335.230   128781671.477       -2480.345          28.000    24506374.619   100349497.565       -1933.290          31.000  
G11  22683108.357   119200541.588       -1723.368          43.000    22683129.685    92883625.740       -1342.992          39.000  
G06  24757013.442   130099003.535       -2554.916          36.000    24757039.654   101375953.819       -1990.612          34.000  
G05  21447869.484   112709321.516       -1725.683          44.000    21447887.744    87825508.372       -1344.389          35.000  
E05  25888333.838   136044153.582       -3148.524          33.000    25888375.045   104241752.864       -2413.243          28.000  
G13  20421973.856   107318215.295          21.140          46.000                                                                  
R21  20129464.419   107716837.676         140.360          46.000    20129483.069    83779866.060         109.359          35.000  
R06  20508762.278   109438631.681       -3534.235          38.000                                                                  
R07  19644496.924   105158551.098         -99.046          46.000    19644515.813    81790084.531         -77.047          44.000  
R22  22477965.848   119988941.613        2486.021          42.000    22477987.768    93324810.687        1933.149          38.000  
G12  24583973.701   129189647.6611      -3138.329          33.000    24583979.668   100667283.646       -2445.147          27.000  
G15  21416311.116   112543508.952        1858.948          44.000    21416331.909    87696352.256        1448.746          39.000  
G29  22268021.764   117019270.446        1617.229          40.000    22268041.379    91183908.088        1260.329          37.000  
G20  22722202.927   119405964.152       -2434.284          34.000                                                                  
R08  22723588.077   121683749.518        2709.244          46.000    22723612.168    94642967.710        2107.266          39.000  
R20  22214243.627   118789539.9101      -2766.714          33.000    22214274.548    92391951.457       -2152.244          34.000  
E03  24077532.304   126528455.753       -1071.008          46.000    24077561.428    96950372.054        -820.782          40.000  
E08  24870410.624   130694892.726        1431.333          45.000    24870439.848   100142987.020        1096.735          43.000  
E30  27714283.763   145639582.039       -2935.583          30.000    27714328.125                       -2246.487          22.000  
E27  27118048.272   142506309.262       -2195.092          41.000    27118091.626   109193314.383       -1681.596          37.000  
E34  25682348.593   134961650.598       -1226.135          40.000    25682382.213   103412324.719        -939.265          38.000  
E15  24842813.716   130549851.204         147.517          45.000    24842843.791   100031856.955         113.098          38.000  
> 2025 04 04 11 16 56.0010000  0 22                     
G25  24506807.796   128784151.970       -2480.304          27.000    24506847.528   100351430.346       -1932.669          31.000  
G11  22683436.343   119202265.115       -1723.617          43.000    22683457.768    92884968.741       -1342.932          39.000  
G06  24757499.660   130101558.142       -2554.448          33.000    24757525.784   101377944.480       -1990.360          34.000  
G05  21448197.889   112711047.041       -1725.635          44.000    21448216.139    87826852.966       -1344.697          35.000  
E05  25888932.699   136047302.323       -3148.420          32.000    25888974.537   104244165.556       -2412.811          28.000  
G13  20421969.745   107318194.344          20.773          46.000                                                                  
R21  20129438.209   107716697.372         140.224          46.000    20129456.761    83779756.916         108.896          35.000  
R06  20509424.691   109442166.300       -3534.558          38.000                                                                  
R07  19644515.580   105158650.546         -99.633          46.000    19644534.392    81790161.869         -77.550          44.000  
R22  22477500.037   119986455.957        2485.761          41.000    22477522.100    93322877.411        1933.344          38.000  
G12  24584571.045   129192785.339       -3137.467          32.000    24584576.909   100669728.599       -2444.403          27.000  
G15  21415957.474   112541650.074        1858.715          44.000    21415978.112    87694903.815        1448.236          40.000  
G29  22267714.047   117017653.108        1617.110          41.000    22267733.714    91182647.835        1260.102          36.000  
G20  22722665.915   119408398.367       -2434.007          33.000                                                                  
R08  22723082.124   121681040.335        2709.267          47.000    22723106.334    94640860.563        2107.369          39.000  
R20  22214761.073   118792306.785       -2766.730          33.000    22214791.931    92394103.459       -2151.884          36.000  
E03  24077736.100   126529526.963       -1071.194          45.000    24077765.302    96951192.836        -820.978          40.000  
E08  24870138.371   130693461.549        1431.177          45.000    24870167.376   100141890.415        1096.621          43.000  
E30  27714841.714   145642518.104       -2936.714          31.000    27714890.252                       -2252.789          22.000  
E27  27118466.029   142508504.279       -2195.014          41.000    27118509.290   109194996.304       -1682.125          37.000  
E34  25682582.039   134962876.539       -1225.753          41.000    25682615.497   103413264.092        -939.370          39.000  
E15  24842785.974   130549703.667         147.836          45.000    24842815.785   100031743.900         113.339          38.000  
> 2025 04 04 11 16 57.0010000  0 22                     
G25  24507278.942   128786632.547       -2480.672          27.000    24507318.560   100353363.320       -1934.100          31.000  
G11  22683764.313   119203988.917       -1723.898          43.000    22683785.756    92886311.924       -1343.308          37.000  
G06  24757985.747   130104113.057       -2554.678          36.000    24758012.124   101379935.326       -1991.256          35.000  
G05  21448526.298   112712772.692       -1725.740          44.000    21448544.513    87828197.623       -1344.934          36.000  
E05  25889532.221   136050451.345       -3149.339          33.000    25889573.141   104246578.475       -2413.948          27.000  
G13  20421965.693   107318174.059          19.890          46.000                                                                  
R21  20129412.165   107716557.547         139.435          46.000    20129430.600    83779648.195         107.722          36.000  
R06  20510087.118   109445701.425       -3535.648          37.000                                                                  
R07  19644534.209   105158750.741        -100.810          46.000    19644553.175    81790239.811         -78.362          45.000  
R22  22477034.294   119983970.270        2485.840          41.000    22477056.487    93320944.099        1933.400          38.000  
G12  24585168.313   129195922.995       -3137.847          31.000    24585174.322                       -2444.275          26.000  
G15  21415603.847   112539791.661        1858.151          44.000    21415624.471    87693455.700        1448.031          40.000  
G29  22267406.235   117016036.253        1616.802          40.000    22267425.936    91181387.976        1259.372          36.000  
G20  22723129.235   119410832.560       -2434.300          31.000                                                                  
R08  22722576.223   121678331.601        2708.651          47.000    22722600.635    94638753.753        2106.516          38.000  
R20  22215278.886   118795074.201       -2767.756          33.000    22215309.357    92396255.881       -2152.655          36.000  
E03  24077939.968   126530598.606       -1072.086          45.000    24077969.347    96952013.969        -821.197          39.000  
E08  24869866.091   130692030.676        1430.485          44.000    24869895.174   100140794.011        1096.269          43.000  
E30  27715400.691   145645453.900       -2935.172          31.000    27715449.528                       -2256.089          21.000  
E27  27118883.817   142510699.507       -2195.545          41.000    27118926.908   109196678.343       -1682.169          37.000  
E34  25682815.457   134964102.639       -1226.329          39.000    25682848.928   103414203.529        -939.447          38.000  
E15  24842757.797   130549556.151         147.390          45.000    24842787.695   100031630.876         112.734          38.000  
> 2025 04 04 11 16 58.0010000  0 22                     
G25  24507751.431   128789113.996       -2482.547          26.000    24507790.283   100355296.726       -1932.950          31.000  
G11  22684092.482   119205713.588       -1725.237          42.000    22684113.921    92887655.863       -1344.343          38.000  
G06  24758472.154   130106668.793       -2555.884          36.000    24758498.454   101381926.811       -1992.156          35.000  
G05  21448854.779   112714499.155       -1726.830          44.000    21448872.999    87829542.938       -1345.473          36.000  
E05  25890132.041   136053601.202       -3150.618          33.000    25890171.586   104248991.912       -2413.652          27.000  
G13  20421962.164   107318155.103          18.163          45.000                                                                  
R21  20129386.302   107716418.930         138.013          46.000    20129404.794    83779540.371         106.954          36.000  
R06  20510749.761   109449237.635       -3536.559          37.000                                                                  
R07  19644553.292   105158852.414        -102.436          46.000    19644572.274    81790318.875         -79.563          44.000  
R22  22476568.779   119981485.231        2484.440          41.000    22476591.000    93319011.319        1932.515          38.000  
G12  24585765.562   129199061.200       -3138.045          31.000    24585771.167                       -2445.091          26.000  
G15  21415250.295   112537934.330        1856.817          44.000    21415271.073    87692008.437        1446.682          40.000  
G29  22267098.819   117014420.526        1615.044          38.000    22267118.530    91180128.940        1258.533          36.000  
G20  22723592.622   119413267.307       -2434.535          32.000                                                                  
R08  22722070.573   121675623.952        2706.955          47.000    22722095.094    94636647.825        2105.197          39.000  
R20  22215796.719   118797842.756       -2769.047          34.000    22215827.086    92398409.181       -2153.644          37.000  
E03  24078144.049   126531671.352       -1073.386          46.000    24078173.531    96952835.932        -822.402          40.000  
E08  24869593.643   130690600.737        1429.384          45.000    24869623.021   100139698.350        1095.336          43.000  
E30  27715959.381   145648390.330       -2936.610          31.000    27716009.297                       -2250.134          21.000  
E27  27119301.788   142512895.562       -2196.338          41.000    27119344.817   109198361.058       -1683.349          37.000  
E34  25683048.705   134965329.448       -1227.247          36.000    25683082.333   103415143.593        -940.277          38.000  
E15  24842730.006   130549409.227         146.664          45.000    24842759.721   100031518.309         111.988          36.000  
> 2025 04 04 11 16 59.0010000  0 22                     
G25  24508224.865   128791595.552       -2480.988          26.000    24508262.619   100357230.476       -1933.299          30.000  
G11  22684420.772   119207438.687       -1725.285          43.000    22684442.184    92889000.113       -1344.521          40.000  
G06  24758958.435   130109224.984       -2555.955          36.000    24758985.022   101383918.677       -1992.374          33.000  
G05  21449183.364   112716226.005       -1727.069          44.000    21449201.545    87830888.523       -1345.916          35.000  
E05  25890731.759   136056751.486       -3150.374          34.000    25890771.230   104251405.857       -2414.502          27.000  
G13  20421958.869   107318137.069          17.771          46.000                                                                  
R21  20129360.636   107716281.011         137.646          48.000    20129378.955    83779433.075         107.444          35.000  
R06  20511412.618   109452774.598       -3537.146          38.000                                                                  
R07  19644572.374   105158955.083        -103.047          46.000    19644591.531    81790398.742         -80.193          44.000  
R22  22476103.368   119979000.397        2484.784          42.000    22476125.553    93317078.668        1932.422          38.000  
G12  24586363.066   129202199.645       -3139.050          31.000    24586370.047                       -2446.534          26.000  
G15  21414896.949   112536077.695        1856.193          43.000    21414917.751    87690561.699        1446.350          40.000  
G29  22266791.537   117012805.473        1614.750          39.000    22266811.228    91178870.486        1258.002          36.000  
G20  22724056.111   119415702.311       -2435.157          33.000                                                                  
R08  22721565.108   121672916.977        2706.735          47.000    22721589.661    94634542.416        2104.925          39.000  
R20  22216314.610   118800612.013       -2769.182          33.000    22216344.932    92400563.151       -2154.305          33.000  
E03  24078348.305   126532744.798       -1073.665          45.000    24078377.862    96953658.466        -822.539          40.000  
E08  24869321.732   130689171.335        1429.077          45.000    24869350.917   100138603.081        1095.085          43.000  
E30  27716518.769   145651326.886       -2937.070          31.000    27716567.487                       -2250.959          21.000  
E27  27119719.789   142515092.060       -2196.748          41.000    27119762.682   109200044.081       -1683.104          37.000  
E34  25683282.254   134966556.594       -1227.049          39.000    25683315.837   103416083.895        -940.382          38.000  
E15  24842702.040   130549262.540         146.628          45.000    24842731.820   100031405.911         112.414          38.000  
> 2025 04 04 11 17 00.0010000  0 22                     
G25  24508696.609   128794077.254       -2481.208          26.000    24508734.936   100359164.258       -1933.728          30.000  
G11  22684749.077   119209163.921       -1725.023          44.000    22684770.535    92890344.442       -1344.274          41.000  
G06  24759444.687   130111781.222       -2556.230          35.000    24759471.509   101385910.573       -1991.548          34.000  
G05  21449511.842   112717952.863       -1726.998          44.000    21449530.110    87832234.185       -1346.171          33.000  
E05  25891331.179   136059901.943       -3150.634          34.000    25891372.572   104253819.819       -2413.930          28.000  
G13  20421955.705   107318119.548          17.284          46.000                                                                  
R21  20129334.983   107716143.493         137.207          46.000    20129353.122    83779326.121         107.006          35.000  
R06  20512075.596   109456311.869       -3537.527          38.000                                                                  
R07  19644591.647   105159058.393        -103.542          47.000    19644610.815    81790479.119         -80.669          44.000  
R22  22475637.856   119976515.412        2485.157          43.000    22475660.162    93315145.906        1932.891          38.000  
G12  24586960.302   129205337.765       -3138.867          32.000    24586968.136                       -2444.820          27.000  
G15  21414543.619   112534221.320        1856.273          43.000    21414564.532    87689115.199        1446.305          40.000  
G29  22266484.275   117011190.706        1614.766          39.000    22266503.958    91177612.219        1258.698          37.000  
G20  22724519.273   119418137.044       -2434.544          32.000                                                                  
R08  22721059.771   121670210.248        2706.535          46.000    22721084.203    94632437.183        2105.165          39.000  
R20  22216832.606   118803381.625       -2769.567          32.000    22216862.729    92402717.261       -2154.079          34.000  
E03  24078552.735   126533818.540       -1073.829          46.000    24078582.154    96954481.199        -822.773          40.000  
E08  24869049.678   130687741.996        1429.606          45.000    24869079.185   100137507.909        1095.403          43.000  
E30  27717077.820   145654263.183       -2937.008          30.000    27717123.882                       -2238.178          21.000  
E27  27120138.176   142517288.602       -2196.275          42.000    27120180.613   109201727.173       -1683.103          36.000  
E34  25683516.043   134967783.782       -1226.996          41.000    25683549.221   103417024.158        -940.255          40.000  
E15  24842674.084   130549115.683         146.970          45.000    24842703.890   100031293.388         112.615          39.000  
> 2025 04 04 11 17 01.0010000  0 22                     
G25  24509169.286   128796558.350       -2480.201          26.000    24509207.107   100361097.660       -1932.889          30.000  
G11  22685077.343   119210888.885       -1724.786          43.000    22685098.722    92891688.570       -1343.988          39.000  
G06  24759930.870   130114337.218       -2555.798          35.000    24759958.056   101387902.244       -1991.444          34.000  
G05  21449840.311   112719679.337       -1726.023          45.000    21449858.638    87833579.443       -1343.813          33.000  
E05  25891930.932   136063052.026       -3149.386          33.000    25891971.093   104256233.550       -2413.353          28.000  
G13  20421952.411   107318102.194          17.628          46.000                                                                  
R21  20129309.312   107716005.991         137.907          46.000    20129327.549    83779219.228         106.936          35.000  
R06  20512738.385   109459849.113       -3537.060          38.000                                                                  
R07  19644611.053   105159161.987        -103.426          47.000    19644630.165    81790559.682         -80.435          44.000  
R22  22475172.274   119974029.906        2486.036          42.000    22475194.600    93313212.718        1933.776          38.000  
G12  24587557.613   129208475.245       -3136.550          31.000    24587565.558   100681970.5311      -2444.617          27.000  
G15  21414190.288   112532364.924        1856.582          42.000    21414211.235    87687668.639        1446.854          40.000  
G29  22266177.030   117009575.895        1615.189          40.000    22266196.584    91176353.947        1258.744          36.000  
G20  22724982.473   119420571.290       -2433.874          29.000                                                                  
R08  22720554.255   121667503.384        2707.023          47.000    22720578.847    94630331.836        2105.734          39.000  
R20  22217350.522   118806151.213       -2769.219          33.000    22217380.463    92404871.417       -2153.683          34.000  
E03  24078757.120   126534892.219       -1073.411          46.000    24078786.437    96955303.899        -822.683          40.000  
E08  24868777.884   130686312.496        1429.815          45.000    24868807.103   100136412.585        1095.584          44.000  
E30  27717636.435   145657198.715       -2934.885          29.000    27717679.291                       -2253.200          22.000  
E27  27120556.229   142519484.847       -2195.905          43.000    27120598.520   109203410.012       -1682.568          36.000  
E34  25683749.615   134969010.539       -1226.310          43.000    25683782.565   103417964.134        -939.463          41.000  
E15  24842646.106   130548968.297         147.917          44.000    24842675.696   100031180.463         113.103          39.000  
> 2025 04 04 11 17 02.0010000  0 22                     
G25  24509641.897   128799038.900       -2480.299          27.000    24509679.067   100363030.619       -1933.464          30.000  
G11  22685405.582   119212613.287       -1724.264          44.000    22685426.863    92893032.289       -1343.685          40.000  
G06  24760417.095   130116892.567       -2555.006          30.000    24760444.468   101389893.543       -1991.464          37.000  
G05  21450168.586   112721405.237       -1725.889          44.000    21450187.088    87834924.304       -1345.078          34.000  
E05  25892530.732   136066201.659       -3149.743          34.000    25892568.883   104258646.852       -2412.801          27.000  
G13  20421949.046   107318084.750          17.376          46.000                                                                  
R21  20129283.605   107715868.267         137.785          48.000    20129301.872    83779112.038         107.247          36.000  
R06  20513401.199   109463386.085       -3536.766          38.000                                                                  
R07  19644630.362   105159265.594        -103.739          47.000    19644649.492    81790640.272         -80.669          44.000  
R22  22474706.457   119971543.526        2486.792          41.000    22474728.748    93311278.910        1934.014          39.000  
G12  24588154.671   129211611.870       -3136.533          32.000    24588162.060   100684414.639       -2444.132          27.000  
G15  21413836.928   112530508.162        1856.801          43.000    21413857.847    87686221.855        1446.569          40.000  
G29  22265869.642   117007960.775        1614.816          40.000    22265889.313    91175095.413        1258.659          37.000  
G20  22725445.840   119423004.844       -2434.020          32.000                                                                  
R08  22720048.605   121664796.177        2707.168          47.000    22720073.386    94628226.241        2105.777          40.000  
R20  22217868.486   118808920.521       -2768.713          32.000    22217898.245    92407025.331       -2153.645          33.000  
E03  24078961.014   126535965.600       -1073.437          46.000    24078990.587    96956126.358        -822.339          40.000  
E08  24868505.656   130684882.529        1429.851          46.000    24868535.071   100135316.905        1095.783          43.000  
E30  27718194.770   145660133.430       -2934.315          29.000    27718234.404                       -2249.177          22.000  
E27  27120973.990   142521680.488       -2195.710          42.000    27121016.248   109205092.353       -1682.317          36.000  
E34  25683982.764   134970236.558       -1225.849          41.000    25684015.721   103418903.616        -939.229          39.000  
E15  24842617.922   130548820.132         148.471          45.000    24842647.526   100031066.956         113.707          39.000  
> 2025 04 04 11 17 03.0010000  0 23                     
G25  24510114.105   128801519.620       -2481.240          27.000    24510151.144   100364971.5531      -1933.124          30.000  
G11  22685733.779   119214337.910       -1724.976          43.000    22685755.000    92894376.152       -1344.522          37.000  
G06  24760903.216   130119448.174       -2555.717          30.000    24760930.946   101391884.928       -1991.544          38.000  
G05  21450496.992   112723131.243       -1726.298          44.000    21450515.547    87836269.241       -1345.111          35.000  
E05  25893129.569   136069351.482       -3150.039          33.000    25893169.088   104261060.401       -2413.637          27.000  
G13  20421945.710   107318068.004          16.127          46.000                                                                  
R21  20129258.028   107715731.017         136.883          48.000    20129276.077    83779005.318         106.590          38.000  
R06  20514063.981   109466923.557       -3537.844          37.000                                                                  
R07  19644649.768   105159369.965        -104.775          45.000    19644668.975    81790721.455         -81.521          44.000  
R22  22474240.714   119969057.175        2486.274          42.000    22474262.940    93309345.090        1933.840          38.000  
G12  24588751.700   129214748.452       -3136.676          32.000    24588760.277   100686858.624       -2443.707          27.000  
G15  21413483.706   112528651.862        1855.921          44.000    21413504.554    87684775.384        1446.049          40.000  
G29  22265562.421   117006346.138        1614.012          42.000    22265582.163    91173837.258        1257.840          38.000  
G20  22725908.877   119425438.142       -2433.215          33.000                                                                  
R08  22719543.056   121662089.413        2706.387          46.000    22719568.123    94626120.978        2104.981          40.000  
R20  22218386.653   118811690.362       -2770.322          33.000    22218416.120    92409179.572       -2155.320          34.000  
E03  24079165.633   126537039.421       -1074.192          45.000    24079194.959    96956949.164        -823.220          40.000  
E08  24868233.551   130683452.842        1429.365          45.000    24868262.897   100134221.433        1095.208          43.000  
E30  27718753.281   145663068.087       -2934.753          29.000    27718791.251                       -2248.658          24.000  
E27  27121391.787   142523876.368       -2196.080          42.000    27121434.126   109206774.901       -1682.968          36.000  
E34  25684215.978   134971462.735       -1226.413          42.000    25684249.090   103419843.124        -939.723          40.000  
G30  25524821.538   134133841.8413       -576.806          28.000                                                                  
E15  24842589.587   130548671.950         148.095          44.000    24842619.394   100030953.419         113.616          38.000  
> 2025 04 04 11 17 04.0010000  0 23                     
G25  24510586.237   128804001.046       -2481.443          27.000    24510623.307   100366905.191       -1933.093          30.000  
G11  22686062.063   119216063.590       -1726.119          45.000    22686083.467    92895720.827       -1345.085          40.000  
G06  24761389.252   130122004.749       -2557.139          31.000    24761417.596   101393877.096       -1992.688          37.000  
G05  21450825.590   112724858.145       -1727.459          44.000    21450844.158    87837614.932       -1346.347          34.000  
E05  25893729.307   136072502.245       -3151.139          33.000    25893768.935   104263474.580       -2414.784          28.000  
G13  20421942.864   107318052.642          14.729          46.000                                                                  
R21  20129232.668   107715594.976         135.328          47.000    20129250.602    83778899.534         105.116          35.000  
R06  20514727.096   109470462.249       -3539.589          37.000                                                                  
R07  19644669.580   105159475.877        -106.599          46.000    19644688.763    81790803.842         -83.045          44.000  
R22  22473775.205   119966571.554        2485.447          43.000    22473797.193    93307411.810        1933.300          38.000  
G12  24589349.044   129217885.642       -3137.483          33.000    24589356.877   100689303.199       -2444.347          26.000  
G15  21413130.678   112526796.755        1854.828          43.000    21413151.466    87683329.845        1445.070          39.000  
G29  22265255.360   117004732.660        1613.090          41.000    22265275.132    91172580.032        1256.836          38.000  
G20  22726372.327   119427872.222       -2434.500          34.000                                                                  
R08  22719037.755   121659383.832        2704.948          46.000    22719062.941    94624016.616        2103.972          40.000  
R20  22218904.791   118814461.446       -2771.753          33.000    22218934.305    92411335.010       -2156.407          34.000  
E03  24079370.244   126538114.414       -1075.558          46.000    24079399.357    96957772.873        -824.276          40.000  
E08  24867961.689   130682024.173        1428.206          45.000    24867991.223   100133126.744        1094.253          43.000  
E30  27719311.555   145666003.289       -2935.252          29.000    27719347.822                       -2252.414          24.000  
E27  27121809.606   142526073.158       -2197.098          42.000    27121852.149   109208458.163       -1683.651          36.000  
E34  25684449.420   134972689.832       -1227.532          40.000    25684482.665   103420783.384        -940.554          40.000  
G30  25524932.297   134134419.4812       -578.057          28.000                                                                  
E15  24842561.386   130548524.503         147.164          44.000    24842591.336   100030840.418         112.522          38.000  
> 2025 04 04 11 17 05.0010000  0 23                     
G25  24511058.615   128806483.257       -2482.252          26.000    24511095.738   100368839.362       -1934.247          30.000  
G11  22686390.703   119217790.036       -1726.976          44.000    22686411.986    92897066.134       -1345.503          40.000  
G06  24761875.305   130124562.120       -2558.037          30.000    24761904.407   101395869.902       -1993.300          35.000  
G05  21451154.367   112726585.770       -1728.255          44.000    21451172.874    87838961.090       -1346.737          35.000  
E05  25894328.873   136075653.887       -3151.993          33.000    25894369.400   104265889.511       -2415.583          28.000  
G13  20421940.378   107318038.573          13.239          46.000                                                                  
R21  20129207.481   107715460.056         134.121          48.000    20129225.390    83778794.588         104.734          37.000  
R06  20515390.601   109474001.985       -3540.410          36.000                                                                  
R07  19644689.603   105159583.239        -108.221          46.000    19644708.864    81790887.342         -84.249          44.000  
R22  22473309.706   119964086.527        2484.582          43.000    22473331.752    93305479.043        1932.489          38.000  
G12  24589946.536   129221023.258       -3137.812          33.000    24589954.776   100691748.164       -2445.307          27.000  
G15  21412777.912   112524942.683        1853.266          43.000    21412798.548    87681885.145        1444.286          39.000  
G29  22264948.411   117003120.288        1611.643          40.000    22264968.348    91171323.625        1256.007          38.000  
G20  22726835.532   119430306.862       -2434.705          33.000                                                                  
R08  22718532.611   121656679.281        2703.947          46.000    22718557.919    94621913.093        2102.976          40.000  
R20  22219423.141   118817233.647       -2772.391          32.000    22219452.615    92413491.069       -2157.156          37.000  
E03  24079575.147   126539190.469       -1076.815          46.000    24079604.241    96958597.380        -825.229          41.000  
E08  24867689.977   130680596.414        1427.167          44.000    24867719.497   100132032.760        1093.427          43.000  
E30  27719870.340   145668939.028       -2936.061          29.000    27719905.520                       -2246.229          25.000  
E27  27122227.784   142528270.745       -2198.095          42.000    27122270.332   109210142.040       -1684.903          36.000  
E34  25684683.199   134973917.574       -1228.138          40.000    25684716.302   103421724.171        -941.401          39.000  
G30  25525041.444   134134997.7992       -578.819          28.000                                                                  
E15  24842533.219   130548377.623         146.323          44.000    24842563.257   100030727.863         112.407          37.000  
> 2025 04 04 11 17 06.0010000  0 23                     
G25  24511531.139   128808966.693       -2484.610          25.000    24511568.318   100370774.468       -1935.078          30.000  
G11  22686719.466   119219517.871       -1729.061          43.000    22686740.757    92898412.503       -1347.441          40.000  
G06  24762362.198   130127120.819       -2559.652          32.000    24762391.496   101397863.725       -1994.723          36.000  
G05  21451483.493   112728314.650       -1730.033          44.000    21451501.875    87840308.246       -1347.882          35.000  
E05  25894928.821   136078806.790       -3154.079          33.000    25894969.624   104268305.395       -2416.995          28.000  
G13  20421938.192   107318026.259          10.921          46.000                                                                  
R21  20129182.561   107715326.774         132.082          48.000    20129200.413    83778690.918         102.521          36.000  
R06  20516054.161   109477543.345       -3542.416          36.000                                                                  
R07  19644710.101   105159692.506        -110.754          47.000    19644729.459    81790972.333         -86.020          45.000  
R22  22472844.378   119961602.563        2482.756          43.000    22472866.402    93303547.071        1931.268          38.000  
G12  24590543.955   129224161.953       -3139.372          34.000    24590553.806   100694193.858       -2446.483          27.000  
G15  21412425.436   112523090.149        1851.377          43.000    21412445.948    87680441.606        1442.349          38.000  
G29  22264641.925   117001509.439        1609.542          42.000    22264661.904    91170068.423        1254.096          38.000  
G20  22727298.955   119432742.567       -2436.575          32.000                                                                  
R08  22718027.847   121653976.217        2701.730          46.000    22718053.122    94619810.683        2101.591          40.000  
R20  22219941.829   118820007.492       -2775.082          31.000    22219971.217    92415648.408       -2158.399          37.000  
E03  24079779.964   126540268.062       -1078.781          46.000    24079809.369    96959423.063        -826.525          40.000  
E08  24867418.533   130679169.988        1425.288          42.000    24867448.050   100130939.804        1092.088          42.000  
E30  27720428.901   145671875.658       -2937.374          30.000    27720465.867                       -2255.141          25.000  
E27  27122646.232   142530469.623       -2199.789          42.000    27122688.835   109211826.874       -1685.717          36.000  
E34  25684916.823   134975146.554       -1230.056          41.000    25684950.087   103422665.847        -942.542          38.000  
G30  25525150.379   134135577.7892       -580.762          27.000                                                                  
E15  24842505.573   130548231.816         144.948          44.000    24842535.447   100030616.151         111.273          37.000  
> 2025 04 04 11 17 07.0010000  0 23                     
G25  24512004.124   128811451.610       -2484.833          25.000    24512041.131   100372710.809       -1936.729          30.000  
G11  22687048.584   119221247.358       -1729.985          44.000    22687069.790    92899760.164       -1348.255          41.000  
G06  24762849.117   130129681.085       -2560.255          31.000    24762878.779   101399858.763       -1995.022          36.000  
G05  21451812.841   112730045.073       -1730.861          43.000    21451831.114    87841656.660       -1348.098          35.000  
E05  25895529.481   136081961.352       -3155.343          33.000    25895569.815   104270722.608       -2417.576          28.000  
G13  20421936.361   107318016.043           9.480          46.000                                                                  
R21  20129158.078   107715195.473         130.596          48.000    20129175.933    83778588.853         101.475          37.000  
R06  20516718.276   109481086.567       -3543.920          36.000                                                                  
R07  19644730.977   105159804.006        -112.220          47.000    19644750.286    81791059.065         -87.425          45.000  
R22  22472379.284   119959120.039        2482.114          44.000    22472401.342    93301616.201        1930.490          37.000  
G12  24591141.794   129227301.971       -3140.415          33.000    24591153.339   100696640.646       -2446.767          27.000  
G15  21412073.244   112521239.487        1849.814          42.000    21412093.755    87678999.523        1441.509          38.000  
G29  22264335.860   116999900.478        1608.274          41.000    22264355.823    91168814.698        1253.061          39.000  
G20  22727762.650   119435179.643       -2437.046          33.000                                                                  
R08  22717523.379   121651274.988        2700.489          46.000    22717548.731    94617709.757        2100.497          40.000  
R20  22220460.991   118822783.260       -2776.011          31.000    22220490.296    92417807.392       -2159.674          37.000  
E03  24079985.193   126541347.556       -1080.075          46.000    24080014.722    96960250.202        -827.728          41.000  
E08  24867147.555   130677745.333        1424.331          44.000    24867176.902   100129848.160        1091.202          43.000  
E30  27720987.358   145674813.634       -2938.040          30.000    27721025.143                       -2250.920          25.000  
E27  27123065.280   142532670.113       -2201.055          44.000    27123107.508   109213512.957       -1686.536          36.000  
E34  25685150.992   134976377.060       -1230.952          41.000    25685184.380   103423608.679        -942.883          39.000  
G30  25525259.007   134136159.4432       -582.228          28.000                                                                  
E15  24842477.912   130548087.402         144.227          44.000    24842507.909   100030505.513         110.326          37.000  
> 2025 04 04 11 17 08.0010000  0 23                     
G25  24512477.195   128813937.256       -2485.505          25.000    24512514.120   100374647.708       -1936.501          30.000  
G11  22687377.866   119222977.748       -1730.693          44.000    22687398.965    92901108.505       -1348.813          40.000  
G06  24763336.454   130132242.414       -2562.104          31.000    24763366.281   101401854.522       -1995.936          38.000  
G05  21452142.144   112731776.332       -1731.371          44.000    21452160.546    87843005.740       -1349.636          35.000  
E05  25896130.266   136085116.862       -3156.080          32.000    25896169.221   104273140.433       -2418.064          28.000  
G13  20421934.704   107318007.177           8.374          46.000                                                                  
R21  20129133.787   107715065.403         129.611          48.000    20129151.647    83778487.640         101.249          34.000  
R06  20517382.420   109484630.980       -3544.808          37.000                                                                  
R07  19644751.985   105159916.963        -113.503          47.000    19644771.359    81791146.924         -88.179          45.000  
R22  22471914.295   119956638.148        2481.780          44.000    22471936.438    93299685.838        1930.220          37.000  
G12  24591739.365   129230442.542       -3140.799          32.000    24591752.900   100699087.759       -2446.586          28.000  
G15  21411721.283   112519389.932        1849.139          43.000    21411741.657    87677558.301        1440.921          39.000  
G29  22264029.802   116998292.604        1607.646          41.000    22264049.817    91167561.839        1252.476          39.000  
G20  22728226.560   119437617.349       -2438.545          33.000                                                                  
R08  22717019.145   121648574.905        2699.606          46.000    22717044.556    94615609.691        2099.820          40.000  
R20  22220980.299   118825560.219       -2777.441          33.000    22221009.704    92419967.231       -2160.370          36.000  
E03  24080190.912   126542428.143       -1080.940          46.000    24080220.509    96961078.201        -828.420          41.000  
E08  24866876.341   130676321.592        1423.433          45.000    24866906.065   100128757.244        1090.640          44.000  
E30  27721546.146   145677752.173       -2938.652          29.000    27721584.741                       -2252.322          25.000  
E27  27123484.214   142534871.464       -2201.604          43.000    27123526.627   109215199.710       -1686.789          36.000  
E34  25685384.958   134977608.337       -1231.502          40.000    25685418.837   103424552.127        -943.454          40.000  
G30  25525379.780   134136741.6481       -582.896          29.000                                                                  
E15  24842450.787   130547943.665         143.586          44.000    24842480.710   100030395.383         110.052          37.000  
> 2025 04 04 11 17 09.0010000  0 23                     
G25  24512950.258   128816423.442       -2486.541          25.000    24512987.109   100376584.999       -1936.676          30.000  
G11  22687707.229   119224708.726       -1731.329          44.000    22687728.281    92902457.297       -1348.751          40.000  
G06  24763823.670   130134804.164       -2562.104          31.000    24763853.849   101403850.758       -1996.307          37.000  
G05  21452471.743   112733508.104       -1732.046          44.000    21452490.019    87844355.176       -1350.181          35.000  
E05  25896730.900   136088272.917       -3156.507          33.000    25896769.726   104275558.726       -2418.529          27.000  
G13  20421933.112   107317999.355           7.261          46.000                                                                  
R21  20129109.594   107714936.180         128.761          48.000    20129127.484    83778387.188         100.594          35.000  
R06  20518046.862   109488176.257       -3545.517          37.000                                                                  
R07  19644773.286   105160031.044        -114.700          47.000    19644792.657    81791235.654         -89.176          45.000  
R22  22471449.480   119954156.649        2481.147          43.000    22471471.520    93297755.840        1929.823          36.000  
G12  24592337.202   129233583.388       -3142.017          33.000    24592351.309   100701535.228       -2447.500          28.000  
G15  21411369.554   112517541.181        1848.448          43.000    21411389.641    87676117.711        1440.626          39.000  
G29  22263723.988   116996685.589        1606.387          41.000    22263744.061    91166309.613        1251.807          39.000  
G20  22728690.652   119440055.327       -2438.052          33.000                                                                  
R08  22716515.012   121645875.604        2698.927          47.000    22716540.564    94613510.256        2099.465          40.000  
R20  22221499.864   118828338.058       -2778.540          34.000    22221529.155    92422127.749       -2161.140          35.000  
E03  24080396.785   126543509.561       -1081.904          46.000    24080426.231    96961906.819        -828.959          41.000  
E08  24866605.492   130674898.524        1422.644          45.000    24866635.381   100127666.841        1090.011          44.000  
E30  27722105.166   145680690.924       -2938.624          29.000    27722145.315                       -2252.325          25.000  
E27  27123903.256   142537073.343       -2202.037          43.000    27123945.785   109216886.878       -1687.417          37.000  
E34  25685619.530   134978840.132       -1232.143          40.000    25685653.288   103425495.951        -943.983          40.000  
G30  25525495.340   134137325.057        -584.477          30.000                                                                  
E15  24842423.521   130547800.276         143.078          44.000    24842453.452   100030285.501         109.753          38.000  
> 2025 04 04 11 17 10.0010000  0 23                     
G25  24513423.475   128818910.211       -2486.503          25.000    24513460.356   100378522.817       -1938.844          30.000  
G11  22688036.761   119226440.452       -1732.065          45.000    22688057.828    92903806.716       -1349.600          40.000  
G06  24764311.088   130137366.700       -2562.959          33.000    24764341.519   101405847.464       -1996.904          36.000  
G05  21452801.474   112735240.503       -1732.802          45.000    21452819.687    87845705.080       -1350.299          36.000  
E05  25897331.777   136091429.687       -3157.036          33.000    25897372.555   104277977.575       -2418.760          27.000  
G13  20421931.774   107317992.689           5.990          45.000                                                                  
R21  20129085.624   107714807.953         127.826          46.000    20129103.433    83778287.501          99.215          35.000  
R06  20518711.422   109491722.489       -3546.442          38.000                                                                  
R07  19644794.622   105160146.382        -115.920          47.000    19644814.207    81791325.367         -90.189          45.000  
R22  22470984.796   119951675.593        2480.502          44.000    22471006.665    93295826.132        1929.749          38.000  
G12  24592935.117   129236724.553       -3141.427          33.000    24592950.913   100703982.977       -2448.527          29.000  
G15  21411017.932   112515693.359        1847.248          43.000    21411037.963    87674677.872        1439.323          40.000  
G29  22263418.418   116995079.524        1605.590          41.000    22263438.428    91165058.122        1251.272          39.000  
G20  22729154.603   119442493.799       -2438.856          31.000                                                                  
R08  22716011.103   121643177.214        2697.862          46.000    22716036.712    94611411.533        2098.156          38.000  
R20  22222019.561   118831116.893       -2779.685          34.000    22222048.828    92424289.089       -2161.568          31.000  
E03  24080603.030   126544591.896       -1082.813          46.000    24080632.390    96962736.119        -829.292          41.000  
E08  24866334.620   130673476.219        1421.958          44.000    24866364.763   100126577.034        1089.677          44.000  
E30  27722664.748   145683630.078       -2939.627          29.000    27722705.372                       -2251.764          25.000  
E27  27124322.571   142539275.949       -2202.938          43.000    27124364.988   109218574.555       -1687.934          37.000  
E34  25685853.957   134980072.505       -1232.739          42.000    25685887.933   103426440.227        -944.280          40.000  
G30  25525606.881   134137968.7143       -583.801          30.000                                                                  
E15  24842396.253   130547657.342         142.770          43.000    24842426.197   100030176.006         109.547          38.000  
> 2025 04 04 11 17 11.0010000  0 23                     
G25  24513897.138   128821397.858       -2487.861          26.000    24513933.754   100380461.158       -1938.901          30.000  
G11  22688366.535   119228173.113       -1733.149          44.000    22688387.520    92905156.821       -1350.355          40.000  
G06  24764798.845   130139930.102       -2563.270          33.000    24764829.495   101407844.968       -1997.691          36.000  
G05  21453131.343   112736973.760       -1733.425          45.000    21453149.528    87847055.657       -1350.881          35.000  
E05  25897932.323   136094587.439       -3158.264          33.000    25897972.692   104280397.150       -2419.504          28.000  
G13  20421930.607   107317987.421           4.783          46.000                                                                  
R21  20129061.774   107714680.978         126.477          46.000    20129079.739    83778188.738          98.299          35.000  
R06  20519376.150   109495269.969       -3547.954          38.000                                                                  
R07  19644816.445   105160263.230        -117.436          46.000    19644836.039    81791416.256         -91.342          44.000  
R22  22470520.189   119949195.217        2480.234          44.000    22470541.863    93293896.964        1928.659          38.000  
G12  24593533.206   129239866.403       -3142.130          32.000    24593550.560   100706431.176       -2448.604          29.000  
G15  21410666.457   112513846.701        1846.249          43.000    21410686.493    87673238.910        1438.937          40.000  
G29  22263113.084   116993474.607        1604.587          41.000    22263133.091    91163807.579        1250.400          39.000  
G20  22729618.900   119444933.012       -2439.662          32.000                                                                  
R08  22715507.421   121640479.967        2696.845          46.000    22715533.172    94609313.663        2097.771          41.000  
R20  22222539.604   118833896.958       -2780.385          34.000    22222568.744    92426451.349       -2162.674          33.000  
E03  24080809.001   126545675.406       -1084.013          45.000    24080838.674    96963566.357        -830.558          41.000  
E08  24866064.303   130672054.934        1421.053          45.000    24866094.211   100125487.990        1088.837          44.000  
E30  27723224.084   145686569.790       -2939.810          29.000    27723262.974                       -2252.811          25.000  
E27  27124741.843   142541479.427       -2203.619          43.000    27124784.161   109220262.955       -1688.552          37.000  
E34  25686088.604   134981305.660       -1233.313          40.000    25686122.703   103427385.154        -945.307          39.000  
G30  25525716.613   134138553.9712       -585.401          29.000                                                                  
E15  24842369.002   130547515.111         142.065          44.000    24842399.110   100030067.044         108.788          38.000  
> 2025 04 04 11 17 12.0010000  0 23                     
G25  24514370.679   128823885.427       -2487.529          26.000    24514407.147   100382399.580       -1939.360          30.000  
G11  22688696.324   119229905.936       -1733.274          44.000    22688717.201    92906507.099       -1350.744          41.000  
G06  24765286.336   130142493.627       -2563.910          35.000    24765317.377   101409842.505       -1997.760          35.000  
G05  21453461.209   112738707.090       -1733.706          45.000    21453479.171    87848406.322       -1350.816          35.000  
E05  25898533.324   136097745.340       -3158.488          33.000    25898572.551   104282816.837       -2420.135          28.000  
G13  20421929.678   107317982.738           4.029          46.000                                                                  
R21  20129038.116   107714554.429         125.973          47.000    20129056.188    83778090.306          97.527          35.000  
R06  20520041.078   109498817.802       -3548.381          38.000                                                                  
R07  19644838.374   105160380.793        -118.371          46.000    19644857.942    81791507.697         -91.822          44.000  
R22  22470055.560   119946714.752        2480.135          44.000    22470077.200    93291967.741        1929.090          38.000  
G12  24594131.099   129243008.016       -3141.440          32.000    24594146.509   100708879.130       -2447.675          29.000  
G15  21410315.062   112512000.406        1845.762          44.000    21410335.146    87671800.261        1438.200          39.000  
G29  22262807.739   116991870.107        1603.965          41.000    22262827.731    91162557.285        1250.299          38.000  
G20  22730083.035   119447372.056       -2439.253          33.000                                                                  
R08  22715003.884   121637783.026        2696.410          46.000    22715029.474    94607216.039        2097.554          41.000  
R20  22223059.856   118836677.426       -2781.301          33.000    22223088.802    92428614.002       -2163.713          33.000  
E03  24081015.237   126546759.283       -1084.386          46.000    24081044.832    96964396.878        -830.936          41.000  
E08  24865793.783   130670633.830        1420.685          45.000    24865823.673   100124399.122        1088.550          44.000  
E30  27723783.811   145689509.234       -2939.694          30.000    27723822.045                       -2252.965          24.000  
E27  27125161.260   142543683.032       -2203.902          43.000    27125203.629   109221951.447       -1688.870          37.000  
E34  25686323.105   134982538.877       -1233.352          39.000    25686357.350   103428330.110        -945.007          39.000  
G30  25525824.046   134139139.3392       -585.590          28.000                                                                  
E15  24842342.125   130547372.779         142.125          44.000    24842371.942   100029957.987         108.668          38.000  
> 2025 04 04 11 17 13.0010000  0 23                     
G25  24514844.008   128826373.479       -2487.804          26.000    24514880.399   100384338.301       -1938.734          31.000  
G11  22689026.217   119231639.404       -1733.867          44.000    22689047.001    92907857.837       -1351.117          41.000  
G06  24765774.203   130145057.714       -2564.413          36.000    24765805.490   101411840.583       -1998.568          34.000  
G05  21453791.119   112740440.956       -1734.447          45.000    21453809.140    87849757.419       -1352.135          35.000  
E05  25899134.385   136100903.843       -3159.231          33.000    25899172.077   104285236.988       -2420.399          27.000  
G13  20421928.823   107317979.110           2.813          46.000                                                                  
R21  20129014.618   107714428.782         125.003          46.000    20129032.781    83777992.528          97.542          34.000  
R06  20520705.951   109502366.488       -3549.189          38.000                                                                  
R07  19644860.476   105160499.569        -119.644          47.000    19644880.112    81791600.083         -92.972          45.000  
R22  22469591.007   119944234.647        2479.739          44.000    22469612.631    93290038.744        1929.043          38.000  
G12  24594728.772   129246149.925       -3142.462          33.000    24594744.235   100711327.397       -2448.109          30.000  
G15  21409963.867   112510154.920        1844.938          46.000    21409983.925    87670362.241        1437.257          36.000  
G29  22262502.579   116990266.397        1603.321          40.000    22262522.552    91161307.694        1249.181          38.000  
G20  22730547.353   119449811.469       -2439.852          33.000                                                                  
R08  22714500.395   121635086.917        2695.417          45.000    22714526.072    94605119.098        2096.380          41.000  
R20  22223580.122   118839458.866       -2782.185          32.000    22223609.033    92430777.357       -2163.822          35.000  
E03  24081221.531   126547843.996       -1085.263          46.000    24081251.150    96965228.029        -831.426          41.000  
E08  24865523.588   130669213.415        1419.731          46.000    24865553.365   100123310.751        1087.802          43.000  
E30  27724343.509   145692448.990       -2940.148          30.000    27724383.283                       -2253.845          22.000  
E27  27125580.944   142545887.230       -2204.925          43.000    27125623.257   109223640.373       -1689.076          37.000  
E34  25686557.574   134983772.579       -1234.577          38.000    25686592.102   103429275.441        -945.913          38.000  
G30  25525936.504   134139725.1681       -587.208          31.000                                                                  
E15  24842314.891   130547230.822         141.446          44.000    24842345.048   100029849.219         108.727          38.000  
> 2025 04 04 11 17 14.0010000  0 23                     
G25  24515317.592   128828862.238       -2488.907          28.000    24515353.953   100386277.549       -1938.774          31.000  
G11  22689356.083   119233373.571       -1734.307          44.000    22689377.103    92909209.172       -1351.478          41.000  
G06  24766262.169   130147622.639       -2564.865          30.000    24766293.539   101413839.171       -1999.084          33.000  
G05  21454121.035   112742175.467       -1734.655          44.000    21454139.163    87851108.917       -1351.535          35.000  
E05  25899735.280   136104063.064       -3159.526          33.000    25899774.926   104287657.661       -2420.457          28.000  
G13  20421928.194   107317976.667           1.866          45.000                                                                  
R21  20128991.372   107714304.146         124.021          47.000    20129009.498    83777895.547          96.149          36.000  
R06  20521371.190   109505916.193       -3549.773          38.000                                                                  
R07  19644882.855   105160619.626        -120.533          47.000    19644902.478    81791693.471         -93.711          45.000  
R22  22469126.552   119941755.047        2479.770          43.000    22469148.040    93288110.213        1928.454          38.000  
G12  24595326.890   129249292.273       -3142.302          33.000    24595341.866   100713775.993       -2448.600          29.000  
G15  21409612.915   112508310.397        1844.059          44.000    21409632.856    87668924.984        1436.914          38.000  
G29  22262197.638   116988663.722        1602.540          40.000    22262217.643    91160058.844        1248.690          38.000  
G20  22731011.709   119452251.270       -2440.269          31.000                                                                  
R08  22713997.149   121632391.743        2694.894          45.000    22714022.786    94603022.871        2096.130          40.000  
R20  22224100.499   118842241.129       -2782.563          31.000    22224129.285    92432941.351       -2164.099          35.000  
E03  24081428.156   126548929.693       -1086.136          46.000    24081457.752    96966059.939        -832.421          41.000  
E08  24865253.396   130667793.829        1419.261          44.000    24865283.426   100122223.019        1087.410          43.000  
E30  27724903.362   145695389.123       -2940.390          30.000    27724941.313                       -2255.064          22.000  
E27  27126000.647   142548092.079       -2205.140          43.000    27126042.794   109225329.826       -1689.667          37.000  
E34  25686792.220   134985006.936       -1234.531          39.000    25686826.985   103430221.249        -946.118          36.000  
G30  25526049.536   134140312.253        -587.048          32.000                                                                  
E15  24842287.898   130547089.377         141.224          44.000    24842318.271   100029740.820         107.916          38.000  
> 2025 04 04 11 17 15.0010000  0 23                     
G25  24515791.114   128831351.141       -2488.961          29.000    24515827.495   100388216.966       -1939.145          31.000  
G11  22689686.238   119235108.146       -1734.828          44.000    22689707.256    92910560.778       -1351.784          41.000  
G06  24766750.122   130150187.828       -2565.470          34.000    24766781.715   101415838.106       -1999.869          32.000  
G05  21454451.191   112743910.264       -1734.866          44.000    21454469.235    87852460.749       -1351.944          36.000  
E05  25900335.860   136107222.616       -3160.015          33.000    25900374.783   104290078.688       -2421.146          28.000  
G13  20421927.756   107317975.021           1.336          45.000                                                                  
R21  20128968.184   107714180.151         123.702          47.000    20128986.444    83777799.091          97.025          37.000  
R06  20522036.453   109509466.486       -3551.002          38.000                                                                  
R07  19644905.428   105160740.620        -121.526          47.000    19644925.194    81791787.588         -94.523          45.000  
R22  22468662.228   119939275.557        2479.495          45.000    22468683.472    93286181.714        1928.469          38.000  
G12  24595924.807   129252434.621       -3142.120          34.000    24595938.856   100716224.515       -2447.658          29.000  
G15  21409262.116   112506466.476        1843.706          45.000    21409281.912    87667488.093        1436.973          39.000  
G29  22261892.857   116987061.623        1601.840          41.000    22261912.885    91158810.418        1248.327          38.000  
G20  22731476.013   119454691.207       -2439.339          30.000                                                                  
R08  22713493.884   121629697.141        2694.484          45.000    22713519.623    94600927.056        2096.020          41.000  
R20  22224621.115   118845024.270       -2783.680          30.000    22224649.652    92435105.992       -2164.363          34.000  
E03  24081634.919   126550015.943       -1086.628          46.000    24081664.525    96966892.251        -832.690          41.000  
E08  24864983.168   130666374.593        1418.975          46.000    24865013.336   100121135.560        1087.150          44.000  
E30  27725462.483   145698329.274       -2939.472          29.000    27725501.907                       -2249.553          21.000  
E27  27126420.273   142550297.315       -2205.470          43.000    27126462.391   109227019.514       -1689.823          37.000  
E34  25687027.163   134986241.519       -1234.610          41.000    25687061.930   103431167.211        -945.955          37.000  
G30  25526161.855   134140899.865        -588.057          32.000                                                                  
E15  24842260.811   130546947.996         141.279          44.000    24842291.391   100029632.500         107.854          37.000  
> 2025 04 04 11 17 16.0010000  0 23                     
G25  24516264.722   128833840.050       -2490.022          29.000    24516301.133   100390156.262       -1938.268          30.000  
G11  22690016.228   119236842.693       -1734.281          44.000    22690037.429    92911912.340       -1351.259          42.000  
G06  24767238.016   130152753.004       -2565.062          32.000    24767269.884   101417836.923       -1998.047          33.000  
G05  21454781.236   112745644.915       -1734.110          45.000    21454799.329    87853812.405       -1351.589          36.000  
E05  25900937.165   136110382.143       -3158.841          33.000    25900976.275   104292499.750       -2421.817          28.000  
G13  20421927.573   107317973.786           1.523          45.000                                                                  
R21  20128945.042   107714056.384         123.901          47.000    20128963.291    83777702.909          95.819          36.000  
R06  20522701.831   109513016.953       -3550.313          38.000                                                                  
R07  19644928.168   105160862.125        -121.478          47.000    19644947.907    81791882.092         -94.407          45.000  
R22  22468197.743   119936795.760        2480.093          45.000    22468218.920    93284252.975        1929.177          39.000  
G12  24596522.701   129255576.590       -3141.677          33.000    24596538.291   100718672.869       -2447.756          29.000  
G15  21408911.296   112504622.705        1843.949          45.000    21408931.011    87666051.407        1436.854          38.000  
G29  22261588.018   116985459.689        1602.599          41.000    22261607.993    91157562.202        1248.129          38.000  
G20  22731939.964   119457130.850       -2439.234          28.000                                                                  
R08  22712990.661   121627002.702        2694.813          46.000    22713016.470    94598831.393        2095.956          41.000  
R20  22225141.546   118847807.539       -2782.917          32.000    22225170.056    92437270.736       -2164.679          33.000  
E03  24081841.613   126551102.352       -1086.174          47.000    24081871.433    96967724.702        -832.221          40.000  
E08  24864712.898   130664955.386        1419.585          45.000    24864743.348   100120048.117        1087.812          44.000  
E30  27726021.838   145701269.053       -2938.746          30.000    27726062.067                       -2251.084          21.000  
E27  27126839.800   142552502.455       -2204.825          43.000    27126882.165   109228709.174       -1689.169          37.000  
E34  25687262.118   134987475.943       -1233.899          41.000    25687296.804   103432113.064        -945.397          40.000  
G30  25526273.983   134141487.514        -587.065          32.000                                                                  
E15  24842234.077   130546806.341         142.014          44.000    24842264.431   100029523.980         109.061          37.000  
> 2025 04 04 11 17 17.0010000  0 23                     
G25  24516738.097   128836328.460       -2489.063          28.000    24516774.652   100392095.360       -1938.793          31.000  
G11  22690346.193   119238577.046       -1734.945          43.000    22690367.502    92913263.788       -1351.912          38.000  
G06  24767725.776   130155317.990       -2565.898          33.000    24767758.083   101419835.594       -1998.253          33.000  
G05  21455111.301   112747379.351       -1735.135          44.000    21455129.381    87855163.907       -1352.038          36.000  
E05  25901538.568   136113541.565       -3159.973          33.000    25901576.861   104294920.447       -2420.710          28.000  
G13  20421927.410   107317972.886          -0.041          45.000                                                                  
R21  20128922.013   107713932.842         123.011          46.000    20128940.238    83777606.795          95.484          36.000  
R06  20523367.133   109516567.548       -3551.607          38.000                                                                  
R07  19644951.109   105160984.027        -122.862          47.000    19644970.657    81791976.923         -95.596          45.000  
R22  22467733.150   119934315.545        2479.922          44.000    22467754.265    93282323.995        1928.252          38.000  
G12  24597120.590   129258718.104       -3142.162          34.000    24597135.987   100721120.803       -2448.544          28.000  
G15  21408560.411   112502779.009        1842.870          45.000    21408580.189    87664614.765        1436.255          38.000  
G29  22261283.251   116983857.873        1600.827          41.000    22261303.126    91156314.019        1247.768          38.000  
G20  22732403.957                       -2443.799          26.000                                                                  
R08  22712487.371   121624308.294        2693.816          46.000    22712513.380    94596735.763        2095.033          41.000  
R20  22225662.075   118850590.940       -2784.542          34.000    22225690.379    92439435.527       -2165.367          35.000  
E03  24082048.312   126552188.848       -1086.975          45.000    24082078.068    96968557.203        -833.019          40.000  
E08  24864442.833   130663536.130        1418.701          45.000    24864473.087   100118960.652        1086.952          44.000  
E30  27726581.028   145704208.351       -2939.362          29.000    27726623.657                       -2249.716          20.000  
E27  27127259.381   142554707.404       -2205.411          43.000    27127301.734   109230398.686       -1689.704          37.000  
E34  25687497.046   134988710.078       -1234.590          40.000    25687531.692   103433058.691        -946.120          38.000  
G30  25526386.060   134142075.105        -588.110          32.000                                                                  
E15  24842207.083   130546664.300         141.569          44.000    24842237.297   100029415.173         108.325          37.000  
> 2025 04 04 11 17 18.0010000  0 23                     
G25  24517211.892   128838818.185       -2487.869          28.000    24517248.381   100394035.426       -1938.587          31.000  
G11  22690676.317   119240312.862       -1734.783          43.000    22690697.798    92914616.388       -1351.865          39.000  
G06  24768213.862   130157884.398       -2565.990          32.000    24768246.437   101421835.466       -1999.100          34.000  
G05  21455441.612   112749115.112       -1734.896          44.000    21455459.677    87856516.451       -1351.772          36.000  
E05  25902139.939   136116702.341       -3159.640          33.000    25902178.606   104297342.407       -2420.627          28.000  
G13  20421927.513   107317973.820          -0.435          45.000                                                                  
R21  20128899.241   107713810.947         122.687          45.000    20128917.468    83777511.987          95.826          36.000  
R06  20524032.735   109520119.818       -3551.657          37.000                                                                  
R07  19644974.301   105161107.898        -123.323          47.000    19644993.787    81792073.263         -95.778          45.000  
R22  22467268.812   119931836.544        2480.094          44.000    22467289.843    93280395.854        1928.856          38.000  
G12  24597718.554   129261860.688       -3141.643          34.000    24597735.308   100723569.586       -2447.093          29.000  
G15  21408209.897   112500936.909        1842.865          46.000    21408229.511    87663179.373        1436.455          37.000  
G29  22260978.759   116982257.658        1600.972          41.000    22260998.613    91155067.100        1247.724          38.000  
G20  22732865.012                       -2439.911          25.000                                                                  
R08  22711984.591   121621615.474        2693.754          45.000    22712010.653    94594641.347        2094.984          41.000  
R20  22226183.010   118853376.046       -2784.657          33.000    22226211.177    92441601.687       -2165.367          37.000  
E03  24082255.623   126553276.965       -1086.760          45.000    24082285.418    96969390.953        -832.619          40.000  
E08  24864172.964   130662118.300        1419.305          44.000    24864203.286   100117874.266        1087.524          44.000  
E30  27727140.052   145707148.692       -2938.177          29.000    27727183.250                       -2258.743          19.000  
E27  27127679.189   142556913.709       -2204.631          43.000    27127721.570   109232089.231       -1689.348          37.000  
E34  25687732.111   134989945.529       -1233.832          40.000    25687767.137   103434005.321        -945.251          38.000  
G30  25526498.133   134142664.281        -587.101          31.000                                                                  
E15  24842180.259   130546523.411         142.507          44.000    24842210.485   100029307.204         109.230          37.000  
> 2025 04 04 11 17 19.0010000  0 23                     
G25  24517685.401   128841306.595       -2487.702          27.000    24517721.835   100395974.527       -1938.096          31.000  
G11  22691006.482   119242047.541       -1734.419          44.000    22691027.960    92915968.080       -1351.696          40.000  
G06  24768701.706   130160449.679       -2565.996          31.000    24768734.566   101423834.316       -1998.828          33.000  
G05  21455771.699   112750849.586       -1733.962          45.000    21455789.743    87857868.010       -1351.045          36.000  
E05  25902741.637   136119861.964       -3159.172          33.000    25902779.890   104299763.446       -2420.759          28.000  
G13  20421927.530   107317973.999          -0.000          45.000                                                                  
R21  20128876.264   107713688.146         123.197          46.000    20128894.340    83777416.470          95.907          35.000  
R06  20524698.208   109523671.115       -3551.217          38.000                                                                  
R07  19644997.409   105161231.126        -123.116          47.000    19645016.780    81792169.121         -95.782          45.000  
R22  22466804.153   119929356.072        2480.707          45.000    22466825.093    93278466.598        1929.427          38.000  
G12  24598316.399   129265001.793       -3140.276          34.000    24598332.617   100726017.164       -2446.803          29.000  
G15  21407859.221   112499093.863        1843.355          45.000    21407878.823    87661743.301        1436.101          36.000  
G29  22260674.130   116980656.517        1601.337          41.000    22260693.842    91153819.477        1248.088          38.000  
G20  22733325.833                       -2441.005          24.000                                                                  
R08  22711481.549   121618921.668        2694.031          45.000    22711507.661    94592546.146        2095.529          41.000  
R20  22226703.689   118856160.222       -2784.257          33.000    22226731.815    92443767.153       -2165.227          37.000  
E03  24082462.620   126554364.171       -1086.875          46.000    24082492.389    96970224.017        -832.867          41.000  
E08  24863902.962   130660699.404        1419.361          45.000    24863933.278   100116787.062        1087.483          43.000  
E30  27727699.034   145710087.474       -2937.622          30.000    27727745.870                       -2252.270          19.000  
E27  27128098.755   142559118.840       -2204.796          43.000    27128141.219   109233778.894       -1689.117          37.000  
E34  25687967.090   134991179.753       -1233.781          40.000    25688001.977   103434951.019        -945.169          38.000  
G30  25526610.471   134143252.409        -587.129          30.000                                                                  
E15  24842153.352   130546381.149         142.790          45.000    24842183.390   100029198.201         109.411          37.000  
> 2025 04 04 11 17 20.0010000  0 23                     
G25  24518158.885   128843794.567       -2487.861          27.000    24518195.305   100397913.188       -1938.586          31.000  
G11  22691336.549   119243781.820       -1734.623          44.000    22691358.007    92917319.458       -1351.624          41.000  
G06  24769189.513   130163014.364       -2565.232          30.000    24769222.620   101425832.824       -1998.890          33.000  
G05  21456101.676   112752583.597       -1734.132          45.000    21456119.705    87859219.221       -1351.729          36.000  
E05  25903342.892   136123021.177       -3159.182          32.000    25903379.761   104302184.206       -2421.013          29.000  
G13  20421927.624   107317974.259          -0.708          46.000                                                                  
R21  20128853.306   107713565.178         122.606          46.000    20128871.267    83777320.839          95.543          34.000  
R06  20525363.779   109527222.262       -3551.719          37.000                                                                  
R07  19645020.531   105161354.505        -123.911          47.000    19645039.948    81792265.082         -96.441          45.000  
R22  22466339.463   119926874.955        2480.978          45.000    22466360.221    93276536.845        1929.523          38.000  
G12  24598914.117   129268142.144       -3140.809          35.000    24598931.207   100728464.183       -2446.910          29.000  
G15  21407508.463   112497250.662        1842.799          45.000    21407527.917    87660307.020        1435.877          36.000  
G29  22260369.380   116979055.176        1600.844          41.000    22260389.182    91152571.698        1247.603          38.000  
G20  22733791.903   119466882.1003      -2438.174          25.000                                                                  
R08  22710978.476   121616227.556        2693.856          45.000    22711004.680    94590450.760        2095.176          41.000  
R20  22227224.459   118858944.263       -2784.331          32.000    22227252.441    92445932.536       -2166.046          37.000  
E03  24082669.325   126555451.168       -1087.266          46.000    24082699.142    96971056.906        -832.864          41.000  
E08  24863632.848   130659280.143        1419.132          44.000    24863663.172   100115699.587        1087.292          43.000  
E30  27728258.479   145713025.559       -2938.350          31.000    27728306.563                       -2250.339          21.000  
E27  27128518.236   142561323.523       -2204.884          43.000    27128560.724   109235468.197       -1689.268          37.000  
E34  25688201.779   134992413.383       -1233.725          39.000    25688236.624   103435896.294        -945.200          39.000  
G30  25526722.398   134143840.151        -588.382          33.000                                                                  
E15  24842126.352   130546238.212         142.990          44.000    24842156.084   100029088.676         109.642          37.000  
> 2025 04 04 11 17 21.0010000  0 23                     
G25  24518632.407   128846283.053       -2488.214          27.000    24518668.842   100399852.311       -1939.008          31.000  
G11  22691666.766   119245516.818       -1735.344          45.000    22691688.283    92918671.409       -1352.291          41.000  
G06  24769677.604   130165579.878       -2565.948          31.000    24769710.730   101427831.941       -1999.657          33.000  
G05  21456431.890   112754318.269       -1735.032          44.000    21456449.812    87860570.919       -1351.871          35.000  
E05  25903944.223   136126181.124       -3159.720          32.000    25903981.408   104304605.408       -2421.278          29.000  
G13  20421927.846   107317975.668          -1.943          45.000                                                                  
R21  20128830.518   107713443.255         121.709          46.000    20128848.403    83777226.031          94.964          35.000  
R06  20526029.424   109530774.374       -3552.385          37.000                                                                  
R07  19645043.819   105161479.174        -125.301          47.000    19645063.217    81792362.054         -97.317          45.000  
R22  22465874.757   119924394.294        2480.374          44.000    22465895.516    93274607.438        1929.480          37.000  
G12  24599511.834   129271282.861       -3140.906          35.000    24599529.457   100730911.538       -2447.391          30.000  
G15  21407157.875   112495408.381        1841.937          45.000    21407177.288    87658871.475        1435.073          37.000  
G29  22260064.877   116977454.821        1599.872          41.000    22260084.698    91151324.671        1246.772          38.000  
G20  22734258.810   119469320.6802      -2438.715          26.000                                                                  
R08  22710475.452   121613534.361        2692.814          45.000    22710501.674    94588356.057        2094.277          41.000  
R20  22227745.287   118861729.255       -2785.351          33.000    22227773.215    92448098.686       -2166.063          36.000  
E03  24082876.197   126556539.125       -1088.400          46.000    24082906.138    96971890.559        -834.096          41.000  
E08  24863363.085   130657861.700        1417.926          44.000    24863393.425   100114612.719        1086.508          43.000  
E30  27728817.702   145715963.959       -2938.313          32.000    27728865.555                       -2245.351          21.000  
E27  27128938.143   142563528.895       -2205.868          43.000    27128980.191   109237158.031       -1690.002          37.000  
E34  25688436.632   134993647.653       -1234.318          39.000    25688471.443   103436842.040        -945.938          40.000  
G30  25526834.502   134144428.788        -589.445          32.000                                                                  
E15  24842099.365   130546095.761         142.201          44.000    24842128.937   100028979.515         108.932          37.000  
> 2025 04 04 11 17 22.0010000  0 23                     
G25  24519106.116   128848771.845       -2488.684          27.000    24519142.853   100401791.577       -1939.019          32.000  
G11  22691996.967   119247252.078       -1734.848          45.000    22692018.540    92920023.556       -1351.867          42.000  
G06  24770161.577   130168076.6573      -2565.733          27.000    24770198.963   101429831.183       -1999.008          33.000  
G05  21456762.006   112756053.103       -1734.417          44.000    21456779.940    87861922.765       -1351.850          35.000  
E05  25904545.734   136129341.314       -3159.136          33.000    25904582.598   104307026.863       -2420.443          29.000  
G13  20421928.106   107317977.785          -1.798          45.000                                                                  
R21  20128807.868   107713321.845         121.725          46.000    20128825.774    83777131.611          94.652          35.000  
R06  20526695.161   109534327.014       -3552.040          37.000                                                                  
R07  19645067.287   105161604.655        -125.289          47.000    19645086.636    81792459.649         -97.475          45.000  
R22  22465410.053   119921913.640        2481.476          45.000    22465430.767    93272678.049        1929.736          37.000  
G12  24600109.478   129274423.545       -3139.944          34.000    24600127.341   100733358.778       -2445.692          31.000  
G15  21406807.514   112493566.557        1842.205          45.000    21406826.790    87657436.294        1435.541          37.000  
G29  22259760.337   116975854.965        1600.000          41.000    22259780.309    91150078.020        1247.272          38.000  
G20  22734723.816   119471759.3852      -2438.454          29.000                                                                  
R08  22709972.635   121610841.636        2692.934          45.000    22709998.758    94586261.714        2094.565          42.000  
R20  22228266.172   118864514.834       -2785.163          33.000    22228294.072    92450265.210       -2166.406          35.000  
E03  24083083.311   126557627.546       -1088.052          46.000    24083113.183    96972724.539        -833.679          41.000  
E08  24863093.184   130656443.552        1418.511          45.000    24863123.626   100113526.095        1087.075          43.000  
E30  27729377.073   145718902.305       -2937.609          32.000    27729425.825                       -2252.564          21.000  
E27  27129357.776   142565734.472       -2204.965          42.000    27129399.898   109238848.037       -1689.586          37.000  
E34  25688671.417   134994882.041       -1233.796          40.000    25688706.123   103437787.884        -945.681          40.000  
G30  25526946.712   134145017.790        -588.753          31.000                                                                  
E15  24842072.269   130545953.303         143.095          44.000    24842101.922   100028870.374         109.705          38.000  
> 2025 04 04 11 17 23.0010000  0 23                     
G25  24519579.361   128851259.749       -2488.743          26.000    24519616.358   100403730.233       -1939.439          32.000  
G11  22692327.015   119248986.713       -1734.637          45.000    22692348.701    92921375.224       -1351.684          42.000  
G06  24770651.236   130170641.6542      -2564.313          30.000    24770687.149   101431829.971       -1998.983          33.000  
G05  21457091.931   112757787.199       -1734.068          45.000    21457109.974    87863274.016       -1351.989          34.000  
E05  25905147.887   136132500.870       -3159.344          34.000    25905182.957   104309447.830       -2420.800          29.000  
G13  20421928.397   107317979.718          -2.218          46.000                                                                  
R21  20128784.993   107713200.090         121.346          46.000    20128802.960    83777036.899          94.959          35.000  
R06  20527360.851   109537879.243       -3552.489          37.000                                                                  
R07  19645090.783   105161730.008        -125.766          48.000    19645109.982    81792557.151         -97.798          45.000  
R22  22464945.345   119919432.102        2481.575          45.000    22464965.921    93270747.983        1929.870          37.000  
G12  24600706.813   129277563.228       -3139.153          34.000    24600724.888   100735805.311       -2445.973          31.000  
G15  21406457.005   112491724.336        1841.977          46.000    21406476.182    87656000.825        1434.979          37.000  
G29  22259455.762   116974254.671        1600.020          41.000    22259475.831    91148831.050        1246.671          38.000  
G20  22735185.973   119474197.1532      -2437.582          29.000                                                                  
R08  22709469.709   121608148.479        2692.776          45.000    22709495.782    94584167.048        2094.359          42.000  
R20  22228787.078   118867300.029       -2785.630          33.000    22228814.764    92452431.483       -2166.423          36.000  
E03  24083290.283   126558715.557       -1088.284          46.000    24083320.194    96973558.212        -834.011          40.000  
E08  24862823.344   130655024.818        1418.555          45.000    24862853.625   100112439.025        1086.934          43.000  
E30  27729936.012   145721839.628       -2936.635          32.000    27729983.152                       -2239.135          20.000  
E27  27129777.519   142567939.384       -2204.923          43.000    27129819.497   109240537.539       -1689.604          37.000  
E34  25688905.884   134996115.682       -1233.751          40.000    25688940.962   103438733.122        -945.123          40.000  
G30  25527058.451   134145606.265        -589.269          32.000                                                                  
E15  24842044.971   130545809.977         143.203          44.000    24842074.747   100028760.538         109.957          38.000  
> 2025 04 04 11 17 24.0010000  0 23                     
G25  24520052.695   128853747.543       -2487.378          26.000    24520089.995   100405668.844       -1938.543          32.000  
G11  22692657.079   119250721.472       -1735.107          45.000    22692678.813    92922726.983       -1351.906          42.000  
G06  24771140.766   130173206.8312      -2565.476          32.000    24771175.264   101433828.890       -1998.916          32.000  
G05  21457421.928   112759521.341       -1734.131          45.000    21457439.955    87864625.270       -1351.572          35.000  
E05  25905749.699   136135660.518       -3159.822          33.000    25905784.257   104311868.940       -2421.455          28.000  
G13  20421928.932   107317982.190          -2.873          46.000                                                                  
R21  20128762.293   107713078.763         120.941          45.000    20128780.323    83776942.530          94.030          35.000  
R06  20528026.760   109541431.808       -3552.556          37.000                                                                  
R07  19645114.275   105161855.998        -126.417          47.000    19645133.642    81792655.151         -98.316          45.000  
R22  22464480.526   119916950.394        2481.638          45.000    22464500.985    93268817.767        1930.262          37.000  
G12  24601304.051   129280702.729       -3139.368          34.000    24601322.380   100738251.697       -2446.305          30.000  
G15  21406106.480   112489882.426        1841.683          46.000    21406125.587    87654565.569        1434.860          37.000  
G29  22259151.291   116972654.719        1599.611          42.000    22259171.377    91147584.347        1246.538          38.000  
G20  22735647.180   119476634.7212      -2437.335          27.000                                                                  
R08  22708966.782   121605455.669        2692.595          46.000    22708993.006    94582072.626        2094.053          41.000  
R20  22229307.956   118870085.572       -2785.668          33.000    22229335.706    92454598.042       -2167.187          36.000  
E03  24083497.536   126559803.897       -1088.603          46.000    24083527.291    96974392.145        -834.330          40.000  
E08  24862553.276   130653606.253        1418.400          44.000    24862583.595   100111352.087        1086.675          43.000  
E30  27730495.000   145724776.710       -2936.652          32.000    27730541.173                       -2247.915          21.000  
E27  27130197.101   142570144.381       -2205.149          42.000    27130239.146   109242227.078       -1689.533          37.000  
E34  25689140.945   134997349.329       -1233.786          42.000    25689175.688   103439678.402        -945.521          40.000  
G30  25527170.297   134146194.896        -588.847          30.000                                                                  
E15  24842017.460   130545666.483         143.481          44.000    24842047.446   100028650.620         110.028          37.000  
> 2025 04 04 11 17 25.0010000  0 23                     
G25  24520526.247   128856235.914       -2489.323          27.000    24520563.772   100407607.740       -1939.391          32.000  
G11  22692987.355   119252456.750       -1735.593          45.000    22693009.100    92924079.152       -1352.329          42.000  
G06  24771628.867   130175772.481       -2566.096          33.000    24771663.523   101435828.050       -1999.229          33.000  
G05  21457751.987   112761255.881       -1734.847          45.000    21457770.095    87865976.871       -1352.295          35.000  
E05  25906351.478   136138820.690       -3160.754          33.000    25906385.321   104314290.363       -2421.666          29.000  
G13  20421929.506   107317985.608          -4.039          46.000                                                                  
R21  20128739.687   107712958.163         120.326          45.000    20128757.685    83776848.733          93.638          36.000  
R06  20528692.688   109544985.143       -3553.730          37.000                                                                  
R07  19645138.066   105161983.092        -127.715          47.000    19645157.425    81792754.006         -99.418          45.000  
R22  22464015.709   119914468.953        2481.406          45.000    22464036.096    93266887.740        1930.180          37.000  
G12  24601901.426   129283842.340       -3138.861          34.000    24601919.771   100740698.146       -2446.400          29.000  
G15  21405756.077   112488041.232        1840.829          45.000    21405775.118    87653130.863        1434.547          37.000  
G29  22258847.063   116971055.481        1598.691          42.000    22258866.977    91146338.207        1245.875          38.000  
G20  22736111.548   119479072.1911      -2438.880          27.000                                                                  
R08  22708464.057   121602763.556        2691.823          47.000    22708490.253    94579978.771        2093.733          41.000  
R20  22229829.007   118872871.883       -2786.263          33.000    22229856.979    92456765.210       -2168.507          36.000  
E03  24083704.699   126560892.943       -1089.368          46.000    24083734.603    96975226.611        -834.721          40.000  
E08  24862283.339   130652188.264        1417.591          44.000    24862313.748   100110265.569        1086.297          43.000  
E30  27731053.118   145727713.965       -2937.427          32.000    27731101.690                       -2257.771          20.000  
E27  27130616.775   142572349.829       -2205.783          42.000    27130658.994   109243916.967       -1690.077          37.000  
E34  25689376.057   134998583.341       -1234.149          41.000    25689410.669   103440623.932        -945.642          40.000  
G30  25527282.168   134146784.236        -589.568          29.000                                                                  
E15  24841990.389   130545523.269         143.062          44.000    24842020.084   100028540.863         109.791          37.000  
> 2025 04 04 11 17 26.0010000  0 23                     
G25  24520999.930   128858724.758       -2489.397          27.000    24521037.508   100409547.122       -1940.118          32.000  
G11  22693317.738   119254192.761       -1736.550          45.000    22693339.497    92925431.903       -1353.019          42.000  
G06  24772116.786   130178338.851       -2567.229          32.000    24772151.879   101437827.787       -2000.171          33.000  
G05  21458082.183   112762991.081       -1735.790          45.000    21458100.174    87867328.947       -1352.851          35.000  
E05  25906953.334   136141981.606       -3161.563          33.000    25906987.669   104316712.346       -2422.154          29.000  
G13  20421930.411   107317990.225          -5.333          46.000                                                                  
R21  20128717.221   107712838.653         118.833          46.000    20128735.423    83776755.845          92.239          35.000  
R06  20529358.863   109548539.455       -3555.179          38.000                                                                  
R07  19645162.107   105162111.524        -129.326          47.000    19645181.474    81792853.882        -100.573          45.000  
R22  22463551.038   119911988.020        2480.347          45.000    22463571.246    93264958.125        1929.456          36.000  
G12  24602498.770   129286982.404       -3140.320          35.000    24602517.030   100743145.023       -2447.449          29.000  
G15  21405405.965   112486200.984        1839.565          45.000    21405424.782    87651696.935        1433.354          38.000  
G29  22258542.948   116969457.255        1597.396          42.000    22258562.881    91145092.838        1244.723          38.000  
G20  22736575.968   119481510.471       -2438.512          28.000                                                                  
R08  22707961.457   121600072.353        2690.563          46.000    22707987.565    94577885.618        2092.858          40.000  
R20  22230350.402   118875659.191       -2788.016          33.000    22230378.221    92458933.113       -2168.391          35.000  
E03  24083912.234   126561982.963       -1090.721          46.000    24083941.968    96976061.823        -835.695          42.000  
E08  24862013.627   130650771.101        1416.566          43.000    24862044.028   100109179.695        1085.484          43.000  
E30  27731612.304   145730651.599       -2938.606          31.000    27731659.014                       -2247.408          21.000  
E27  27131036.563   142574555.970       -2206.604          42.000    27131078.926   109245607.378       -1690.684          37.000  
E34  25689610.975   134999818.003       -1235.214          41.000    25689645.558   103441569.958        -946.313          40.000  
G30  25527394.396   134147374.448        -590.904          29.000                                                                  
E15  24841963.322   130545380.545         142.264          44.000    24841993.083   100028431.509         108.991          37.000  
> 2025 04 04 11 17 27.0010000  0 24                     
G25  24521473.845   128861214.439       -2489.935          28.000    24521511.358   100411487.212       -1940.950          31.000  
G11  22693648.242   119255929.771       -1737.744          44.000    22693669.964    92926785.432       -1354.068          42.000  
G06  24772603.717   130180906.218       -2567.628          32.000    24772640.465   101439828.360       -2000.970          31.000  
G05  21458412.472   112764727.195       -1736.888          45.000    21458430.668    87868681.794       -1353.302          36.000  
E05  25907554.808   136145143.498       -3162.513          33.000    25907589.973   104319135.059       -2422.736          29.000  
G13  20421931.530   107317996.270          -6.794          46.000                                                                  
R21  20128695.053   107712720.405         117.496          45.000    20128713.294    83776663.828          91.583          36.000  
R26  22212633.364   118447510.9431       2496.615          49.000                                                                  
R06  20530025.036   109552095.028       -3556.542          37.000                                                                  
R07  19645186.453   105162241.519        -130.814          47.000    19645205.770    81792954.995        -101.631          45.000  
R22  22463086.524   119909507.838        2479.754          45.000    22463106.568    93263029.119        1928.773          36.000  
G12  24603096.194   129290123.124       -3140.911          35.000    24603114.512   100745592.271       -2447.360          29.000  
G15  21405056.080   112484361.941        1838.297          46.000    21405074.785    87650263.933        1432.614          37.000  
G29  22258239.030   116967860.210        1596.413          42.000    22258258.990    91143848.392        1243.860          38.000  
G20  22737041.047   119483949.546       -2439.672          29.000                                                                  
R08  22707459.157   121597382.289        2689.370          46.000    22707485.074    94575793.344        2091.948          40.000  
R20  22230871.863   118878447.820       -2789.823          31.000    22230899.711    92461102.038       -2169.366          36.000  
E03  24084119.848   126563074.179       -1091.927          46.000    24084149.603    96976897.960        -836.633          41.000  
E08  24861744.096   130649354.923        1415.441          42.000    24861774.506   100108094.608        1084.581          43.000  
E30  27732171.414   145733589.824       -2939.000          31.000    27732216.312                       -2253.310          20.000  
E27  27131456.615   142576763.088       -2207.821          43.000    27131498.827   109247298.524       -1691.646          38.000  
E34  25689846.202   135001053.521       -1236.099          41.000    25689880.720   103442516.695        -947.182          38.000  
G30  25527506.715   134147965.623        -591.686          29.000                                                                  
E15  24841936.415   130545238.572         141.485          44.000    24841966.217   100028322.733         108.092          37.000  
> 2025 04 04 11 17 28.0010000  0 23                     
G25  24521947.927   128863705.477       -2491.437          28.000    24521985.638   100413428.176       -1940.514          31.000  
G11  22693979.002   119257668.184       -1739.124          44.000    22694000.762    92928140.034       -1355.277          42.000  
G06  24773093.882   130183474.916       -2569.384          33.000    24773129.227   101441830.000       -2002.218          30.000  
G05  21458743.069   112766464.616       -1738.292          44.000    21458761.255    87870035.580       -1354.572          36.000  
E05  25908156.840   136148306.749       -3164.186          34.000    25908191.300   104321558.910       -2424.313          29.000  
G13  20421932.941   107318004.154          -8.919          46.000                                                                  
R21  20128673.299   107712603.854         115.604          46.000    20128691.494    83776573.196          89.740          36.000  
R06  20530691.701   109555652.205       -3558.045          37.000                                                                  
R07  19645211.057   105162373.454        -133.062          47.000    19645230.460    81793057.622        -103.427          45.000  
R22  22462622.289   119907028.779        2478.409          45.000    22462642.103    93261100.983        1927.225          36.000  
G12  24603693.867   129293264.937       -3142.656          35.000    24603712.246   100748040.402       -2448.385          28.000  
G15  21404706.408   112482524.507        1836.600          45.000    21404725.073    87648832.149        1431.026          37.000  
G29  22257935.392   116966264.769        1594.106          42.000    22257955.349    91142605.222        1242.219          38.000  
G20  22737506.107   119486389.751       -2440.683          30.000                                                                  
R08  22706957.000   121594693.817        2687.668          46.000    22706983.051    94573702.341        2090.183          40.000  
R20  22231393.809   118881238.085       -2791.474          31.000    22231421.531    92463272.236       -2171.268          37.000  
E03  24084327.808   126564167.002       -1093.820          45.000    24084357.589    96977735.316        -837.915          41.000  
E08  24861474.891   130647940.207        1413.782          42.000    24861505.323   100107010.612        1083.210          42.000  
E30  27732730.010   145736529.124       -2940.342          30.000    27732775.501                       -2243.538          21.000  
E27  27131876.885   142578971.524       -2209.093          43.000    27131919.144   109248990.715       -1692.858          37.000  
E34  25690081.623   135002290.312       -1237.411          41.000    25690115.927   103443464.347        -948.072          39.000  
G30  25527619.405   134148558.459        -593.680          29.000                                                                  
E15  24841909.598   130545097.712         140.069          44.000    24841939.587   100028214.828         107.448          37.000  
> 2025 04 04 11 17 29.0010000  0 23                     
G25  24522422.418   128866197.620       -2492.556          27.000    24522459.901   100415370.149       -1942.343          32.000  
G11  22694310.102   119259407.880       -1740.227          43.000    22694331.947    92929495.687       -1356.344          42.000  
G06  24773582.479   130186044.984       -2571.140          30.000    24773618.411   101443832.443       -2000.732          30.000  
G05  21459073.888   112768203.191       -1738.885          45.000    21459092.120    87871390.358       -1355.035          35.000  
E05  25908758.958   136151471.280       -3164.059          33.000    25908794.063   104323983.706       -2425.185          29.000  
G13  20421934.712   107318013.769         -10.270          46.000                                                                  
R21  20128651.628   107712488.909         114.205          47.000    20128669.939    83776483.771          89.133          36.000  
R06  20531358.540   109559210.919       -3559.260          37.000                                                                  
R07  19645236.016   105162507.241        -134.482          47.000    19645255.537    81793161.679        -104.662          45.000  
R22  22462158.105   119904550.773        2477.618          45.000    22462177.810    93259173.630        1927.154          37.000  
G12  24604291.694   129296407.648       -3143.414          35.000    24604310.002   100750489.239       -2448.879          28.000  
G15  21404357.179   112480688.573        1835.300          44.000    21404375.610    87647401.552        1429.962          37.000  
G29  22257632.078   116964670.859        1593.043          43.000    22257652.079    91141363.210        1241.814          38.000  
G20  22737970.782   119488830.767       -2439.963          25.000                                                                  
R08  22706455.190   121592006.886        2686.393          44.000    22706481.267    94571612.446        2089.482          40.000  
R20  22231915.967   118884029.915       -2791.807          31.000    22231943.649    92465443.633       -2171.802          38.000  
E03  24084535.855   126565261.328       -1094.787          45.000    24084565.784    96978573.836        -838.914          41.000  
E08  24861205.802   130646526.833        1413.122          43.000    24861236.434   100105927.642        1082.573          42.000  
E30  27733289.050   145739469.295       -2940.658          30.000    27733335.977                       -2253.211          22.000  
E27  27132297.343   142581181.243       -2210.202          42.000    27132339.583   109250683.842       -1693.464          37.000  
E34  25690317.364   135003528.284       -1238.416          41.000    25690351.617   103444412.924        -948.869          38.000  
G30  25527732.403   134149152.643        -594.556          29.000                                                                  
E15  24841882.902   130544957.906         139.259          43.000    24841912.967   100028107.711         106.880          38.000  
> 2025 04 04 11 17 30.0010000  0 22                     
G25  24522894.710   128868680.6143      -2492.892          27.000    24522934.233   100417312.760       -1942.811          32.000  
G11  22694641.375   119261148.623       -1740.980          40.000    22694663.168    92930852.118       -1356.573          36.000  
G06  24774071.634   130188615.882       -2570.499          26.000    24774107.581   101445835.953       -2003.513          32.000  
G05  21459404.903   112769942.727       -1739.650          45.000    21459423.022    87872745.836       -1356.051          36.000  
E05  25909361.378   136154636.805       -3165.264          31.000    25909396.421   104326409.261       -2425.930          30.000  
G13  20421936.856   107318024.855         -11.500          46.000                                                                  
R21  20128630.317   107712375.240         113.547          47.000    20128648.672    83776395.379          87.951          36.000  
R06  20532025.737   109562770.963       -3560.099          34.000                                                                  
R07  19645261.271   105162642.629        -135.724          48.000    19645280.858    81793266.993        -105.611          45.000  
R22  22461694.056   119902073.575        2476.933          45.000    22461713.782    93257246.907        1926.978          38.000  
G12  24604889.588   129299551.057       -3143.168          34.000    24604908.265   100752938.676       -2449.133          29.000  
G15  21404008.038   112478853.847        1834.395          45.000    21404026.323    87645971.920        1429.706          37.000  
G29  22257328.996   116963078.212        1592.522          42.000    22257349.022    91140122.194        1240.752          38.000  
R08  22705953.628   121589321.158        2685.667          46.000    22705979.700    94569523.554        2088.712          40.000  
R20  22232438.397   118886823.140       -2793.196          33.000    22232466.038    92467616.136       -2173.072          38.000  
E03  24084744.308   126566356.922       -1095.846          44.000    24084774.213    96979413.321        -839.766          41.000  
E08  24860937.060   130645114.522        1412.088          44.000    24860967.454   100104845.475        1081.921          43.000  
E30  27733848.757   145742410.197       -2940.871          30.000    27733891.332                       -2249.683          22.000  
E27  27132717.897   142583391.877       -2210.404          42.000    27132760.475   109252377.741       -1693.661          39.000  
E34  25690553.178   135004767.211       -1239.244          40.000    25690587.321   103445362.199        -949.412          40.000  
G30  25527845.701   134149747.893        -595.341          32.000                                                                  
E15  24841856.403   130544818.846         139.100          43.000    24841886.471   100028001.113         106.578          38.000  
> 2025 04 04 11 17 31.0010000  0 22                     
G25  24523367.914   128871174.1772      -2493.866          27.000    24523408.585   100419255.793       -1943.407          32.000  
G11  22694972.748   119262890.012       -1741.882          42.000    22694994.591    92932209.026       -1357.544          39.000  
G06  24774560.998   130191187.504       -2572.064          32.000    24774596.767   101447839.971       -2004.468          32.000  
G05  21459736.094   112771682.776       -1740.399          45.000    21459754.081    87874101.727       -1356.256          35.000  
G13  20421939.366   107318037.029         -12.836          47.000                                                                  
R21  20128609.208   107712262.531         112.277          47.000    20128627.768    83776307.716          87.440          37.000  
R06  20532693.047   109566332.045       -3561.862          31.000                                                                  
R07  19645286.861   105162779.258        -137.327          47.000    19645306.482    81793373.245        -106.699          45.000  
R22  22461230.173   119899596.784        2476.421          45.000    22461249.827    93255320.549        1926.220          40.000  
G12  24605487.481   129302694.781       -3144.045          34.000    24605506.496   100755388.301       -2449.937          28.000  
G15  21403659.142   112477020.001        1833.317          46.000    21403677.366    87644542.988        1428.318          37.000  
G29  22257025.989   116961486.450        1590.971          41.000    22257046.009    91138881.851        1239.808          38.000  
R08  22705452.302   121586636.275        2684.327          47.000    22705478.171    94567435.313        2087.407          39.000  
R20  22232961.009   118889617.265       -2794.588          32.000    22232988.557    92469789.317       -2173.605          38.000  
E03  24084952.732   126567453.400       -1097.018          45.000    24084982.730    96980253.464        -840.647          41.000  
E08  24860668.517   130643702.937        1411.064          45.000    24860698.752   100103763.862        1081.381          43.000  
E30  27734408.141   145745351.368       -2941.500          30.000    27734452.911                       -2251.031          23.000  
E27  27133138.868   142585603.210       -2211.647          41.000    27133181.171   109254072.137       -1694.579          37.000  
E34  25690789.130   135006006.573       -1239.592          40.000    25690823.235   103446311.847        -949.803          41.000  
G30  25527959.576   134150343.984        -596.900          32.000                                                                  
E15  24841830.348   130544680.292         138.169          37.000    24841860.309   100027894.989         105.426          27.000  
E05                                                                  25909998.650   104328835.239       -2426.075          31.000  
> 2025 04 04 11 17 32.0010000  0 22                     
G25  24523841.064   128873668.3602      -2494.815          27.000    24523883.004   100421199.184       -1944.019          32.000  
G11  22695304.340   119264632.060       -1742.471          43.000    22695326.179    92933566.444       -1358.032          40.000  
G06  24775050.459   130193759.679       -2573.201          30.000    24775086.300   101449844.317       -2004.607          26.000  
G05  21460067.322   112773423.417       -1740.969          42.000    21460085.207    87875458.052       -1355.916          34.000  
E05  25910570.599   136160966.8051      -3167.510          32.000    25910601.055   104331261.837       -2427.407          32.000  
G13  20421942.077   107318050.255         -13.989          46.000                                                                  
R21  20128588.362   107712150.776         111.144          49.000    20128606.699    83776220.810          86.124          38.000  
R06  20533360.558   109569893.816       -3563.098          31.000                                                                  
R07  19645312.623   105162917.021        -138.600          47.000    19645332.219    81793480.419        -107.775          45.000  
R22  22460766.250   119897120.346        2476.092          47.000    22460786.015    93253394.434        1925.742          40.000  
G12  24606085.573   129305838.753       -3144.412          34.000    24606104.748   100757838.196       -2450.216          28.000  
G15  21403310.301   112475187.013        1832.258          47.000    21403328.478    87643114.679        1427.712          36.000  
G29  22256723.234   116959895.515        1590.388          42.000    22256743.203    91137642.174        1239.272          38.000  
R08  22704951.106   121583952.214        2683.485          47.000    22704976.876    94565347.718        2086.793          40.000  
R20  22233483.632   118892412.163       -2794.980          32.000    22233511.050    92471963.224       -2174.127          39.000  
E03  24085161.589   126568550.650       -1097.867          43.000    24085191.394    96981094.245        -841.409          41.000  
E08  24860400.124   130642292.028        1410.356          45.000    24860430.207   100102682.809        1080.524          43.000  
E30  27734968.128   145748292.771       -2941.944          29.000    27735012.844                       -2252.625          25.000  
E27  27133559.478   142587815.044       -2212.205          41.000    27133602.125   109255766.958       -1694.848          38.000  
E34  25691025.304   135007246.458       -1240.102          43.000    25691059.263   103447261.886        -950.411          41.000  
G30  25528073.329   134150940.715        -596.869          31.000                                                                  
E15  24841804.328   130544542.053         138.191          39.000    24841833.927   100027789.078         105.188          30.000  
> 2025 04 04 11 17 33.0010000  0 22                     
G25  24524317.244   128876162.7282      -2494.796          28.000    24524357.537   100423142.852       -1943.836          32.000  
G11  22695635.853   119266374.542       -1742.863          43.000    22695657.685    92934924.230       -1358.241          39.000  
G06  24775540.134   130196332.359       -2572.804          31.000    24775575.790   101451848.910       -2004.406          27.000  
G05  21460398.584   112775164.435       -1741.074          46.000    21460416.489    87876814.734       -1356.861          36.000  
E05  25911170.260   136164133.993       -3167.033          31.000    25911203.676   104333688.699       -2426.647          31.000  
G13  20421944.891   107318064.401         -14.641          46.000                                                                  
R21  20128567.601   107712039.704         110.827          48.000    20128586.024    83776134.391          86.238          38.000  
R06  20534028.225   109573456.095       -3562.702          33.000                                                                  
R07  19645338.602   105163055.837        -139.433          48.000    19645358.176    81793588.385        -108.435          45.000  
R22  22460302.348   119894644.103        2476.392          46.000    22460322.265    93251468.494        1925.406          40.000  
G12  24606683.518   129308982.881       -3144.497          34.000    24606703.156   100760288.164       -2449.985          28.000  
G15  21402961.665   112473354.665        1831.920          46.000    21402979.684    87641686.884        1427.106          36.000  
G29  22256420.653   116958305.262        1589.701          42.000    22256440.493    91136403.035        1239.104          38.000  
R08  22704449.995   121581268.819        2683.182          47.000    22704475.644    94563260.607        2086.763          38.000  
R20  22234006.433   118895207.950       -2797.015          32.000    22234033.918    92474137.634       -2174.470          39.000  
E03  24085370.439   126569648.614       -1098.428          45.000    24085400.458    96981935.528        -841.545          41.000  
E08  24860131.759   130640881.645        1410.115          45.000    24860161.798   100101602.119        1080.560          43.000  
E30  27735527.443   145751234.357       -2941.833          29.000    27735571.585                       -2249.681          25.000  
E27  27133980.566   142590027.343       -2212.123          41.000    27134023.120   109257462.075       -1694.773          38.000  
E34  25691261.551   135008486.691       -1240.356          42.000    25691295.270   103448212.185        -950.494          41.000  
G30  25528187.072   134151538.089        -597.669          30.000                                                                  
E15  24841777.920   130544403.899         137.909          44.000    24841807.777   100027683.188         105.782          35.000  
> 2025 04 04 11 17 34.0010000  0 23                     
G25  24524791.613   128878657.6142      -2495.011          29.000    24524832.230   100425086.963       -1944.541          33.000  
G11  22695967.572   119268117.728       -1743.978          42.000    22695989.426    92936282.572       -1358.434          37.000  
G06  24776030.050   130198905.677       -2573.956          31.000    24776065.452   101453854.048       -2005.457          29.000  
G05  21460730.133   112776906.043       -1742.002          45.000    21460747.853    87878171.762       -1356.920          36.000  
E05  25911772.797   136167302.053       -3168.654          29.000    25911806.740   104336116.213       -2428.601          32.000  
G13  20421947.747   107318079.686         -15.851          46.000                                                                  
R21  20128546.982   107711929.676         109.326          46.000    20128565.645    83776048.809          85.052          37.000  
R06  20534696.050   109577019.565       -3564.057          37.000                                                                  
R07  19645364.846   105163195.908        -140.563          47.000    19645384.283    81793697.338        -109.431          45.000  
R22  22459838.599   119892168.354        2475.683          46.000    22459858.476    93249542.903        1925.428          38.000  
G12  24607281.549   129312127.327       -3144.934          35.000    24607301.591   100762738.565       -2451.078          28.000  
G15  21402613.173   112471523.254        1830.867          46.000    21402631.120    87640259.805        1426.620          36.000  
G29  22256118.245   116956715.918        1588.634          41.000    22256138.038    91135164.611        1237.816          38.000  
G20  22740289.995                       -2442.966          30.000                                                                  
R08  22703949.053   121578586.329        2682.086          47.000    22703974.619    94561174.233        2086.075          38.000  
R20  22234529.433   118898004.568       -2796.537          32.000    22234556.865    92476312.833       -2175.545          39.000  
E03  24085579.495   126570747.458       -1099.244          45.000    24085609.578    96982777.501        -842.186          41.000  
E08  24859863.401   130639472.025        1409.116          45.000    24859893.569   100100522.038        1079.604          43.000  
E30  27736087.300   145754176.262       -2942.542          30.000    27736129.921                       -2261.542          22.000  
E27  27134402.110   142592240.321       -2213.415          41.000    27134444.419   109259157.748       -1696.204          38.000  
E34  25691497.597   135009727.511       -1240.946          42.000    25691531.157   103449162.974        -951.021          41.000  
G30  25528300.841   134152136.241        -598.586          28.000                                                                  
E15  24841751.534   130544266.306         137.325          44.000    24841781.451   100027577.813         104.848          38.000  
> 2025 04 04 11 17 35.0010000  0 23                     
G25  24525266.503   128881152.9622      -2495.499          29.000    24525306.904   100427031.397       -1944.319          33.000  
G11  22696299.371   119269861.507       -1743.907          44.000    22696321.291    92937641.322       -1358.604          40.000  
G06  24776520.192   130201479.569       -2574.150          31.000    24776555.673                       -2005.563          28.000  
G05  21461061.629   112778648.097       -1742.214          45.000    21461079.327    87879529.224       -1357.626          36.000  
E05  25912373.835   136170470.603       -3168.915          31.000    25912409.655   104338543.971       -2427.116          30.000  
G13  20421950.816   107318095.976         -16.577          46.000                                                                  
R21  20128526.400   107711820.454         108.982          46.000    20128545.316    83775963.879          84.478          36.000  
R06  20535363.921   109580583.838       -3564.470          38.000                                                                  
R07  19645391.280   105163337.066        -141.531          48.000    19645410.524    81793807.124        -110.075          45.000  
R22  22459374.806   119889692.890        2475.388          46.000    22459394.703    93247617.543        1925.194          40.000  
G12  24607879.872   129315272.063       -3144.950          34.000    24607900.130   100765188.908       -2449.981          27.000  
G15  21402264.854   112469692.595        1830.558          46.000    21402282.725    87638833.333        1426.204          36.000  
G29  22255815.863   116955127.392        1588.143          42.000    22255835.666    91133926.788        1237.531          38.000  
G20  22740748.921                       -2443.640          28.000                                                                  
R08  22703448.230   121575904.560        2681.760          46.000    22703473.778    94559088.440        2085.336          38.000  
R20  22235052.685   118900802.129       -2797.952          32.000    22235079.998    92478488.694       -2175.986          40.000  
E03  24085788.847   126571847.127       -1100.015          45.000    24085818.804    96983620.101        -842.677          41.000  
E08  24859595.204   130638063.026        1408.714          45.000    24859625.596   100099442.408        1079.391          43.000  
E30  27736647.796   145757118.325       -2942.236          31.000    27736692.303                       -2263.002          21.000  
E27  27134823.286   142594453.775       -2213.572          42.000    27134865.843   109260853.736       -1695.867          38.000  
E34  25691733.544   135010968.727       -1241.325          43.000    25691767.498   103450114.028        -951.161          42.000  
G30  25528414.864   134152735.122        -599.306          28.000                                                                  
E15  24841725.605   130544129.027         137.026          45.000    24841755.245   100027472.640         105.159          38.000  
> 2025 04 04 11 17 36.0010000  0 22                     
G25  24525742.890   128883648.5882      -2496.141          28.000    24525781.733   100428976.068       -1944.951          32.000  
G11  22696631.270   119271605.637       -1744.427          44.000    22696653.293    92939000.425       -1359.479          41.000  
G06  24777010.328   130204053.796       -2574.253          33.000    24777044.102   101457852.7591      -2006.477          28.000  
G05  21461393.024   112780390.442       -1742.394          45.000    21461410.869    87880886.931       -1358.301          36.000  
E05  25912978.530   136173639.440       -3168.393          32.000    25913012.851   104340972.054       -2427.736          29.000  
G13  20421954.049   107318113.094         -17.774          46.000                                                                  
R21  20128506.169   107711711.905         108.184          46.000    20128525.021    83775879.397          84.297          36.000  
R06  20536031.921   109584148.678       -3565.146          37.000                                                                  
R07  19645417.913   105163479.146        -142.729          48.000    19645437.043    81793917.645        -110.864          45.000  
R22  22458911.206   119887217.545        2475.190          46.000    22458930.940    93245692.317        1925.109          40.000  
G12  24608478.207   129318416.810       -3144.622          35.000    24608498.532   100767639.342       -2450.309          27.000  
G15  21401916.572   112467862.537        1829.568          46.000    21401934.441    87637407.289        1425.662          37.000  
G29  22255513.604   116953539.456        1587.534          42.000    22255533.490    91132689.446        1237.194          38.000  
R08  22702947.510   121573223.342        2680.761          46.000    22702973.020    94557003.032        2085.228          39.000  
R20  22235575.914   118903600.308       -2798.513          32.000    22235603.289    92480665.058       -2176.968          39.000  
E03  24085998.281   126572947.365       -1100.696          46.000    24086028.299    96984463.149        -843.381          41.000  
E08  24859326.970   130636654.448        1408.207          45.000    24859357.611   100098363.106        1078.992          43.000  
E30  27737208.291   145760060.465       -2943.342          30.000    27737254.029                       -2248.356          21.000  
E27  27135244.322   142596667.549       -2214.001          40.000    27135287.369   109262550.047       -1696.506          38.000  
E34  25691969.763   135012210.228       -1241.729          43.000    25692003.794   103451065.317        -951.425          42.000  
G30  25528529.104   134153334.400        -599.594          30.000                                                                  
E15  24841699.443   130543991.863         137.017          45.000    24841729.141   100027367.517         104.902          37.000  
> 2025 04 04 11 17 37.0010000  0 22                     
G25  24526216.828   128886144.353       -2495.852          28.000    24526256.418   100430920.833       -1944.968          33.000  
G11  22696963.264   119273350.129       -1744.847          45.000    22696985.218    92940359.800       -1359.773          40.000  
G06  24777500.670   130206628.357       -2575.103          34.000    24777533.795                       -2007.900          27.000  
G05  21461724.672   112782133.029       -1742.817          45.000    21461742.422    87882244.790       -1357.888          36.000  
E05  25913580.283   136176808.673       -3169.553          32.000    25913615.933   104343400.497       -2428.158          29.000  
G13  20421957.559   107318130.971         -18.577          46.000                                                                  
R21  20128485.952   107711603.946         107.559          47.000    20128504.865    83775795.462          84.098          37.000  
R06  20536700.038   109587714.129       -3566.381          37.000                                                                  
R07  19645444.618   105163622.140        -143.769          48.000    19645463.780    81794028.833        -111.633          46.000  
R22  22458447.547   119884742.291        2475.003          46.000    22458467.232    93243767.107        1925.373          38.000  
G12  24609076.518   129321561.548       -3144.908          35.000    24609097.065   100770089.830       -2450.774          27.000  
G15  21401568.462   112466033.029        1829.156          46.000    21401586.166    87635981.713        1424.737          39.000  
G29  22255211.534   116951952.107        1586.740          42.000    22255231.406    91131452.529        1236.801          39.000  
R08  22702446.931   121570542.593        2680.320          46.000    22702472.414    94554918.075        2084.873          40.000  
R20  22236099.389   118906399.012       -2799.199          32.000    22236126.709    92482841.905       -2177.378          38.000  
E03  24086207.627   126574048.144       -1101.237          45.000    24086237.774    96985306.620        -843.726          41.000  
E08  24859059.186   130635246.295        1407.957          44.000    24859089.670   100097284.148        1078.648          43.000  
E30  27737768.075   145763002.484       -2942.153          30.000    27737815.373                       -2254.947          23.000  
E27  27135665.738   142598881.630       -2214.048          41.000    27135708.667   109264246.556       -1696.873          38.000  
E34  25692206.260   135013451.962       -1242.037          43.000    25692240.152   103452016.772        -951.699          41.000  
G30  25528643.386   134153934.195        -600.665          32.000                                                                  
E15  24841673.301   130543854.758         137.039          45.000    24841703.138   100027262.491         104.903          37.000  
> 2025 04 04 11 17 38.0010000  0 22                     
G25  24526692.816   128888640.459       -2496.052          28.000    24526731.357   100432865.872       -1945.101          33.000  
G11  22697295.350   119275095.070       -1745.078          44.000    22697317.367    92941719.460       -1359.759          42.000  
G06  24777990.866   130209203.348       -2575.262          33.000    24778022.191                       -2005.949          26.000  
G05  21462056.306   112783876.023       -1743.360          44.000    21462074.152    87883602.927       -1357.846          36.000  
E05  25914183.913   136179978.335       -3169.506          32.000    25914219.077   104345829.203       -2428.849          29.000  
G13  20421961.288   107318149.758         -19.256          46.000                                                                  
R21  20128465.871   107711496.689         106.853          47.000    20128484.751    83775712.045          83.193          37.000  
R06  20537368.546   109591280.239       -3566.773          37.000                                                                  
R07  19645471.510   105163766.118        -144.420          48.000    19645490.742    81794140.834        -112.473          45.000  
R22  22457983.984   119882267.248        2475.024          47.000    22458003.557    93241842.105        1924.882          40.000  
G12  24609674.957   129324706.430       -3145.372          35.000    24609695.431   100772540.360       -2450.507          27.000  
G15  21401220.473   112464204.152        1828.563          45.000    21401238.175    87634556.621        1424.860          38.000  
G29  22254909.673   116950365.406        1586.298          42.000    22254929.428    91130216.163        1236.115          38.000  
R08  22701946.360   121567862.533        2679.853          46.000    22701971.856    94552833.566        2084.181          39.000  
R20  22236622.943   118909198.557       -2800.495          31.000    22236650.230    92485019.267       -2177.672          39.000  
E03  24086417.116   126575149.617       -1101.769          45.000    24086447.521    96986150.596        -844.185          41.000  
E08  24858791.201   130633838.611        1407.559          42.000    24858821.888   100096205.543        1078.509          43.000  
E30  27738328.304   145765944.714       -2942.336          30.000    27738377.240                       -2256.592          23.000  
E27  27136087.293   142601096.150       -2214.551          41.000    27136130.031   109265943.365       -1697.159          37.000  
E34  25692442.683   135014694.010       -1242.335          43.000    25692476.310   103452968.477        -951.621          41.000  
G30  25528757.624   134154534.466        -599.549          31.000                                                                  
E15  24841647.225   130543717.915         136.768          45.000    24841677.254   100027157.616         104.948          37.000  
> 2025 04 04 11 17 39.0010000  0 22                     
G25  24527168.393   128891136.954       -2496.868          28.000    24527206.298   100434811.166       -1945.001          33.000  
G11  22697627.529   119276840.512       -1745.593          43.000    22697649.502    92943079.529       -1359.841          42.000  
G06  24778481.300   130211778.769       -2575.459          34.000    24778511.847   101463863.3001      -2007.058          27.000  
G05  21462388.124   112785619.346       -1743.369          44.000    21462405.876    87884961.369       -1357.944          35.000  
E05  25914787.307   136183148.480       -3170.642          33.000    25914822.372   104348258.286       -2429.446          29.000  
G13  20421965.050   107318169.443         -19.988          46.000                                                                  
R21  20128445.969   107711390.197         106.279          48.000    20128464.800    83775629.238          82.605          38.000  
R06  20538037.050   109594847.060       -3567.226          36.000                                                                  
R07  19645498.637   105163911.124        -145.226          47.000    19645517.765    81794253.608        -113.028          45.000  
R22  22457520.312   119879792.427        2474.685          47.000    22457539.917    93239917.228        1924.990          39.000  
G12  24610273.388   129327851.384       -3144.840          35.000    24610293.847   100774991.034       -2451.043          28.000  
G15  21400872.603   112462375.973        1828.027          46.000    21400890.373    87633132.091        1424.018          38.000  
G29  22254607.845   116948779.393        1585.637          43.000    22254627.695    91128980.324        1235.653          39.000  
R08  22701445.875   121565183.098        2679.251          45.000    22701471.503    94550749.575        2083.683          39.000  
R20  22237146.525   118911998.722       -2800.326          30.000    22237173.869    92487197.207       -2177.866          39.000  
E03  24086627.028   126576251.757       -1102.352          45.000    24086657.270    96986995.100        -844.606          41.000  
E08  24858523.404   130632431.445        1407.031          43.000    24858554.058   100095127.346        1078.066          43.000  
E30  27738888.405   145768886.968       -2942.132          29.000    27738936.436                       -2255.382          22.000  
E27  27136508.866   142603311.083       -2215.276          41.000    27136551.405   109267640.491       -1697.311          37.000  
E34  25692678.904   135015936.402       -1242.527          43.000    25692712.816   103453920.480        -952.167          41.000  
G30  25528871.826   134155135.409        -600.948          30.000                                                                  
E15  24841621.343   130543581.252         136.682          45.000    24841651.024   100027052.920         104.465          37.000  
> 2025 04 04 11 17 40.0010000  0 22                     
G25  24527642.525   128893633.694       -2496.594          28.000    24527681.276   100436756.764       -1945.897          33.000  
G11  22697959.708   119278586.434       -1746.535          43.000    22697981.842    92944439.988       -1360.693          42.000  
G06  24778971.661   130214354.662       -2576.495          34.000    24779002.181   101465870.535       -2008.317          27.000  
G05  21462719.901   112787363.096       -1744.126          44.000    21462737.700    87886320.147       -1358.856          35.000  
E05  25915390.763   136186319.097       -3171.131          33.000    25915425.750   104350687.707       -2429.704          29.000  
G13  20421968.832   107318190.079         -21.348          46.000                                                                  
R21  20128426.127   107711284.534         105.134          47.000    20128444.837    83775547.053          81.756          38.000  
R06  20538705.551   109598414.607       -3568.163          37.000                                                                  
R07  19645525.969   105164057.144        -146.646          47.000    19645545.045    81794367.194        -114.236          45.000  
R22  22457056.704   119877317.826        2474.267          47.000    22457076.318    93237992.560        1924.611          38.000  
G12  24610871.728   129330996.542       -3145.398          35.000    24610892.373   100777441.782       -2450.981          28.000  
G15  21400524.958   112460548.503        1826.950          46.000    21400542.524    87631708.044        1423.524          38.000  
G29  22254306.178   116947194.110        1584.837          42.000    22254326.028    91127745.039        1235.004          39.000  
R08  22700945.502   121562504.386        2678.182          45.000    22700971.276    94548666.149        2082.688          39.000  
R20  22237670.321   118914799.732       -2801.533          30.000    22237697.710    92489375.772       -2179.012          40.000  
E03  24086837.070   126577354.607       -1103.437          45.000    24086867.071    96987840.144        -845.512          41.000  
E08  24858255.732   130631024.831        1406.298          43.000    24858286.474   100094049.557        1077.366          43.000  
E30  27739448.632   145771829.377       -2942.597          28.000    27739496.787                       -2252.068          23.000  
E27  27136930.443   142605526.457       -2216.043          41.000    27136973.039   109269338.010       -1697.950          37.000  
E34  25692915.382   135017179.172       -1243.266          43.000    25692949.289   103454872.730        -952.656          41.000  
G30  25528986.545   134155736.862        -601.670          30.000                                                                  
E15  24841595.476   130543444.824         136.102          45.000    24841625.024   100026948.408         103.892          37.000  
> 2025 04 04 11 17 41.0010000  0 22                     
G25  24528118.381   128896131.170       -2497.938          28.000    24528156.402   100438702.823       -1946.767          33.000  
G11  22698292.017   119280333.073       -1747.293          43.000    22698314.234    92945801.036       -1361.481          42.000  
G06  24779462.297   130216931.277       -2577.380          34.000    24779492.800   101467878.128       -2007.508          27.000  
G05  21463051.866   112789107.496       -1744.744          45.000    21463069.642    87887679.460       -1359.984          35.000  
E05  25915994.481   136189490.417       -3172.247          33.000    25916029.297   104353117.713       -2430.492          29.000  
G13  20421972.857   107318211.877         -22.563          46.000                                                                  
R21  20128406.579   107711179.888         103.924          47.000    20128425.422    83775465.692          80.896          38.000  
R06  20539374.292   109601983.174       -3569.578          36.000                                                                  
R07  19645553.458   105164204.479        -148.209          47.000    19645572.557    81794481.782        -115.220          45.000  
R22  22456593.267   119874843.700        2473.830          47.000    22456612.752    93236068.263        1924.107          39.000  
G12  24611470.111   129334142.076       -3145.464          35.000    24611490.739   100779892.855       -2451.096          28.000  
G15  21400177.452   112458721.963        1825.810          46.000    21400194.828    87630284.799        1422.735          38.000  
G29  22254004.583   116945609.790        1583.507          42.000    22254024.458    91126510.525        1234.177          39.000  
R08  22700445.359   121559826.642        2677.022          45.000    22700471.187    94546583.469        2082.031          39.000  
R20  22238194.118   118917601.720       -2802.260          30.000    22238221.810    92491555.143       -2180.174          40.000  
E03  24087046.961   126578458.402       -1104.348          45.000    24087077.101    96988685.913        -846.151          42.000  
E08  24857988.216   130629619.033        1405.203          43.000    24858018.884   100092972.381        1076.731          43.000  
E30  27740009.278   145774772.176       -2943.444          28.000    27740057.580                       -2258.917          23.000  
E27  27137352.105   142607742.514       -2216.648          41.000    27137394.688   109271036.056       -1698.607          37.000  
E34  25693151.934   135018422.565       -1243.933          43.000    25693186.003   103455825.443        -952.923          41.000  
G30  25529101.262   134156339.214        -603.008          30.000                                                                  
E15  24841569.499   130543308.889         135.471          45.000    24841599.244   100026844.223         104.227          36.000  
> 2025 04 04 11 17 42.0010000  0 22                     
G25  24528594.483   128898629.343       -2498.427          29.000    24528631.635   100440649.427       -1946.479          33.000  
G11  22698624.581   119282080.623       -1747.611          44.000    22698646.834    92947162.757       -1361.850          42.000  
G06  24779953.178   130219508.730       -2577.294          34.000    24779983.830   101469886.688       -2008.758          27.000  
G05  21463383.987   112790852.682       -1745.448          45.000    21463401.763    87889039.349       -1360.298          36.000  
E05  25916598.643   136192662.572       -3172.219          33.000    25916632.896   104355548.349       -2430.580          29.000  
G13  20421977.413   107318235.009         -23.612          46.000                                                                  
R21  20128387.229   107711076.393         103.201          47.000    20128406.147    83775385.179          80.005          38.000  
R06  20540043.169   109605552.829       -3569.810          37.000                                                                  
R07  19645581.203   105164353.261        -149.101          48.000    19645600.475    81794597.512        -116.187          45.000  
R22  22456129.935   119872370.244        2473.318          47.000    22456149.282    93234144.444        1924.063          39.000  
G12  24612068.666   129337288.190       -3146.418          35.000    24612089.424   100782344.403       -2452.153          28.000  
G15  21399830.077   112456896.517        1825.299          46.000    21399847.380    87628862.368        1422.411          38.000  
G29  22253703.367   116944026.574        1582.927          42.000    22253723.165    91125276.863        1233.373          39.000  
R08  22699945.499   121557149.989        2676.467          46.000    22699971.351    94544501.627        2081.461          39.000  
R20  22238718.365   118920404.921       -2803.720          30.000    22238746.091    92493735.388       -2180.679          40.000  
E03  24087257.383   126579563.299       -1105.115          45.000    24087287.241    96989532.521        -846.747          42.000  
E08  24857721.033   130628214.145        1404.885          43.000    24857751.539   100091895.925        1076.266          43.000  
E30  27740569.516   145777715.468       -2943.451          28.000    27740618.071                       -2249.548          23.000  
E27  27137774.142   142609959.404       -2216.808          42.000    27137816.536   109272734.708       -1698.420          37.000  
E34  25693388.627   135019666.711       -1244.255          43.000    25693422.727   103456778.754        -953.197          41.000  
G30  25529216.361   134156942.531        -603.281          30.000                                                                  
E15  24841543.643   130543173.580         135.218          45.000    24841573.563   100026740.559         103.802          36.000  
> 2025 04 04 11 17 43.0010000  0 22                     
G25  24529069.877   128901128.117       -2498.582          28.000    24529107.045   100442596.521       -1946.716          33.000  
G11  22698957.365   119283828.946       -1748.657          45.000    22698979.434    92948525.051       -1362.546          41.000  
G06  24780444.152   130222086.910       -2578.560          34.000    24780475.142   101471895.520       -2008.209          28.000  
G05  21463716.126   112792598.500       -1746.020          45.000    21463733.941    87890399.732       -1360.761          36.000  
E05  25917202.773   136195835.516       -3173.145          33.000    25917236.719   104357979.534       -2431.026          29.000  
G13  20421982.235   107318259.328         -24.824          46.000                                                                  
R21  20128368.048   107710973.898         101.912          46.000    20128387.097    83775305.471          79.446          37.000  
R06  20540712.305   109609123.528       -3571.316          37.000                                                                  
R07  19645609.384   105164503.362        -150.832          48.000    19645628.561    81794714.266        -117.308          45.000  
R22  22455666.694   119869897.282        2472.836          47.000    22455686.003    93232221.047        1923.150          39.000  
G12  24612667.430   129340434.675       -3146.298          34.000    24612688.188   100784796.168       -2451.568          28.000  
G15  21399483.000   112455072.022        1824.207          46.000    21399500.193    87627440.727        1420.957          38.000  
G29  22253402.181   116942444.334        1581.775          42.000    22253422.097    91124043.942        1232.527          38.000  
R08  22699445.668   121554474.260        2675.507          47.000    22699471.673    94542420.499        2080.705          39.000  
R20  22239242.860   118923209.077       -2804.790          30.000    22239270.601    92495916.458       -2181.358          38.000  
E03  24087467.882   126580669.178       -1106.248          45.000    24087497.609    96990379.878        -847.774          41.000  
E08  24857453.762   130626810.087        1403.880          43.000    24857484.426   100090820.073        1075.639          43.000  
E30  27741129.621   145780659.207       -2943.939          29.000    27741179.164                       -2252.922          24.000  
E27  27138196.104   142612177.037       -2218.023          40.000    27138238.553   109274433.931       -1699.536          38.000  
E34  25693625.714   135020911.486       -1245.012          42.000    25693659.688   103457732.527        -953.725          41.000  
G30  25529331.482   134157546.720        -604.381          32.000                                                                  
E15  24841518.130   130543038.776         134.572          45.000    24841547.882   100026637.262         103.146          36.000  
> 2025 04 04 11 17 44.0010000  0 22                     
G25  24529545.525   128903626.932       -2498.830          27.000    24529582.497   100444543.674       -1947.212          32.000  
G11  22699290.028   119285577.412       -1748.193          44.000    22699312.250    92949887.510       -1362.419          42.000  
G06  24780935.073   130224665.274       -2578.152          34.000    24780964.661   101473904.674       -2008.912          29.000  
G05  21464048.384   112794344.405       -1745.554          45.000    21464066.108    87891760.187       -1360.177          35.000  
E05  25917806.760   136199008.634       -3173.375          33.000    25917840.470   104360410.926       -2431.102          29.000  
G13  20421986.876   107318284.253         -24.664          46.000                                                                  
R21  20128348.955   107710871.864         102.045          47.000    20128368.129    83775226.158          78.983          37.000  
R06  20541381.666   109612694.601       -3570.916          37.000                                                                  
R07  19645637.648   105164654.189        -150.819          49.000    19645656.758    81794831.581        -117.329          45.000  
R22  22455203.369   119867424.245        2473.317          47.000    22455222.783    93230297.557        1923.856          39.000  
G12  24613266.173   129343581.010       -3146.569          34.000    24613287.070   100787247.873       -2451.402          28.000  
G15  21399135.882   112453247.910        1824.215          46.000    21399153.046    87626019.332        1421.213          38.000  
G29  22253101.190   116940862.489        1581.931          41.000    22253120.914    91122811.323        1232.969          38.000  
R08  22698945.917   121551798.846        2675.617          46.000    22698971.973    94540339.622        2081.000          40.000  
R20  22239767.153   118926013.776       -2804.863          31.000    22239795.078    92498097.844       -2181.420          39.000  
E03  24087678.519   126581775.405       -1106.104          45.000    24087708.243    96991227.507        -847.421          41.000  
E08  24857186.811   130625406.247        1404.044          43.000    24857217.161   100089744.396        1075.958          43.000  
E30  27741689.653   145783602.722       -2943.573          28.000    27741738.738                       -2250.632          24.000  
E27  27138617.963   142614394.751       -2217.604          40.000    27138660.768   109276133.239       -1699.321          38.000  
E34  25693862.746   135022156.308       -1244.648          43.000    25693896.627   103458686.376        -953.639          41.000  
G30  25529446.635   134158151.209        -604.319          32.000                                                                  
E15  24841492.418   130542903.881         135.208          45.000    24841522.325   100026533.911         103.434          36.000  
> 2025 04 04 11 17 45.0010000  0 22                     
G25  24530020.985   128906125.599       -2499.454          28.000    24530057.862   100446490.647       -1947.629          32.000  
G11  22699622.769   119287325.845       -1748.717          44.000    22699645.065    92951249.924       -1362.536          42.000  
G06  24781425.935   130227243.542       -2578.735          35.000    24781460.182   101475913.728       -2009.169          31.000  
G05  21464380.649   112796090.158       -1746.122          45.000    21464398.283    87893120.509       -1361.119          35.000  
E05  25918410.213   136202181.605       -3173.387          32.000    25918444.001   104362842.203       -2431.554          29.000  
G13  20421991.610   107318309.584         -25.881          46.000                                                                  
R21  20128329.935   107710770.078         101.240          47.000    20128349.083    83775146.949          78.563          36.000  
R06  20542051.042   109616265.839       -3571.457          36.000                                                                  
R07  19645666.074   105164805.525        -152.025          48.000    19645685.031    81794949.282        -118.077          45.000  
R22  22454740.059   119864950.853        2473.157          47.000    22454759.402    93228373.811        1923.852          39.000  
G12  24613864.876   129346726.899       -3145.993          34.000    24613885.634   100789699.186       -2451.089          28.000  
G15  21398788.784   112451423.976        1823.402          46.000    21398805.914    87624598.059        1420.661          39.000  
G29  22252800.129   116939280.803        1581.174          41.000    22252819.916    91121578.866        1231.985          38.000  
R08  22698446.349   121549123.537        2674.742          46.000    22698472.328    94538258.847        2080.241          40.000  
R20  22240291.809   118928818.586       -2805.404          33.000    22240319.634    92500279.341       -2182.060          38.000  
E03  24087889.062   126582881.789       -1106.961          45.000    24087918.599    96992075.285        -848.292          41.000  
E08  24856920.031   130624002.389        1403.408          44.000    24856949.922   100088668.710        1075.289          43.000  
E30  27742250.042   145786545.693       -2942.894          27.000    27742298.192                       -2259.150          25.000  
E27  27139039.867   142616612.381       -2217.938          41.000    27139082.786   109277832.450       -1699.668          38.000  
E34  25694099.588   135023400.958       -1245.264          41.000    25694133.482   103459640.074        -953.840          41.000  
G30  25529561.971   134158755.693        -604.835          33.000                                                                  
E15  24841466.666   130542768.671         134.835          45.000    24841496.502   100026430.325         103.306          37.000  
> 2025 04 04 11 17 46.0010000  0 22                     
G25  24530496.501   128908624.318       -2498.574          28.000    24530533.295   100448437.799       -1947.490          32.000  
G11  22699955.529   119289074.611       -1749.033          43.000    22699977.829    92952612.586       -1362.590          42.000  
G06  24781916.661   130229822.142       -2578.840          36.000    24781950.551   101477923.044       -2009.796          31.000  
G05  21464712.781   112797836.165       -1746.179          45.000    21464730.442    87894481.033       -1360.505          35.000  
E05  25919013.926   136205354.973       -3173.753          32.000    25919047.901   104365273.708       -2431.201          29.000  
G13  20421996.646   107318335.677         -26.635          46.000                                                                  
R21  20128311.071   107710668.899         100.734          47.000    20128330.176    83775068.262          78.577          36.000  
R06  20542720.425   109619837.649       -3571.917          36.000                                                                  
R07  19645694.525   105164957.743        -152.892          48.000    19645713.458    81795067.672        -118.866          45.000  
R22  22454276.740   119862477.559        2473.006          47.000    22454296.083    93226450.147        1923.549          39.000  
G12  24614463.445   129349872.792       -3145.212          35.000    24614484.200   100792150.532       -2450.861          28.000  
G15  21398441.775   112449600.560        1822.983          47.000    21398458.884    87623177.237        1420.381          38.000  
G29  22252499.171   116937699.703        1580.441          41.000    22252519.089    91120346.832        1231.728          38.000  
R08  22697946.885   121546448.778        2674.415          46.000    22697972.751    94536178.454        2080.207          40.000  
R20  22240816.272   118931623.988       -2805.590          33.000    22240844.256    92502461.323       -2182.268          39.000  
E03  24088099.839   126583988.725       -1107.351          45.000    24088129.329    96992923.447        -848.441          41.000  
E08  24856652.795   130622598.905        1403.006          43.000    24856682.797   100087593.318        1075.144          43.000  
E30  27742810.028   145789488.775       -2943.432          28.000    27742858.903                       -2253.748          25.000  
E27  27139462.007   142618830.310       -2218.220          41.000    27139504.871   109279531.869       -1699.293          38.000  
E34  25694336.215   135024645.787       -1244.790          41.000    25694370.441   103460593.918        -953.949          41.000  
G30  25529677.518   134159360.672        -605.584          33.000                                                                  
E15  24841441.115   130542633.551         134.986          45.000    24841470.847   100026326.790         103.441          37.000  
> 2025 04 04 11 17 47.0010000  0 22                     
G25  24530972.153   128911123.441       -2499.012          28.000    24531008.793   100450385.172       -1947.869          32.000  
G11  22700288.439   119290823.856       -1750.070          44.000    22700310.637    92953975.627       -1363.514          42.000  
G06  24782407.495   130232401.131       -2579.823          36.000    24782440.406   101479932.689       -2010.211          31.000  
G05  21465045.002   112799582.576       -1746.830          45.000    21465062.652    87895841.882       -1361.489          35.000  
E05  25919617.925   136208528.792       -3174.438          32.000    25919651.893   104367705.652       -2432.320          29.000  
G13  20422001.856   107318362.697         -27.981          46.000                                                                  
R21  20128292.298   107710568.460          99.687          47.000    20128311.460    83774990.171          77.787          37.000  
R06  20543389.909   109623410.162       -3572.723          37.000                                                                  
R07  19645723.195   105165110.966        -154.158          49.000    19645742.010    81795186.851        -119.871          45.000  
R22  22453813.360   119860004.491        2472.500          47.000    22453832.787    93224526.687        1922.708          39.000  
G12  24615062.151   129353018.865       -3146.398          35.000    24615082.891   100794602.122       -2452.194          28.000  
G15  21398094.902   112447777.847        1821.947          46.000    21398111.916    87621756.968        1419.500          39.000  
G29  22252198.464   116936119.270        1579.678          42.000    22252218.341    91119115.352        1230.942          38.000  
R08  22697447.392   121543774.729        2673.395          46.000    22697473.339    94534098.663        2079.159          40.000  
R20  22241340.957   118934430.136       -2806.831          32.000    22241369.067    92504643.927       -2182.943          37.000  
E03  24088310.405   126585096.380       -1108.360          45.000    24088340.199    96993772.165        -849.257          41.000  
E08  24856385.746   130621195.997        1402.285          43.000    24856415.758   100086518.357        1074.634          43.000  
E30  27743369.632   145792431.961       -2943.353          28.000    27743419.429                       -2256.152          25.000  
E27  27139884.131   142621048.664       -2218.900          41.000    27139927.022   109281231.655       -1700.295          37.000  
E34  25694572.893   135025891.010       -1245.722          42.000    25694607.436   103461548.050        -954.692          43.000  
G30  25529793.088   134159966.220        -606.497          33.000                                                                  
E15  24841415.578   130542498.665         134.387          45.000    24841445.386   100026223.414         103.311          38.000  
> 2025 04 04 11 17 48.0010000  0 23                     
G25  24531447.916   128913623.729       -2500.931          30.000    24531484.441   100452333.360       -1947.396          31.000  
G11  22700621.604   119292574.330       -1750.925          44.000    22700643.763    92955339.633       -1364.402          43.000  
G06  24782898.575   130234981.358       -2580.487          36.000    24782931.731   101481943.266       -2011.458          31.000  
G05  21465377.494   112801330.105       -1748.256          45.000    21465395.219    87897203.601       -1362.563          34.000  
E05  25920222.073   136211703.769       -3175.046          32.000    25920256.095   104370138.504       -2433.677          28.000  
G13  20422007.108   107318391.341         -29.348          46.000                                                                  
R21  20128273.859   107710469.520          98.199          47.000    20128293.005    83774913.206          76.434          37.000  
R06  20544059.545   109626984.105       -3574.178          37.000                                                                  
R07  19645752.218   105165265.966        -155.827          48.000    19645771.000    81795307.408        -121.096          45.000  
R22  22453350.187   119857532.382        2471.891          46.000    22453369.729    93222603.914        1922.544          39.000  
G12  24615660.930   129356165.775       -3147.667          34.000    24615681.690   100797054.212       -2452.605          28.000  
G15  21397748.359   112445956.544        1820.720          46.000    21397765.423    87620337.778        1418.892          39.000  
G29  22251897.937   116934540.307        1578.484          41.000    22251917.950    91117884.994        1229.449          38.000  
G20  22746814.634                       -2445.600          30.000                                                                  
R08  22696948.351   121541102.062        2671.949          46.000    22696974.188    94532019.902        2078.515          40.000  
R20  22241866.068   118937237.764       -2808.284          30.000    22241894.093    92506827.707       -2184.285          36.000  
E03  24088521.511   126586205.434       -1109.640          45.000    24088551.133    96994621.953        -850.186          41.000  
E08  24856119.149   130619794.301        1401.196          44.000    24856149.124   100085444.365        1073.513          43.000  
E30  27743929.289   145795375.997       -2944.231          29.000    27743980.306                       -2256.580          25.000  
E27  27140306.189   142623268.171       -2219.986          41.000    27140349.398   109282932.342       -1701.122          38.000  
E34  25694810.256   135027137.306       -1246.946          42.000    25694844.590   103462503.017        -955.332          43.000  
G30  25529908.863   134160573.053        -606.716          33.000                                                                  
E15  24841390.018   130542364.734         133.393          45.000    24841419.876   100026120.809         102.024          37.000  
> 2025 04 04 11 17 49.0010000  0 22                     
G25  24531923.785   128916124.790       -2501.339          29.000    24531960.264   100454282.310       -1949.083          32.000  
G11  22700954.888   119294325.809       -1752.023          44.000    22700977.174    92956704.435       -1365.329          43.000  
G06  24783389.727   130237562.565       -2581.808          36.000    24783422.893   101483954.583       -2011.472          31.000  
G05  21465710.317   112803078.552       -1748.988          45.000    21465727.961    87898566.026       -1362.389          34.000  
E05  25920826.219   136214879.791       -3176.130          32.000    25920860.392   104372572.041       -2434.100          27.000  
G13  20422012.795   107318421.472         -30.787          46.000                                                                  
R21  20128255.489   107710371.933          96.792          47.000    20128274.818    83774837.286          75.777          37.000  
R06  20544729.516   109630559.379       -3576.005          36.000                                                                  
R07  19645781.377   105165422.552        -157.470          48.000    19645800.304    81795429.199        -122.521          45.000  
R22  22452887.264   119855061.083        2470.886          47.000    22452906.699    93220681.796        1921.829          39.000  
G12  24616259.752   129359313.366       -3147.897          34.000    24616280.612   100799506.917       -2453.914          27.000  
G15  21397402.091   112444136.492        1819.503          46.000    21397419.107    87618919.574        1417.793          39.000  
G29  22251597.697   116932962.544        1577.241          41.000    22251617.702    91116655.600        1228.872          38.000  
R08  22696449.425   121538430.618        2670.574          46.000    22696475.246    94529942.118        2077.345          40.000  
R20  22242391.266   118940046.773       -2810.135          28.000    22242419.418    92509012.437       -2184.836          36.000  
E03  24088732.788   126587315.742       -1111.001          46.000    24088762.523    96995472.722        -851.244          40.000  
E08  24855852.524   130618393.722        1400.003          44.000    24855882.607   100084371.195        1072.769          43.000  
E30  27744489.023   145798320.688       -2945.563          30.000    27744540.073                       -2255.849          24.000  
E27  27140728.764   142625488.678       -2221.150          41.000    27140771.824   109284633.752       -1701.738          38.000  
E34  25695047.675   135028384.474       -1247.576          42.000    25695081.969   103463458.676        -956.070          43.000  
G30  25530024.571   134161181.052        -608.531          33.000                                                                  
E15  24841364.685   130542231.566         132.606          45.000    24841394.419   100026018.781         101.679          38.000  
> 2025 04 04 11 17 50.0010000  0 23                     
G25  24532399.724   128918626.615       -2502.345          29.000    24532436.232   100456231.754       -1950.299          31.000  
G11  22701288.265   119296078.083       -1752.934          44.000    22701310.540    92958069.837       -1365.833          43.000  
G06  24783881.275   130240144.574       -2582.551          36.000    24783914.355   101485966.535       -2011.919          31.000  
G05  21466043.217   112804827.721       -1749.740          45.000    21466060.776    87899929.015       -1363.129          35.000  
E05  25921430.470   136218056.640       -3177.639          33.000    25921464.973   104375006.217       -2434.390          27.000  
G13  20422018.941   107318452.842         -32.139          46.000                                                                  
R21  20128237.337   107710275.456          95.790          46.000    20128256.773    83774762.305          73.927          37.000  
R06  20545399.615   109634135.664       -3577.367          36.000                                                                  
R07  19645811.024   105165580.485        -158.783          49.000    19645829.727    81795552.038        -123.381          45.000  
R22  22452424.250   119852590.324        2470.276          46.000    22452443.779    93218760.097        1921.601          39.000  
G12  24616858.711   129362461.422       -3148.159          34.000    24616879.572   100801959.881       -2452.955          28.000  
G15  21397055.908   112442317.458        1818.271          46.000    21397072.845    87617502.112        1416.895          39.000  
G29  22251297.633   116931385.842        1576.169          41.000    22251317.632    91115426.970        1228.450          38.000  
G20  22747733.165   119540143.8243      -2448.048          29.000                                                                  
R08  22695950.712   121535760.131        2669.710          46.000    22695976.485    94527865.100        2076.507          40.000  
R20  22242916.971   118942856.847       -2810.842          28.000    22242944.951    92511198.020       -2186.098          36.000  
E03  24088944.227   126588427.054       -1112.086          45.000    24088973.921    96996324.256        -852.072          41.000  
E08  24855586.428   130616993.989        1399.140          45.000    24855616.206   100083298.668        1072.033          43.000  
E30  27745048.933   145801265.848       -2945.791          30.000    27745100.292                       -2255.471          24.000  
E27  27141151.523   142627709.917       -2221.795          41.000    27141194.448   109286335.765       -1702.483          38.000  
E34  25695285.238   135029632.373       -1248.241          42.000    25695319.198   103464414.836        -956.645          43.000  
G30  25530140.615   134161789.980        -609.472          32.000                                                                  
E15  24841339.557   130542098.951         132.204          45.000    24841369.164   100025917.186         100.753          37.000  
> 2025 04 04 11 17 51.0010000  0 23                     
G25  24532875.816   128921129.284       -2503.598          29.000    24532912.444   100458181.935       -1950.460          31.000  
G11  22701621.767   119297831.421       -1754.181          44.000    22701644.125    92959436.078       -1366.828          43.000  
G06  24784372.865   130242727.646       -2583.975          36.000    24784405.856   101487979.310       -2013.099          31.000  
G05  21466376.341   112806577.843       -1751.062          46.000    21466393.799    87901292.733       -1364.124          34.000  
E05  25922034.482   136221234.459       -3178.525          32.000    25922069.628   104377441.187       -2434.875          27.000  
G13  20422025.258   107318485.702         -33.989          46.000                                                                  
R21  20128219.577   107710180.337          94.185          45.000    20128239.185    83774688.286          73.649          38.000  
R06  20546069.934   109637713.224       -3578.543          36.000                                                                  
R07  19645840.992   105165740.039        -160.759          49.000    19645859.503    81795676.144        -124.921          45.000  
R22  22451961.457   119850120.365        2469.355          46.000    22451981.019    93216839.052        1920.286          39.000  
G12  24617457.943   129365610.185       -3149.467          35.000    24617478.732   100804413.517       -2454.188          28.000  
G15  21396709.979   112440499.675        1816.713          46.000    21396727.084    87616085.678        1415.604          39.000  
G29  22250997.850   116929810.427        1574.581          41.000    22251017.852    91114199.396        1227.102          38.000  
G20  22748200.553   119542592.4162      -2448.808          28.000                                                                  
R08  22695452.261   121533090.892        2668.334          47.000    22695478.074    94525789.046        2075.313          40.000  
R20  22243442.558   118945668.170       -2813.341          30.000    22243470.733    92513384.654       -2187.663          37.000  
E03  24089155.993   126589539.621       -1113.424          45.000    24089185.548    96997176.758        -853.306          41.000  
E08  24855320.212   130615595.346        1397.904          44.000    24855349.955   100082226.990        1071.098          43.000  
E30  27745609.231   145804211.591       -2945.564          29.000    27745660.742                       -2257.586          25.000  
E27  27141574.441   142629932.184       -2223.057          41.000    27141617.450   109288038.561       -1703.545          38.000  
E34  25695523.008   135030881.211       -1249.563          42.000    25695556.899   103465371.717        -957.319          43.000  
G30  25530256.937   134162399.991        -610.739          33.000                                                                  
E15  24841314.315   130541967.136         131.158          45.000    24841344.051   100025816.186         100.131          37.000  
> 2025 04 04 11 17 52.0010000  0 23                     
G25  24533352.262   128923633.047       -2504.361          29.000    24533388.935   100460132.847       -1951.064          31.000  
G11  22701955.741   119299585.961       -1755.067          43.000    22701978.069    92960803.247       -1367.458          43.000  
G06  24784864.680   130245311.779       -2584.823          37.000    24784897.645   101489992.921       -2013.596          31.000  
G05  21466709.632   112808329.010       -1751.504          46.000    21466727.119    87902657.319       -1365.215          34.000  
E05  25922638.359   136224413.462       -3178.839          32.000    25922674.653   104379877.071       -2435.886          27.000  
G13  20422031.777   107318520.163         -35.069          46.000                                                                  
R21  20128202.041   107710086.627          93.228          48.000    20128221.702    83774615.435          72.202          37.000  
R06  20546740.546   109641292.225       -3579.819          36.000                                                                  
R07  19645871.216   105165901.339        -161.984          49.000    19645889.647    81795801.610        -126.052          45.000  
R22  22451498.828   119847651.319        2468.893          46.000    22451518.543    93214918.697        1919.962          39.000  
G12  24618057.229   129368759.766       -3149.817          36.000    24618078.034   100806867.726       -2454.014          27.000  
G15  21396364.306   112438683.262        1815.865          46.000    21396381.436    87614670.280        1415.068          39.000  
G29  22250698.233   116928236.371        1573.622          40.000    22250718.410    91112972.858        1226.088          38.000  
G20  22748666.361   119545042.0402      -2450.527          30.000                                                                  
R08  22694954.042   121530423.040        2667.237          46.000    22694979.861    94523714.041        2074.712          41.000  
R20  22243968.632   118948480.967       -2813.204          30.000    22243996.770    92515572.365       -2187.990          37.000  
E03  24089367.956   126590653.573       -1114.393          45.000    24089397.415    96998030.311        -854.006          41.000  
E08  24855054.176   130614197.921        1397.017          44.000    24855083.995   100081156.242        1070.444          43.000  
E30  27746169.989   145807158.240       -2946.637          29.000    27746219.803                       -2257.754          25.000  
E27  27141997.494   142632155.540       -2223.433          41.000    27142040.439   109289742.159       -1703.728          38.000  
E34  25695760.654   135032131.052       -1250.162          42.000    25695794.719   103466329.409        -957.951          43.000  
G30  25530373.326   134163011.346        -611.759          33.000                                                                  
E15  24841289.356   130541836.221         130.646          44.000    24841319.044   100025715.857         100.045          37.000  
> 2025 04 04 11 17 53.0010000  0 23                     
G25  24533828.758   128926137.204       -2504.837          29.000    24533865.302   100462084.138       -1951.399          31.000  
G11  22702289.828   119301341.064       -1755.734          39.000    22702312.066    92962170.889       -1367.937          42.000  
G06  24785356.690   130247896.474       -2585.211          33.000    24785389.536   101492007.015       -2015.015          31.000  
G05  21467043.031   112810080.676       -1751.932          46.000    21467060.381    87904022.205       -1365.093          34.000  
E05  25923243.119   136227593.043       -3179.973          32.000    25923279.685   104382313.395       -2436.173          27.000  
G13  20422038.603   107318555.661         -36.162          46.000                                                                  
R21  20128184.623   107709993.799          92.300          48.000    20128204.226    83774543.184          71.754          38.000  
R06  20547411.289   109644872.021       -3580.590          37.000                                                                  
R07  19645901.503   105166063.794        -163.104          49.000    19645920.002    81795927.961        -127.112          45.000  
R22  22451036.312   119845182.622        2468.567          45.000    22451056.051    93212998.584        1919.834          39.000  
G12  24618656.476   129371909.592       -3149.860          36.000    24618677.401   100809322.135       -2454.838          28.000  
G15  21396018.735   112436867.638        1815.060          46.000    21396036.005    87613255.541        1414.156          39.000  
G29  22250398.771   116926663.145        1572.803          40.000    22250419.076    91111746.970        1225.764          38.000  
G20  22749136.191   119547492.0962      -2449.990          29.000                                                                  
R08  22694455.915   121527755.984        2666.669          46.000    22694481.730    94521639.672        2073.969          41.000  
R20  22244494.671   118951294.603       -2813.796          29.000    22244522.992    92517760.780       -2188.636          37.000  
E03  24089580.179   126591768.333       -1115.191          45.000    24089609.503    96998884.480        -854.501          41.000  
E08  24854788.330   130612801.130        1396.448          45.000    24854818.044   100080085.994        1070.029          43.000  
E30  27746730.135   145810105.126       -2947.093          29.000    27746780.220                       -2257.851          26.000  
E27  27142420.816   142634379.451       -2224.161          41.000    27142463.667   109291446.202       -1704.136          38.000  
E34  25695998.772   135033381.387       -1250.777          43.000    25696032.640   103467287.472        -958.243          43.000  
G30  25530489.776   134163623.230        -611.468          31.000                                                                  
E15  24841264.664   130541705.656         130.141          44.000    24841294.278   100025615.822         100.080          39.000  
> 2025 04 04 11 17 54.0010000  0 23                     
G25  24534305.084   128928641.389       -2503.862          30.000    24534341.685   100464035.533       -1951.951          32.000  
G11  22702623.848   119303096.384       -1755.383          40.000    22702646.107    92963538.686       -1367.765          42.000  
G06  24785848.689   130250481.408       -2584.487          35.000    24785881.375   101494021.248       -2013.579          33.000  
G05  21467376.399   112811832.494       -1751.614          44.000    21467393.757    87905387.311       -1364.703          33.000  
E05  25923847.971   136230772.834       -3179.732          32.000    25923884.630   104384749.902       -2436.628          27.000  
G13  20422045.427   107318591.817         -36.318          46.000                                                                  
R21  20128167.389   107709901.474          92.226          48.000    20128187.020    83774471.405          71.530          38.000  
R06  20548082.238   109648452.337       -3580.788          37.000                                                                  
R07  19645931.953   105166226.996        -163.339          48.000    19645950.444    81796054.904        -126.943          45.000  
R22  22450573.746   119842713.885        2469.340          44.000    22450593.612    93211078.435        1920.336          39.000  
G12  24619255.827   129375059.340       -3149.744          36.000    24619276.848   100811776.454       -2453.742          28.000  
G15  21395673.442   112435052.461        1815.136          46.000    21395690.544    87611841.118        1414.370          39.000  
G29  22250099.456   116925090.359        1572.636          42.000    22250119.685    91110521.452        1225.202          38.000  
G20  22749606.690   119549941.8692      -2450.249          31.000                                                                  
R08  22693957.902   121525089.324        2666.501          46.000    22693983.744    94519565.605        2074.114          41.000  
R20  22245020.922   118954108.766       -2814.518          30.000    22245049.261    92519949.557       -2188.702          37.000  
E03  24089792.399   126592883.512       -1115.351          46.000    24089821.627    96999738.973        -854.696          40.000  
E08  24854522.832   130611404.644        1396.604          45.000    24854552.299   100079015.972        1070.089          43.000  
E30  27747290.759   145813051.850       -2946.594          28.000    27747340.065                       -2258.279          25.000  
E27  27142844.244   142636603.555       -2224.008          41.000    27142886.998   109293150.400       -1704.290          38.000  
E34  25696236.705   135034631.807       -1250.268          42.000    25696270.742   103468245.598        -957.931          43.000  
G30  25530606.304   134164235.583        -611.729          31.000                                                                  
E15  24841239.614   130541575.041         130.886          45.000    24841269.243   100025515.732         100.546          39.000  
> 2025 04 04 11 17 55.0010000  0 23                     
G25  24534781.588   128931145.363       -2503.359          30.000    24534818.134   100465986.688       -1951.108          31.000  
G11  22702957.915   119304851.579       -1755.464          44.000    22702980.081    92964906.332       -1367.749          42.000  
G06  24786340.787   130253066.305       -2585.438          32.000    24786373.250   101496035.415       -2013.939          32.000  
G05  21467709.661   112813584.137       -1751.903          46.000    21467727.092    87906752.186       -1364.591          34.000  
E05  25924452.950   136233952.569       -3180.258          32.000    25924489.826   104387186.246       -2436.472          27.000  
G13  20422052.402   107318628.310         -37.141          46.000                                                                  
R21  20128150.178   107709809.381          91.671          47.000    20128169.745    83774399.759          71.767          38.000  
R06  20548753.285   109652032.786       -3580.820          37.000                                                                  
R07  19645962.566   105166390.631        -164.253          48.000    19645981.057    81796182.165        -127.659          45.000  
R22  22450111.099   119840244.821        2469.092          45.000    22450131.096    93209158.109        1920.280          37.000  
G12  24619855.251   129378208.639       -3149.271          35.000    24619876.207   100814230.485       -2454.005          28.000  
G15  21395328.038   112433237.392        1814.685          46.000    21395345.054    87610426.780        1413.869          39.000  
G29  22249800.207   116923517.707        1572.290          41.000    22249820.248    91109296.014        1225.383          38.000  
G20  22750071.686   119552391.0592      -2450.032          24.000                                                                  
R08  22693459.804   121522422.746        2666.171          46.000    22693485.694    94517491.595        2073.860          40.000  
R20  22245547.028   118956923.044       -2814.420          31.000    22245575.589    92522138.435       -2189.004          38.000  
E03  24090004.400   126593998.800       -1115.502          45.000    24090033.773    97000593.538        -854.805          41.000  
E08  24854256.891   130610008.114        1396.299          44.000    24854286.508   100077945.893        1069.820          43.000  
E30  27747851.326   145815998.102       -2946.914          27.000    27747902.116                       -2257.927          25.000  
E27  27143267.343   142638827.532       -2224.254          41.000    27143310.238   109294854.452       -1704.449          37.000  
E34  25696474.515   135035881.948       -1250.098          43.000    25696508.641   103469203.468        -957.921          43.000  
G30  25530722.890   134164848.000        -612.499          31.000                                                                  
E15  24841214.583   130541444.070         131.087          45.000    24841244.266   100025415.465          99.752          37.000  
> 2025 04 04 11 17 56.0010000  0 23                     
G25  24535258.174   128933649.902       -2504.712          30.000    24535294.620   100467938.238       -1952.144          31.000  
G11  22703291.958   119306607.389       -1756.225          44.000    22703314.140    92966274.518       -1368.448          41.000  
G06  24786832.792   130255651.702       -2586.001          34.000    24786865.182   101498050.038       -2015.220          32.000  
G05  21468043.071   112815336.236       -1752.044          46.000    21468060.573    87908117.450       -1364.934          35.000  
E05  25925057.688   136237132.811       -3180.963          32.000    25925095.011   104389623.137       -2437.718          27.000  
G13  20422059.605   107318665.846         -38.189          46.000                                                                  
R21  20128133.177   107709718.150          90.660          47.000    20128152.684    83774328.800          70.706          38.000  
R06  20549424.356   109655613.999       -3581.354          37.000                                                                  
R07  19645993.340   105166555.405        -165.399          48.000    19646011.745    81796310.321        -128.562          45.000  
R22  22449648.552   119837776.055        2468.772          44.000    22449668.743    93207237.968        1919.680          37.000  
G12  24620454.471   129381358.189       -3149.982          35.000    24620475.468   100816684.630       -2454.768          27.000  
G15  21394982.752   112431423.130        1813.929          45.000    21394999.933    87609013.060        1413.573          39.000  
G29  22249501.152   116921945.864        1571.459          42.000    22249521.174    91108071.215        1224.345          38.000  
G20  22750540.807   119554840.738       -2450.976          30.000                                                                  
R08  22692961.944   121519756.968        2665.393          45.000    22692987.869    94515418.179        2073.074          40.000  
R20  22246073.339   118959738.271       -2816.659          33.000    22246101.994    92524328.049       -2190.012          38.000  
E03  24090216.853   126595114.910       -1116.486          45.000    24090246.242    97001448.735        -855.515          40.000  
E08  24853991.141   130608612.205        1395.737          44.000    24854020.926   100076876.314        1069.373          43.000  
E30  27748411.760   145818944.482       -2946.310          27.000    27748464.452                       -2257.445          26.000  
E27  27143690.799   142641052.006       -2224.847          41.000    27143733.543   109296558.934       -1705.021          37.000  
E34  25696712.466   135037132.599       -1250.987          42.000    25696746.610   103470161.760        -958.650          40.000  
G30  25530839.478   134165461.106        -614.048          32.000                                                                  
E15  24841189.682   130541313.460         130.439          44.000    24841219.491   100025315.382          99.914          37.000  
> 2025 04 04 11 17 57.0010000  0 22                     
G25  24535734.955   128936155.126       -2506.043          29.000    24535771.283   100469890.390       -1953.397          31.000  
G11  22703626.312   119308364.163       -1757.277          44.000    22703648.516    92967643.425       -1369.175          41.000  
G06  24787325.088   130258237.956       -2587.059          32.000    24787357.292   101500065.279       -2015.792          31.000  
G05  21468376.704   112817089.181       -1753.631          45.000    21468394.111    87909483.401       -1366.431          35.000  
E05  25925662.951   136240313.963       -3182.084          32.000    25925700.357   104392060.581       -2437.580          28.000  
G13  20422066.935   107318704.734         -39.815          45.000                                                                  
R21  20128116.289   107709628.114          89.187          46.000    20128135.794    83774258.797          69.664          38.000  
R06  20550095.784   109659196.417       -3583.062          37.000                                                                  
R07  19646024.399   105166721.628        -167.180          49.000    19646042.832    81796439.644        -130.276          45.000  
R22  22449186.134   119835307.982        2467.243          45.000    22449206.362    93205318.350        1919.377          38.000  
G12  24621053.943   129384508.258       -3150.702          35.000    24621074.863   100819139.173       -2454.514          26.000  
G15  21394637.804   112429609.955        1812.373          46.000    21394655.076    87607600.241        1412.384          39.000  
G29  22249202.285   116920375.186        1569.722          40.000    22249222.195    91106847.292        1223.386          37.000  
R08  22692464.272   121517092.263        2663.840          45.000    22692490.334    94513345.642        2072.147          39.000  
R20  22246600.034   118962554.613       -2816.813          32.000    22246628.688    92526518.553       -2191.102          39.000  
E03  24090429.452   126596232.128       -1117.921          45.000    24090458.785    97002304.768        -856.478          40.000  
E08  24853725.743   130607217.270        1394.129          43.000    24853755.551   100075807.463        1068.405          43.000  
E30  27748972.048   145821891.542       -2947.622          27.000    27749024.692                       -2259.009          26.000  
E27  27144114.343   142643277.339       -2225.814          43.000    27144156.875   109298264.080       -1706.207          37.000  
E34  25696950.329   135038384.058       -1252.049          43.000    25696984.944   103471120.658        -959.280          41.000  
G30  25530956.323   134166075.193        -615.184          33.000                                                                  
E15  24841164.775   130541183.509         129.440          44.000    24841194.678   100025215.811          98.854          37.000  
> 2025 04 04 11 17 58.0010000  0 23                     
G25  24536211.904   128938661.504       -2506.739          30.000    24536248.252   100471843.375       -1953.271          31.000  
G11  22703960.851   119310122.192       -1758.760          43.000    22703982.973    92969013.343       -1370.156          41.000  
G06  24787817.755   130260825.534       -2588.577          31.000    24787849.629   101502081.635       -2017.227          29.000  
G05  21468710.575   112818843.324       -1754.875          45.000    21468727.875    87910850.225       -1367.014          35.000  
E05  25926269.091   136243496.419       -3183.366          33.000    25926305.871   104394499.146       -2439.164          27.000  
G13  20422074.817   107318745.361         -41.393          46.000                                                                  
R21  20128099.705   107709539.681          87.575          47.000    20128119.311    83774190.019          68.127          39.000  
R06  20550767.435   109662780.356       -3584.470          37.000                                                                  
R07  19646055.783   105166889.797        -169.154          48.000    19646074.257    81796570.401        -131.456          45.000  
R22  22448723.943   119832840.968        2466.479          44.000    22448744.159    93203399.584        1918.091          39.000  
G12  24621653.627   129387659.330       -3151.801          36.000    24621674.311   100821594.611       -2455.665          25.000  
G15  21394292.991   112427798.335        1810.999          46.000    21394310.446    87606188.605        1411.075          39.000  
G29  22248903.726   116918805.967        1568.556          42.000    22248923.494    91105624.581        1221.896          38.000  
G20  22751473.844   119559801.4301      -2451.916          26.000                                                                  
R08  22691966.862   121514429.070        2662.463          45.000    22691992.933    94511274.275        2070.444          39.000  
R20  22247126.861   118965372.512       -2818.863          31.000    22247155.698    92528710.271       -2192.126          39.000  
E03  24090642.389   126597350.863       -1119.494          45.000    24090671.916    97003162.014        -857.766          40.000  
E08  24853460.796   130605823.714        1392.746          43.000    24853490.280   100074739.721        1067.119          43.000  
E30  27749532.314   145824839.543       -2949.050          27.000    27749585.542                       -2258.745          26.000  
E27  27144538.102   142645503.963       -2227.151          41.000    27144580.607   109299970.202       -1706.852          37.000  
E34  25697188.723   135039636.709       -1253.476          43.000    25697223.560   103472080.495        -960.405          40.000  
G30  25531073.800   134166690.610        -615.939          33.000                                                                  
E15  24841140.348   130541054.612         128.314          44.000    24841170.047   100025117.058          98.347          38.000  
> 2025 04 04 11 17 59.0010000  0 23                     
G25  24536689.335   128941169.264       -2508.173          30.000    24536725.371   100473797.465       -1954.487          30.000  
G11  22704295.715   119311881.682       -1760.127          40.000    22704317.731    92970384.422       -1371.512          41.000  
G06  24788310.483   130263414.496       -2590.331          31.000    24788342.416   101504098.987       -2018.011          28.000  
G05  21469044.616   112820598.816       -1755.949          45.000    21469061.987    87912218.170       -1367.889          35.000  
E05  25926874.996   136246680.316       -3184.833          32.000    25926911.594   104396938.723       -2439.784          27.000  
G13  20422082.932   107318787.890         -43.353          45.000                                                                  
R21  20128083.414   107709452.950          86.117          48.000    20128103.187    83774122.616          66.762          38.000  
R06  20551439.298   109666366.033       -3586.843          37.000                                                                  
R07  19646087.563   105167059.953        -171.032          48.000    19646105.942    81796702.764        -132.830          45.000  
R22  22448261.904   119830375.175        2465.290          44.000    22448282.200    93201481.734        1917.654          39.000  
G12  24622253.549   129390811.494       -3152.748          36.000    24622274.254   100824050.830       -2455.946          25.000  
G15  21393948.447   112425988.383        1809.416          46.000    21393966.022    87604778.230        1410.188          39.000  
G29  22248605.548   116917238.491        1566.845          41.000    22248625.045    91104403.161        1220.815          38.000  
G20  22751940.102   119562253.905       -2452.724          27.000                                                                  
R08  22691469.848   121511767.537        2660.864          45.000    22691495.876    94509204.221        2069.325          39.000  
R20  22247653.960   118968192.253       -2820.948          32.000    22247683.004    92530903.362       -2193.692          41.000  
E03  24090855.770   126598471.272       -1121.217          45.000    24090885.027    97004020.538        -859.372          41.000  
E08  24853195.826   130604431.627        1391.423          43.000    24853225.376   100073673.052        1066.247          42.000  
E30  27750092.411   145827788.535       -2948.915          26.000    27750149.581                       -2257.344          26.000  
E27  27144962.161   142647731.985       -2228.561          42.000    27145004.621   109301677.379       -1707.814          37.000  
E34  25697427.517   135040890.624       -1254.569          43.000    25697462.205   103473041.328        -961.300          38.000  
G30  25531191.267   134167307.709        -618.528          32.000                                                                  
E15  24841116.089   130540926.903         127.303          44.000    24841145.894   100025019.196          97.546          38.000  
> 2025 04 04 11 18 00.0010000  0 23                     
G25  24537166.740   128943677.902       -2509.725          29.000    24537202.598   100475752.210       -1954.586          30.000  
G11  22704630.682   119313642.253       -1761.182          43.000    22704652.783    92971756.248       -1372.586          42.000  
G06  24788803.591   130266004.509       -2591.473          32.000    24788835.163   101506117.221       -2018.528          27.000  
G05  21469378.910   112822355.242       -1757.077          45.000    21469396.290    87913586.803       -1369.411          34.000  
E05  25927481.416   136249865.192       -3185.356          32.000    25927517.512   104399379.096       -2440.565          27.000  
G13  20422091.331   107318831.882         -45.039          45.000                                                                  
R21  20128067.448   107709367.574          84.603          47.000    20128087.119    83774056.156          65.762          38.000  
R06  20552111.552   109669952.944       -3587.551          37.000                                                                  
R07  19646119.562   105167231.688        -172.689          48.000    19646138.048    81796836.340        -134.215          45.000  
R22  22447800.140   119827910.167        2464.191          45.000    22447820.418    93199564.499        1916.880          38.000  
G12  24622853.548   129393964.335       -3153.040          36.000    24622874.464   100826507.608       -2457.231          26.000  
G15  21393604.232   112424179.645        1807.880          46.000    21393621.868    87603368.850        1408.755          38.000  
G29  22248307.606   116915672.279        1565.075          41.000    22248326.895    91103182.721        1220.367          38.000  
G20  22752407.595   119564707.233       -2453.967          28.000                                                                  
R08  22690973.023   121509107.261        2659.435          45.000    22690999.166    94507135.107        2068.698          40.000  
R20  22248181.382   118971013.165       -2820.778          27.000    22248210.647    92533097.519       -2194.855          40.000  
E03  24091069.253   126599592.952       -1122.548          45.000    24091098.543    97004879.961        -860.119          41.000  
E08  24852931.113   130603040.644        1390.166          43.000    24852960.875   100072607.242        1065.177          42.000  
E30  27750653.497   145830738.265       -2950.266          26.000    27750709.858                       -2260.898          26.000  
E27  27145386.323   142649961.026       -2229.997          41.000    27145428.542   109303385.293       -1708.595          37.000  
E34  25697666.452   135042145.527       -1255.745          44.000    25697701.152   103474002.846        -961.850          41.000  
G30  25531309.129   134167925.903        -618.932          31.000                                                                  
E15  24841091.960   130540799.972         126.336          44.000    24841121.737   100024921.957          96.854          38.000  
> 2025 04 04 11 18 01.0010000  0 23                     
G25  24537644.187   128946187.399       -2509.392          30.000    24537679.793   100477707.803       -1955.927          30.000  
G11  22704965.954   119315404.017       -1762.131          44.000    22704988.022    92973129.040       -1373.081          44.000  
G06  24789296.808   130268595.694       -2592.211          31.000    24789328.193   101508136.274       -2019.493          28.000  
G05  21469713.432   112824112.750       -1757.862          46.000    21469730.722    87914956.344       -1370.121          34.000  
E05  25928088.006   136253051.293       -3186.672          32.000    25928123.812   104401820.438       -2441.713          27.000  
G13  20422099.909   107318877.496         -46.352          46.000                                                                  
R21  20128051.769   107709283.614          83.178          47.000    20128071.458    83773990.886          64.702          35.000  
R06  20552783.869   109673541.272       -3588.406          37.000                                                                  
R07  19646151.905   105167405.174        -174.232          49.000    19646170.433    81796971.283        -135.597          45.000  
R22  22447338.559   119825446.092        2463.507          45.000    22447358.774    93197647.992        1916.321          39.000  
G12  24623453.628   129397118.037       -3154.236          35.000    24623474.580   100828965.038       -2457.755          26.000  
G15  21393260.284   112422372.294        1806.794          46.000    21393277.949    87601960.537        1407.887          38.000  
G29  22248009.677   116914107.421        1564.419          41.000    22248029.085    91101963.390        1219.057          37.000  
G20  22752873.713   119567161.355       -2454.392          30.000                                                                  
R08  22690476.387   121506448.365        2658.281          45.000    22690502.519    94505067.084        2067.597          40.000  
R20  22248708.938                       -2824.557          25.000    22248738.411    92535292.784       -2195.495          38.000  
E03  24091282.751   126600715.969       -1123.726          46.000    24091312.155    97005740.471        -860.884          41.000  
E08  24852666.422   130601650.915        1389.141          43.000    24852696.574   100071542.380        1064.388          42.000  
E30  27751214.718   145833688.773       -2950.317          27.000    27751271.559                       -2261.212          26.000  
E27  27145810.444   142652191.124       -2230.684          41.000    27145852.834   109305094.119       -1709.258          37.000  
E34  25697905.410   135043401.471       -1256.440          43.000    25697939.990   103474965.210        -962.563          42.000  
G30  25531427.155   134168545.325        -619.836          30.000                                                                  
E15  24841068.161   130540673.971         125.544          44.000    24841097.856   100024825.408          96.198          38.000  
> 2025 04 04 11 18 02.0010000  0 23                     
G25  24538122.098   128948697.540       -2511.029          30.000    24538157.024   100479663.688       -1956.094          29.000  
G11  22705301.183   119317166.310       -1762.482          44.000    22705323.354    92974502.276       -1373.479          44.000  
G06  24789790.257   130271187.356       -2591.586          32.000    24789821.369   101510155.841       -2020.282          29.000  
G05  21470047.984   112825870.761       -1757.974          46.000    21470065.318    87916326.204       -1370.088          34.000  
E05  25928694.420   136256237.919       -3186.719          32.000    25928730.171   104404262.162       -2442.074          28.000  
G13  20422108.778   107318924.133         -47.044          46.000                                                                  
R21  20128036.247   107709200.580          82.717          47.000    20128055.832    83773926.317          64.425          36.000  
R06  20553456.532   109677130.446       -3589.396          38.000                                                                  
R07  19646184.510   105167579.816        -175.097          49.000    19646203.034    81797107.114        -136.196          45.000  
R22  22446876.981   119822982.321        2463.803          45.000    22446897.252    93195731.760        1916.352          39.000  
G12  24624053.679   129400271.934       -3154.034          35.000    24624074.794   100831422.638       -2457.737          26.000  
G15  21392916.471   112420565.748        1806.235          46.000    21392934.098    87600552.847        1407.303          39.000  
G29  22247711.972   116912543.412        1563.767          41.000    22247731.405    91100744.652        1218.649          38.000  
G20  22753340.649   119569615.811       -2453.822          32.000                                                                  
R08  22689980.080   121503790.247        2657.659          45.000    22690006.108    94502999.648        2067.229          40.000  
R20  22249237.479                       -2823.176          25.000    22249266.478    92537488.745       -2196.483          38.000  
E03  24091496.509   126601839.790       -1123.967          46.000    24091525.893    97006601.584        -861.048          41.000  
E08  24852401.900   130600261.784        1389.043          42.000    24852432.134   100070477.995        1064.202          42.000  
E30  27751776.295   145836639.521       -2950.725          28.000    27751834.917                       -2261.380          26.000  
E27  27146234.887   142654421.798       -2230.698          41.000    27146277.385   109306803.303       -1709.037          36.000  
E34  25698144.462   135044657.849       -1256.331          43.000    25698178.911   103475927.899        -962.811          42.000  
G30  25531545.502   134169165.510        -620.010          30.000                                                                  
E15  24841044.259   130540548.298         125.693          45.000    24841074.046   100024729.107          96.298          38.000  
> 2025 04 04 11 18 03.0010000  0 23                     
G25  24538599.774   128951207.512       -2509.534          31.000    24538634.265   100481619.561       -1955.950          29.000  
G11  22705636.523   119318928.662       -1762.444          44.000    22705658.719    92975875.539       -1373.308          43.000  
G06  24790283.542   130273779.065       -2591.896          32.000    24790314.703   101512175.297       -2019.584          29.000  
G05  21470382.487   112827628.701       -1757.850          46.000    21470399.827    87917696.041       -1370.208          34.000  
E05  25929300.753   136259424.640       -3187.585          32.000    25929336.584   104406703.923       -2441.825          28.000  
G13  20422117.679   107318971.250         -47.487          46.000                                                                  
R21  20128020.876   107709117.887          82.571          46.000    20128040.413    83773862.007          64.269          36.000  
R06  20554129.179   109680719.854       -3589.366          38.000                                                                  
R07  19646217.171   105167755.058        -175.614          48.000    19646235.771    81797243.419        -136.530          45.000  
R22  22446415.386   119820518.371        2463.979          45.000    22446435.749    93193815.368        1916.269          39.000  
G12  24624653.828   129403425.548       -3153.248          34.000    24624674.688   100833879.992       -2457.275          26.000  
G15  21392572.717   112418759.453        1806.051          46.000    21392590.359    87599145.336        1407.226          39.000  
G29  22247414.394   116910979.671        1563.336          41.000    22247433.826    91099526.166        1218.316          37.000  
G20  22753807.825   119572070.110       -2454.870          32.000                                                                  
R08  22689483.760   121501132.333        2657.758          45.000    22689509.768    94500932.393        2066.993          40.000  
R20  22249764.861                       -2823.779          26.000    22249794.634    92539684.928       -2196.593          38.000  
E03  24091710.562   126602963.896       -1124.436          46.000    24091739.883    97007462.921        -861.529          41.000  
E08  24852137.509   130598872.778        1388.811          42.000    24852167.615   100069413.685        1064.088          42.000  
E30  27752338.016   145839589.961       -2950.629          28.000    27752396.290                       -2260.449          25.000  
E27  27146659.510   142656652.471       -2230.922          41.000    27146701.843   109308512.542       -1709.247          36.000  
E34  25698383.490   135045914.169       -1256.380          43.000    25698417.997   103476890.536        -962.938          42.000  
G30  25531663.574   134169785.774        -619.688          30.000                                                                  
E15  24841020.422   130540422.422         125.741          45.000    24841050.165   100024632.665          96.422          39.000  
