     3.04           OBSERVATION DATA    M: Mixed            RINEX VERSION / TYPE
RTKCONV demo5 b34i                      20250404 113136 UTC PGM / RUN BY / DATE 
format: u-blox UBX                                          COMMENT             
log: D:\20242\demo5_b34i\data\HoDenLu\rieng\d1\hdl2_1m.ubx  COMMENT             
                                                            MARKER NAME         
                                                            MARKER NUMBER       
                                                            MARKER TYPE         
                                                            OBSERVER / AGENCY   
                                                            REC # / TYPE / VERS 
                                                            ANT # / TYPE        
 -1627733.3797  5730984.5172  2269818.9116                  APPROX POSITION XYZ 
        0.0000        0.0000        0.0000                  ANTENNA: DELTA H/E/N
G    8 C1C L1C D1C S1C C2X L2X D2X S2X                      SYS / # / OBS TYPES 
  2025    04    04    11    16   27.0050000     GPS         TIME OF FIRST OBS   
  2025    04    04    11    31   28.0060000     GPS         TIME OF LAST OBS    
G L1C                                                       SYS / PHASE SHIFT   
G L2X  0.00000                                              SYS / PHASE SHIFT   
  0                                                         GLONASS SLOT / FRQ #
 C1C    0.000 C1P    0.000 C2C    0.000 C2P    0.000        GLONASS COD/PHS/BIS 
                                                            END OF HEADER       
> 2025 04 04 11 16 27.0050000  0 11                     
G05  22846858.444   120061091.9141      -2212.279          46.000    22846858.279    93554087.4361      -1723.855          40.000  
G06  26151587.834   137427592.0061      -3040.213          34.000    26151603.343   107086456.7291      -2368.077          25.000  
G11  24082118.178   126552378.3111      -2208.252          33.000    24082118.590    98612258.4281      -1720.190          36.000  
G20  24117401.641   126737806.3551      -2926.148          37.000                                                                  
G13  21830309.806   114719036.5161       -450.879          46.000                                                                  
G30  26929097.577                       -1053.828          24.000                                                                  
G15  22834420.770   119995716.6751       1380.427          46.000    22834423.260    93503172.2121       1075.328          37.000  
G25  25901301.731   136112271.4441      -2968.049          33.000    25901304.208                       -2313.347          25.000  
G23  26730648.159                         718.478          25.000                                                                  
G29  23684846.695   124464725.4151       1139.238          45.000    23684847.786    96985499.8931        887.873          37.000  
G12                                                                  25975420.378   106364993.7261      -2829.605          27.000  
> 2025 04 04 11 16 28.0050000  0 10                     
G05  22847279.409   120063304.044       -2212.028          46.000    22847279.215    93555811.191       -1723.502          40.000  
G06  26152166.164   137430631.477       -3039.531          35.000    26152181.818   107088825.212       -2368.548          24.000  
G11  24082537.982   126554585.844       -2207.563          33.000    24082538.703    98613978.671       -1720.658          36.000  
G20  24117958.532   126740732.456       -2926.097          36.000                                                                  
G13  21830395.556   114719487.387        -451.180          46.000                                                                  
G30  26929298.590                       -1058.908          23.000                                                                  
G15  22834158.058   119994336.221        1380.238          46.000    22834160.571    93502096.516        1075.099          37.000  
G25  25901866.621   136115239.707       -2968.354          33.000    25901870.697                       -2313.085          25.000  
G29  23684629.868   124463586.098        1139.073          45.000    23684630.889    96984612.121         887.427          38.000  
G12                                                                  25976112.285   106367823.274       -2829.543          28.000  
> 2025 04 04 11 16 29.0050000  0 11                     
G05  22847700.438   120065516.420       -2212.495          48.000    22847700.231    93557535.123       -1724.404          40.000  
G06  26152744.570   137433671.272       -3040.230          38.000    26152760.254   107091193.829       -2368.890          31.000  
G12  25976808.401   136509049.0473      -3632.396          26.000    25976804.617   106370652.869       -2830.592          28.000  
G11  24082958.943   126556803.3503      -2208.238          29.000    24082958.928    98615699.224       -1720.322          34.000  
G20  24118515.363   126743658.555       -2926.300          38.000                                                                  
G13  21830481.442   114719939.000        -452.116          44.000                                                                  
G30  26929498.621                       -1057.763          23.000                                                                  
G15  22833895.488   119992956.307        1379.614          45.000    22833897.940    93501021.274        1074.681          36.000  
G25  25902431.403   136118208.142       -2968.512          33.000    25902435.458                       -2313.335          25.000  
G23  26729369.804                         714.656          22.000                                                                  
G29  23684413.219   124462447.308        1138.631          45.000    23684414.225    96983724.751         887.090          39.000  
> 2025 04 04 11 16 30.0050000  0 10                     
G05  22848121.503   120067729.149       -2212.993          48.000    22848121.221    93559259.334       -1724.402          39.000  
G06  26153322.931   137436711.437       -3039.580          37.000    26153338.812   107093562.820       -2368.963          30.000  
G11  24083379.280   126559011.9352      -2208.536          29.000    24083379.100    98617419.990       -1721.671          31.000  
G20  24119072.187   126746584.824       -2926.496          39.000                                                                  
G13  21830567.660   114720391.511        -453.033          44.000                                                                  
G30  26929698.511   141516520.3533      -1056.877          26.000                                                                  
G15  22833633.028   119991577.026        1378.808          45.000    22833635.440    93499946.528        1074.377          37.000  
G25  25902996.229   136121176.850       -2968.418          32.000    25903001.532                       -2313.511          25.000  
G29  23684196.722   124461309.216        1137.550          46.000    23684197.612    96982837.944         886.613          39.000  
G12                                                                  25977497.128   106373482.457       -2830.099          28.000  
> 2025 04 04 11 16 31.0050000  0 10                     
G05  22848542.572   120069942.127       -2213.546          48.000    22848542.345    93560983.752       -1725.173          39.000  
G06  26153901.520   137439751.946       -3040.925          37.000    26153917.434   107095932.076       -2369.588          29.000  
G20  24119629.049   126749511.153       -2926.722          40.000                                                                  
G13  21830654.041   114720844.824        -454.237          44.000                                                                  
G30  26929901.493   141517586.5292      -1057.622          27.000                                                                  
G15  22833370.686   119990198.288        1377.869          45.000    22833373.038    93498872.189        1073.818          37.000  
G25  25903561.365   136124145.827       -2969.534          33.000    25903565.186                       -2314.339          25.000  
G29  23683980.314   124460171.673        1136.678          46.000    23683981.188    96981951.534         886.314          38.000  
G12                                                                  25978189.361   106376312.130       -2830.021          28.000  
G11                                                                  24083799.275    98619141.082       -1721.742          32.000  
> 2025 04 04 11 16 32.0050000  0 10                     
G05  22848963.711   120072155.547       -2213.441          47.000    22848963.517    93562708.500       -1724.837          40.000  
G06  26154480.246   137442792.960       -3041.424          38.000    26154496.138   107098301.725       -2369.323          33.000  
G12  25978873.533   136519901.8343      -3631.262          32.000    25978881.327   106379141.896       -2829.448          29.000  
G11  24084224.580                       -2207.648          31.000    24084219.647    98620862.475       -1721.690          36.000  
G20  24120185.898   126752437.785       -2926.534          38.000                                                                  
G13  21830740.434   114721299.067        -454.412          45.000                                                                  
G30  26930106.498   141518644.4622      -1057.993          29.000                                                                  
G15  22833108.538   119988820.268        1378.076          46.000    22833110.870    93497798.387        1073.373          36.000  
G25  25904126.438   136127115.126       -2968.547          33.000    25904129.819                       -2314.783          25.000  
G29  23683764.027   124459034.859        1136.754          45.000    23683764.976    96981065.731         885.519          38.000  
> 2025 04 04 11 16 33.0050000  0 10                     
G05  22849384.911   120074369.179       -2213.618          46.000    22849384.791    93564433.395       -1724.747          40.000  
G06  26155058.919   137445834.169       -3040.717          36.000    26155074.930   107100671.455       -2369.718          32.000  
G12  25979567.275   136523547.3332      -3632.054          30.000    25979574.771   106381971.615       -2828.516          29.000  
G20  24120742.782   126755364.277       -2926.424          41.000                                                                  
G13  21830827.032   114721754.099        -454.978          40.000                                                                  
G30  26930308.218   141519702.6362      -1058.293          28.000                                                                  
G15  22832846.467   119987442.757        1377.623          46.000    22832848.652    93496724.973        1073.414          36.000  
G25  25904691.727   136130084.664       -2969.019          34.000    25904694.708                       -2312.978          24.000  
G29  23683547.859   124457898.535        1136.407          45.000    23683548.670    96980180.330         885.411          39.000  
G11                                                                  24084640.173    98622584.220       -1721.511          36.000  
> 2025 04 04 11 16 34.0050000  0 10                     
G05  22849806.133   120076582.611       -2213.490          45.000    22849806.041    93566158.165       -1725.078          40.000  
G06  26155637.451   137448875.412       -3041.657          33.000    26155653.786   107103041.250       -2369.959          34.000  
G12  25980258.581   136527179.4093      -3631.749          29.000    25980265.412   106384801.082       -2829.188          29.000  
G20  24121299.644   126758290.508       -2926.362          40.000                                                                  
G13  21830913.646   114722209.448        -455.842          41.000                                                                  
G30  26930511.656   141520760.9592      -1058.412          29.000                                                                  
G15  22832584.470   119986065.362        1377.090          46.000    22832586.446    93495651.672        1073.043          36.000  
G25  25905256.994   136133053.951       -2969.432          34.000    25905260.416                       -2312.059          24.000  
G29  23683331.708   124456762.377        1135.747          45.000    23683332.509    96979294.992         884.871          39.000  
G11                                                                  24085060.539    98624305.804       -1721.681          35.000  
> 2025 04 04 11 16 35.0050000  0 10                     
G05  22850227.403   120078796.166       -2213.585          46.000    22850227.255    93567883.014       -1724.954          40.000  
G06  26156216.223   137451916.625       -3040.882          36.000    26156232.532   107105411.097       -2369.607          34.000  
G12  25980953.373   136530831.3403      -3630.494          29.000    25980955.999   106387671.4591      -2829.615          29.000  
G11  24085486.883                       -2208.578          27.000    24085481.025    98626027.598       -1722.077          36.000  
G20  24121856.397   126761216.653       -2926.179          42.000                                                                  
G13  21831000.510   114722665.342        -455.993          41.000                                                                  
G30  26930711.918   141521819.4642      -1058.760          28.000                                                                  
G15  22832322.456   119984688.322        1376.888          46.000    22832324.440    93494578.712        1072.564          37.000  
G25  25905822.207   136136023.318       -2968.983          35.000    25905825.631                       -2313.076          25.000  
G29  23683115.510   124455626.601        1135.763          46.000    23683116.429    96978409.988         884.758          39.000  
> 2025 04 04 11 16 36.0050000  0 10                     
G05  22850648.584   120081009.521       -2213.289          47.000    22850648.428    93569607.708       -1724.812          39.000  
G06  26156794.865   137454957.825       -3041.023          37.000    26156811.357   107107780.904       -2369.445          34.000  
G12  25981645.480   136534467.8492      -3630.011          30.000    25981646.270   106390500.371       -2828.272          29.000  
G11  24085902.169   126572269.7393      -2209.531          33.000    24085901.527    98627749.264       -1721.191          36.000  
G20  24122413.146   126764142.421       -2925.508          41.000                                                                  
G13  21831087.225   114723121.637        -456.434          43.000                                                                  
G30  26930913.372   141522877.9762      -1058.459          26.000                                                                  
G15  22832060.512   119983311.404        1376.744          46.000    22832062.408    93493505.763        1072.787          35.000  
G25  25906387.391   136138992.442       -2969.070          35.000    25906390.893                       -2313.829          24.000  
G29  23682899.415   124454490.951        1135.732          46.000    23682900.284    96977525.062         884.719          38.000  
> 2025 04 04 11 16 37.0050000  0 10                     
G05  22851069.658   120083222.623       -2213.185          46.000    22851069.547    93571332.225       -1724.531          39.000  
G06  26157373.499   137457998.864       -3041.248          39.000    26157389.961   107110150.548       -2370.434          33.000  
G12  25982337.573   136538104.8112      -3629.505          29.000    25982337.991   106393328.926       -2827.570          29.000  
G11  24086316.391   126574479.0162      -2208.781          34.000    24086322.007    98629470.866       -1721.691          37.000  
G20  24122969.701   126767067.712       -2924.970          40.000                                                                  
G13  21831174.011   114723578.251        -456.957          40.000                                                                  
G30  26931115.379   141523935.9961      -1058.649          27.000                                                                  
G15  22831798.603   119981934.521        1376.757          45.000    22831800.466    93492432.887        1072.810          37.000  
G25  25906952.401   136141961.255       -2968.784          34.000    25906955.167                       -2313.541          24.000  
G29  23682683.421   124453355.360        1135.191          47.000    23682684.190    96976640.174         884.968          39.000  
> 2025 04 04 11 16 38.0050000  0 10                     
G05  22851490.629   120085435.624       -2212.954          47.000    22851490.684    93573056.666       -1724.680          39.000  
G06  26157952.204   137461039.836       -3041.282          37.000    26157968.633   107112520.103       -2369.621          33.000  
G12  25983027.763   136541734.4022      -3629.263          28.000    25983029.347   106396157.251       -2828.079          29.000  
G11  24086738.594   126576687.8681      -2209.193          39.000    24086742.464    98631192.360       -1721.687          35.000  
G20  24123526.423   126769992.763       -2925.116          40.000                                                                  
G13  21831260.901   114724035.225        -457.695          41.000                                                                  
G30  26931315.848   141524994.697       -1058.949          28.000    26931347.184                        -824.828          24.000  
G15  22831536.597   119980557.832        1376.564          46.000    22831538.510    93491360.123        1071.996          37.000  
G25  25907517.686   136144929.984       -2968.651          34.000    25907520.650                       -2313.866          24.000  
G29  23682467.258   124452219.957        1135.135          46.000    23682468.137    96975755.451         884.599          38.000  
> 2025 04 04 11 16 39.0050000  0 10                     
G05  22851911.752   120087649.078       -2214.116          46.000    22851911.866    93574781.426       -1725.187          40.000  
G06  26158530.916   137464081.286       -3041.981          37.000    26158547.417   107114890.102       -2370.693          34.000  
G12  25983717.532   136545364.2802      -3629.852          28.000    25983723.429   106398985.726       -2828.641          29.000  
G11  24087160.002   126578897.825       -2210.771          38.000    24087163.008    98632914.411       -1723.041          36.000  
G20  24124083.164   126772918.069       -2925.982          37.000                                                                  
G13  21831347.959   114724493.186        -458.872          42.000                                                                  
G30  26931517.003   141526054.023       -1060.933          28.000    26931544.191   110280170.6851       -825.963          27.000  
G15  22831274.787   119979181.901        1375.144          46.000    22831276.741    93490287.974        1071.527          36.000  
G25  25908082.601   136147899.011       -2968.696          33.000    25908087.044                       -2318.635          23.000  
G29  23682251.312   124451085.314        1133.869          46.000    23682252.251    96974871.321         883.705          38.000  
> 2025 04 04 11 16 40.0050000  0 10                     
G05  22852332.981   120089863.191       -2214.202          46.000    22852333.150    93576506.720       -1725.430          39.000  
G06  26159109.755   137467123.489       -3042.320          36.000    26159126.393   107117260.619       -2370.855          35.000  
G12  25984407.139   136548994.5852      -3630.750          28.000    25984412.721   106401814.621       -2829.688          29.000  
G11  24087580.969   126581108.412       -2210.245          36.000    24087583.676    98634636.974       -1723.133          36.000  
G20  24124639.966   126775843.806       -2925.529          37.000                                                                  
G13  21831435.259   114724952.318        -459.405          43.000                                                                  
G30  26931718.608   141527114.093       -1060.000          26.000    26931740.356   110280996.572        -824.573          29.000  
G15  22831013.146   119977806.898        1374.874          46.000    22831015.088    93489216.578        1070.888          36.000  
G25  25908647.687   136150868.746       -2969.244          33.000    25908653.072                       -2312.754          24.000  
G29  23682035.604   124449951.631        1133.513          46.000    23682036.551    96973987.982         883.061          38.000  
> 2025 04 04 11 16 41.0050000  0 10                     
G05  22852754.240   120092077.283       -2213.871          45.000    22852754.429    93578231.962       -1724.894          40.000  
G06  26159688.633   137470165.700       -3041.128          36.000    26159705.151   107119631.244       -2370.008          35.000  
G12  25985096.481   136552624.4972      -3628.922          28.000    25985103.056   106404643.145       -2828.536          29.000  
G11  24088001.611   126583319.168       -2210.192          37.000    24088004.478    98636359.618       -1722.745          37.000  
G20  24125196.821   126778769.369       -2925.787          37.000                                                                  
G13  21831522.672   114725411.979        -459.592          42.000                                                                  
G30  26931920.275   141528174.286       -1060.070          26.000    26931938.257   110281822.865        -825.450          28.000  
G15  22830751.468   119976432.183        1374.906          46.000    22830753.475    93488145.326        1071.542          36.000  
G25  25909212.903   136153838.404       -2969.688          33.000    25909217.817                       -2310.984          24.000  
G29  23681819.998   124448818.283        1133.486          46.000    23681820.927    96973104.816         883.458          38.000  
> 2025 04 04 11 16 42.0050000  0 10                     
G05  22853175.655   120094291.314       -2214.255          46.000    22853175.747    93579957.176       -1725.267          40.000  
G06  26160267.567   137473208.036       -3043.050          33.000    26160283.802   107122001.849       -2370.978          36.000  
G12  25985787.323   136556254.2522      -3628.540          29.000    25985794.442   106407471.450       -2828.167          29.000  
G11  24088422.216   126585529.831       -2210.302          36.000    24088425.214    98638082.265       -1723.064          37.000  
G20  24125753.460   126781694.617       -2924.954          36.000                                                                  
G13  21831610.337   114725872.127        -460.526          41.000                                                                  
G30  26932121.474                       -1062.426          25.000    26932139.670   110282649.234        -826.221          28.000  
G15  22830490.005   119975057.674        1374.210          46.000    22830491.894    93487074.320        1070.797          36.000  
G25  25909778.210   136156807.891       -2969.807          33.000    25909783.778                       -2310.236          23.000  
G29  23681604.413   124447685.121        1133.048          46.000    23681605.386    96972221.876         882.833          38.000  
> 2025 04 04 11 16 43.0050000  0 10                     
G05  22853596.984   120096505.579       -2214.473          46.000    22853597.085    93581682.591       -1725.695          39.000  
G06  26160846.532   137476250.502       -3042.968          40.000    26160862.566   107124372.668       -2371.284          32.000  
G12  25986478.246   136559884.056       -3630.049          30.000    25986485.827   106410299.719       -2827.409          30.000  
G11  24088842.877   126587740.927       -2211.800          33.000    24088846.020    98639805.218       -1723.181          36.000  
G20  24126310.262   126784620.067       -2925.603          39.000                                                                  
G13  21831698.046   114726333.036        -461.155          41.000                                                                  
G30  26932321.868                       -1064.908          25.000    26932341.534   110283475.826        -827.634          27.000  
G15  22830228.629   119973683.755        1373.718          46.000    22830230.473    93486003.674        1070.647          37.000  
G25  25910343.441   136159777.699       -2970.140          33.000    25910350.692                       -2327.132          23.000  
G29  23681388.879   124446552.556        1132.271          46.000    23681389.897    96971339.351         882.274          40.000  
> 2025 04 04 11 16 44.0050000  0 10                     
G05  22854018.299   120098719.621       -2213.418          46.000    22854018.448    93583407.841       -1724.606          39.000  
G06  26161425.479   137479292.986       -3041.811          29.000    26161441.435   107126743.407       -2370.147          33.000  
G12  25987168.952   136563513.310       -3628.442          31.000    25987176.399   106413127.781       -2827.301          30.000  
G11  24089263.425   126589952.005       -2211.477          33.000    24089266.845    98641528.050       -1722.044          39.000  
G20  24126866.804   126787545.082       -2924.473          36.000                                                                  
G13  21831785.818   114726794.232        -460.982          41.000                                                                  
G30  26932522.195                       -1059.172          23.000    26932543.204   110284302.437        -825.802          27.000  
G15  22829967.328   119972309.901        1374.252          45.000    22829969.100    93484933.161        1070.834          37.000  
G25  25910908.599   136162747.142       -2968.472          33.000    25910915.572                       -2313.937          25.000  
G29  23681173.421   124445420.090        1132.670          46.000    23681174.414    96970456.906         883.091          40.000  
> 2025 04 04 11 16 45.0050000  0 10                     
G05  22854439.600   120100933.366       -2213.888          45.000    22854439.746    93585132.853       -1725.254          39.000  
G06  26162004.415   137482335.099       -3042.119          37.000    26162020.227   107129113.937       -2370.525          33.000  
G12  25987859.868   136567142.026       -3628.417          32.000    25987867.080   106415955.440       -2827.991          30.000  
G11  24089683.951   126592162.620       -2210.959          37.000    24089687.582    98643250.736       -1722.992          36.000  
G20  24127423.371   126790469.540       -2924.300          38.000                                                                  
G13  21831873.636   114727255.679        -461.849          43.000                                                                  
G30  26932727.248                       -1051.059          21.000    26932745.403   110285129.042        -827.276          26.000  
G15  22829705.908   119970935.987        1373.711          45.000    22829707.708    93483862.614        1070.283          36.000  
G25  25911473.948   136165716.320       -2969.631          33.000    25911481.145   106103183.2771      -2314.137          26.000  
G29  23680957.862   124444287.613        1132.363          46.000    23680958.991    96969574.460         882.336          40.000  
> 2025 04 04 11 16 46.0050000  0 10                     
G05  22854860.699   120103146.968       -2213.400          46.000    22854860.996    93586857.692       -1724.514          39.000  
G06  26162583.365   137485377.154       -3041.588          37.000    26162598.991   107131484.416       -2369.974          36.000  
G12  25988550.548   136570770.314       -3627.756          32.000    25988557.350   106418782.667       -2827.042          29.000  
G11  24090104.504   126594373.375       -2210.160          37.000    24090108.310    98644973.296       -1722.205          38.000  
G20  24127979.929   126793393.663       -2923.921          35.000                                                                  
G13  21831961.553   114727717.480        -462.031          43.000                                                                  
G30  26932930.369                       -1054.817          18.000    26932947.439   110285955.620        -827.294          25.000  
G15  22829444.476   119969562.269        1373.619          46.000    22829446.341    93482792.169        1070.112          36.000  
G25  25912038.973   136168685.282       -2968.874          32.000    25912045.162   106105496.718       -2313.135          26.000  
G29  23680742.385   124443155.305        1132.062          46.000    23680743.692    96968692.154         882.216          40.000  
> 2025 04 04 11 16 47.0050000  0 10                     
G05  22855281.867   120105360.554       -2213.533          47.000    22855282.264    93588582.578       -1724.679          38.000  
G06  26163162.370   137488419.338       -3042.148          39.000    26163177.818   107133854.927       -2370.862          35.000  
G12  25989241.318   136574398.429       -3628.137          32.000    25989247.683   106421609.756       -2827.506          29.000  
G11  24090525.049   126596584.220       -2211.243          36.000    24090529.161    98646695.998       -1722.342          39.000  
G20  24128536.319   126796317.669       -2923.908          35.000                                                                  
G13  21832049.582   114728179.836        -462.885          43.000                                                                  
G30  26933135.568                       -1057.795          18.000                                                                  
G15  22829183.069   119968188.816        1373.365          46.000    22829185.013    93481721.968        1069.950          36.000  
G25  25912604.122   136171654.182       -2969.803          33.000    25912611.077   106107810.149       -2313.681          26.000  
G29  23680526.990   124442023.259        1131.863          46.000    23680528.247    96967810.053         881.860          40.000  
> 2025 04 04 11 16 48.0050000  0 10                     
G05  22855703.106   120107574.155       -2213.862          46.000    22855703.427    93590307.475       -1724.915          38.000  
G06  26163741.267   137491461.619       -3042.577          38.000    26163756.762   107136225.509       -2370.128          35.000  
G12  25989931.541   136578026.207       -3627.757          32.000    25989937.918   106424436.578       -2826.421          29.000  
G11  24090945.679   126598795.064       -2211.461          34.000    24090949.993    98648418.802       -1723.062          39.000  
G20  24129092.619   126799241.452       -2924.022          35.000                                                                  
G13  21832137.762   114728642.741        -463.097          42.000                                                                  
G30  26933339.737                       -1062.199          21.000    26933349.312                        -827.720          25.000  
G15  22828921.866   119966815.710        1372.738          46.000    22828923.717    93480652.016        1069.425          35.000  
G25  25913168.922   136174623.064       -2968.564          33.000    25913174.971   106110123.564       -2313.234          26.000  
G29  23680311.652   124440891.581        1131.338          47.000    23680312.967    96966928.251         881.313          40.000  
> 2025 04 04 11 16 49.0050000  0 10                     
G05  22856124.237   120109787.539       -2213.292          46.000    22856124.658    93592032.183       -1724.419          39.000  
G06  26164320.163   137494503.667       -3042.020          40.000    26164335.592   107138595.954       -2370.073          35.000  
G12  25990621.571   136581653.564       -3626.775          31.000    25990628.118   106427263.177       -2826.388          29.000  
G11  24091366.168   126601005.831       -2210.975          35.000    24091370.862    98650141.482       -1722.692          40.000  
G20  24129648.886   126802164.819       -2922.927          35.000                                                                  
G13  21832225.931   114729105.942        -463.368          42.000                                                                  
G30  26933547.110                       -1058.760          22.000    26933550.268                        -827.316          25.000  
G15  22828660.591   119965442.686        1372.966          46.000    22828662.398    93479582.102        1070.237          36.000  
G25  25913733.680   136177591.706       -2968.627          33.000    25913739.797   106112436.828       -2313.354          26.000  
G29  23680096.388   124439759.995        1131.492          46.000    23680097.740    96966046.490         881.818          39.000  
> 2025 04 04 11 16 50.0050000  0 10                     
G05  22856545.397   120112001.040       -2214.211          46.000    22856545.801    93593756.999       -1725.272          39.000  
G06  26164899.091   137497545.959       -3043.393          39.000    26164914.401   107140966.582       -2371.027          34.000  
G12  25991311.464   136585280.782       -3627.930          32.000    25991318.282   106430089.532       -2826.418          29.000  
G11  24091786.725   126603216.774       -2211.656          36.000    24091791.659    98651864.339       -1723.553          39.000  
G20  24130205.163   126805088.177       -2924.612          35.000                                                                  
G13  21832314.124   114729569.767        -464.567          41.000                                                                  
G30  26933752.018                       -1060.633          23.000    26933752.266                        -825.337          24.000  
G15  22828399.415   119964070.030        1371.658          46.000    22828401.154    93478512.554        1068.861          36.000  
G25  25914298.354   136180560.372       -2968.642          32.000    25914303.742   106114750.100       -2313.647          25.000  
G29  23679881.174   124438628.801        1130.353          46.000    23679882.552    96965165.073         880.764          40.000  
> 2025 04 04 11 16 51.0050000  0 10                     
G05  22856966.583   120114214.303       -2213.802          46.000    22856966.985    93595481.644       -1725.183          39.000  
G06  26165477.999   137500588.035       -3042.787          39.000    26165493.257   107143337.098       -2371.200          33.000  
G12  25992001.544   136588907.541       -3626.603          32.000    25992008.293   106432915.576       -2825.989          28.000  
G11  24092207.477   126605427.614       -2211.880          35.000    24092212.365    98653587.056       -1723.134          39.000  
G20  24130761.285   126808011.031       -2922.836          35.000                                                                  
G13  21832402.497   114730033.922        -464.752          41.000                                                                  
G30  26933952.548                       -1063.046          22.000                                                                  
G15  22828138.279   119962697.438        1371.907          46.000    22828139.866    93477442.984        1069.178          36.000  
G25  25914863.213   136183528.851       -2969.644          32.000    25914870.511   106117063.123       -2313.088          25.000  
G29  23679665.915   124437497.719        1130.502          47.000    23679667.325    96964283.675         881.053          39.000  
> 2025 04 04 11 16 52.0050000  0 10                     
G05  22857387.763   120116427.389       -2212.917          47.000    22857388.048    93597206.133       -1724.053          38.000  
G06  26166056.852   137503629.936       -3041.532          37.000    26166072.075   107145707.420       -2370.393          33.000  
G12  25992691.578   136592533.898       -3625.697          33.000    25992698.037   106435741.258       -2825.449          28.000  
G11  24092628.233   126607638.333       -2210.782          36.000    24092633.148    98655309.713       -1722.882          36.000  
G20  24131317.394   126810933.594       -2922.710          36.000                                                                  
G13  21832490.860   114730498.444        -464.605          42.000                                                                  
G30  26934153.526                       -1061.125          22.000                                                                  
G15  22827877.121   119961324.975        1372.433          46.000    22827878.636    93476373.546        1069.618          35.000  
G25  25915428.000   136186497.040       -2968.453          31.000    25915435.366   106119376.040       -2312.716          26.000  
G29  23679450.724   124436366.727        1130.928          47.000    23679452.091    96963402.412         881.437          39.000  
> 2025 04 04 11 16 53.0050000  0 10                     
G05  22857808.819   120118640.147       -2212.997          46.000    22857809.124    93598930.353       -1724.199          39.000  
G06  26166635.796   137506671.677       -3041.872          37.000    26166650.979   107148077.587       -2370.063          28.000  
G12  25993381.285   136596159.635       -3626.582          32.000    25993387.841   106438566.558       -2825.550          28.000  
G11  24093048.780   126609848.778       -2210.649          37.000    24093053.923    98657032.103       -1722.522          36.000  
G20  24131873.485   126813855.583       -2921.667          36.000                                                                  
G13  21832579.128   114730963.104        -465.103          42.000                                                                  
G30  26934356.224                       -1058.816          21.000                                                                  
G15  22827615.945   119959952.436        1372.076          46.000    22827617.472    93475304.057        1069.113          35.000  
G25  25915992.620   136189464.848       -2967.971          31.000    25915999.468   106121688.649       -2312.740          25.000  
G29  23679235.491   124435235.702        1130.679          46.000    23679236.935    96962521.103         881.394          39.000  
> 2025 04 04 11 16 54.0050000  0 10                     
G05  22858229.906   120120852.869       -2212.441          46.000    22858230.158    93600654.547       -1724.023          39.000  
G06  26167214.726   137509713.402       -3041.789          37.000    26167229.865   107150447.740       -2368.462          31.000  
G12  25994070.935   136599785.054       -3625.496          32.000    25994077.697   106441391.602       -2825.416          28.000  
G11  24093469.451   126612059.357       -2210.222          36.000    24093474.642    98658754.624       -1722.509          37.000  
G20  24132429.437   126816777.339       -2921.552          36.000                                                                  
G13  21832667.614   114731428.306        -465.301          41.000                                                                  
G30  26934556.918                       -1058.349          21.000                                                                  
G15  22827354.917   119958580.193        1372.308          46.000    22827356.293    93474234.750        1069.517          35.000  
G25  25916557.526   136192432.614       -2967.999          31.000    25916565.018   106124001.211       -2313.081          26.000  
G29  23679020.264   124434104.958        1130.640          46.000    23679021.731    96961640.040         880.902          40.000  
> 2025 04 04 11 16 55.0050000  0 11                     
G05  22858650.956   120123065.317       -2212.366          47.000    22858651.176    93602378.522       -1723.574          39.000  
G06  26167793.536   137512754.896       -3041.001          38.000    26167808.592   107152817.836       -2369.532          32.000  
G12  25994760.736   136603409.996       -3624.253          33.000    25994767.336   106444216.158       -2824.148          28.000  
G11  24093890.124   126614269.737       -2210.708          37.000    24093895.331    98660476.960       -1722.163          39.000  
G20  24132985.280   126819698.647       -2921.050          34.000                                                                  
G13  21832756.294   114731893.722        -465.547          41.000                                                                  
G30  26934757.264                       -1065.865          21.000                                                                  
G15  22827093.865   119957207.950        1372.192          46.000    22827095.170    93473165.465        1069.514          35.000  
G25  25917122.163   136195399.994       -2967.753          31.000    25917128.337   106126313.410       -2311.983          26.000  
G23  26727698.426                         711.898          16.000                                                                  
G29  23678805.155   124432974.273        1130.408          45.000    23678806.633    96960758.956         880.930          40.000  
> 2025 04 04 11 16 56.0050000  0 11                     
G05  22859071.990   120125277.827       -2212.821          47.000    22859072.168    93604102.585       -1724.581          39.000  
G06  26168372.305   137515796.584       -3042.134          39.000    26168387.592   107155187.882       -2370.662          31.000  
G12  25995450.279   136607034.684       -3624.161          32.000    25995457.054   106447040.709       -2825.613          29.000  
G11  24094310.785   126616480.267       -2210.759          37.000    24094315.971    98662199.474       -1722.833          38.000  
G20  24133541.281   126822619.900       -2920.930          33.000                                                                  
G13  21832844.986   114732359.771        -466.601          41.000                                                                  
G30  26934959.083                       -1057.515          21.000                                                                  
G15  22826832.862   119955836.095        1371.592          46.000    22826834.154    93472096.493        1068.771          35.000  
G25  25917686.562   136198367.434       -2967.755          31.000    25917692.033   106128625.750       -2312.713          27.000  
G23  26727578.368                         711.898          17.000                                                                  
G29  23678589.948   124431843.949        1130.009          45.000    23678591.622    96959878.187         880.616          41.000  
> 2025 04 04 11 16 57.0050000  0 11                     
G05  22859493.092   120127490.720       -2212.892          48.000    22859493.297    93605826.922       -1724.564          39.000  
G06  26168951.151   137518838.658       -3042.752          40.000    26168966.584   107157558.450       -2371.670          31.000  
G12  25996139.531   136610659.566       -3624.102          32.000    25996146.664   106449865.297       -2824.795          30.000  
G11  24094731.496   126618691.212       -2210.837          35.000    24094736.849    98663922.291       -1722.848          38.000  
G20  24134096.923   126825541.363       -2922.578          32.000                                                                  
G13  21832933.838   114732826.716        -467.395          41.000                                                                  
G30  26935163.157                       -1049.630          18.000                                                                  
G15  22826571.993   119954464.903        1370.940          46.000    22826573.235    93471028.048        1067.955          35.000  
G25  25918251.272   136201335.184       -2967.158          31.000    25918256.636   106130938.309       -2312.939          27.000  
G23  26727436.203                         711.898          17.000                                                                  
G29  23678375.057   124430714.301        1129.369          45.000    23678376.661    96958997.962         879.961          40.000  
> 2025 04 04 11 16 58.0050000  0 11                     
G05  22859914.215   120129703.765       -2212.880          48.000    22859914.410    93607551.354       -1724.122          39.000  
G06  26169530.090   137521880.957       -3042.206          40.000    26169545.312   107159929.044       -2370.126          31.000  
G12  25996829.150   136614284.406       -3623.887          32.000    25996836.450   106452689.820       -2824.613          30.000  
G11  24095152.297   126620902.436       -2210.920          36.000    24095157.646    98665645.336       -1723.364          37.000  
G20  24134652.913   126828462.588       -2921.092          33.000                                                                  
G13  21833022.751   114733294.361        -467.845          40.000                                                                  
G30  26935366.984                       -1062.190          18.000                                                                  
G15  22826311.233   119953094.155        1370.802          46.000    22826312.319    93469959.930        1067.692          35.000  
G25  25918815.942   136204303.107       -2967.740          31.000    25918820.042   106133251.028       -2313.241          26.000  
G23  26727297.750                         711.898          15.000                                                                  
G29  23678160.100   124429585.122        1129.230          45.000    23678161.823    96958118.101         879.760          40.000  
> 2025 04 04 11 16 59.0050000  0 11                     
G05  22860335.330   120131916.593       -2212.393          47.000    22860335.382    93609275.669       -1724.009          39.000  
G06  26170109.000   137524923.176       -3041.855          39.000    26170124.244   107162299.623       -2369.604          30.000  
G12  25997519.013   136617908.750       -3623.785          32.000    25997526.033   106455513.997       -2823.964          29.000  
G11  24095572.922   126623113.499       -2210.300          35.000    24095578.406    98667368.291       -1723.074          36.000  
G20  24135208.841   126831383.562       -2920.114          37.000                                                                  
G13  21833111.705   114733762.324        -467.876          41.000                                                                  
G30  26935568.808                       -1079.504          17.000                                                                  
G15  22826050.390   119951723.507        1370.856          46.000    22826051.484    93468891.891        1068.434          35.000  
G25  25919380.481   136207270.747       -2966.746          32.000    25919382.920   106135563.333       -2311.719          26.000  
G23  26727164.460                         711.898          16.000                                                                  
G29  23677945.254   124428456.058        1129.218          46.000    23677946.955    96957238.326         879.733          39.000  
> 2025 04 04 11 17 00.0050000  0 11                     
G05  22860756.281   120134128.994       -2212.030          47.000    22860756.354    93610999.622       -1723.818          39.000  
G06  26170687.767   137527965.009       -3041.804          38.000    26170703.085   107164669.928       -2370.478          31.000  
G12  25998208.525   136621532.332       -3622.407          32.000    25998215.265   106458337.532       -2822.582          27.000  
G11  24095993.661   126625324.218       -2210.173          34.000    24095999.066    98669090.913       -1722.138          36.000  
G20  24135764.545   126834303.858       -2919.817          38.000                                                                  
G13  21833200.769   114734230.355        -468.217          41.000                                                                  
G30  26935768.774                       -1057.782          16.000                                                                  
G15  22825789.641   119950352.701        1370.829          46.000    22825790.682    93467823.733        1068.605          35.000  
G25  25919944.936   136210237.882       -2966.887          32.000    25919946.602   106137875.442       -2312.006          26.000  
G23  26727030.445                         711.898          18.000                                                                  
G29  23677730.343   124427326.879        1129.213          46.000    23677732.117    96956358.437         879.599          39.000  
> 2025 04 04 11 17 01.0050000  0 11                     
G05  22861177.187   120136341.293       -2212.494          46.000    22861177.277    93612723.474       -1724.009          40.000  
G06  26171266.614   137531006.742       -3041.911          38.000    26171282.006   107167040.115       -2371.069          32.000  
G12  25998897.645   136625155.648       -3622.519          33.000    25998904.568   106461160.918       -2823.573          27.000  
G11  24096414.337   126627535.017       -2211.124          34.000    24096419.862    98670813.625       -1723.051          37.000  
G20  24136320.060   126837223.878       -2920.161          37.000                                                                  
G13  21833289.835   114734698.786        -469.008          39.000                                                                  
G30  26935968.527                       -1059.763          15.000                                                                  
G15  22825528.859   119948982.076        1370.267          46.000    22825529.809    93466755.748        1067.633          34.000  
G25  25920509.459   136213204.887       -2966.644          32.000    25920511.776   106140187.460       -2312.484          27.000  
G23  26726894.156                         711.898          17.000                                                                  
G29  23677515.621   124426197.871        1128.641          46.000    23677517.295    96955478.697         879.286          40.000  
> 2025 04 04 11 17 02.0050000  0 10                     
G05  22861598.182   120138553.923       -2212.808          46.000    22861598.344    93614447.632       -1724.764          40.000  
G06  26171845.543   137534048.920       -3042.364          39.000    26171860.926   107169410.665       -2370.584          33.000  
G12  25999586.649   136628779.027       -3623.215          31.000    25999594.013   106463984.314       -2823.427          27.000  
G11  24096835.107   126629746.094       -2212.307          30.000    24096840.640    98672536.683       -1723.856          33.000  
G20  24136875.695   126840144.128       -2920.195          39.000                                                                  
G13  21833379.160   114735168.083        -469.950          41.000                                                                  
G30  26936172.911                       -1061.375          15.000                                                                  
G15  22825268.168   119947612.083        1369.607          46.000    22825269.054    93465688.259        1066.803          35.000  
G25  25921073.735   136216172.176       -2967.401          31.000    25921075.582   106142499.615       -2312.299          27.000  
G29  23677300.780   124425069.492        1128.155          47.000    23677302.546    96954599.442         878.932          40.000  
> 2025 04 04 11 17 03.0050000  0 10                     
G05  22862019.294   120140767.124       -2213.256          46.000    22862019.601    93616172.171       -1724.723          40.000  
G06  26172424.687   137537091.733       -3042.803          36.000    26172440.172   107171781.706       -2370.879          34.000  
G12  26000275.555   136632402.737       -3623.392          31.000    26000283.396   106466807.996       -2823.788          27.000  
G11  24097256.147   126631958.084       -2211.989          34.000    24097261.654    98674260.156       -1723.776          36.000  
G20  24137431.435   126843064.709       -2920.557          37.000                                                                  
G13  21833468.603   114735638.475        -470.484          40.000                                                                  
G15  22825007.689   119946242.959        1368.787          47.000    22825008.482    93464621.391        1066.785          35.000  
G25  25921638.113   136219140.020       -2968.317          32.000    25921640.711   106144812.245       -2312.936          27.000  
G29  23677086.230   124423942.021        1127.328          47.000    23677087.947    96953720.907         878.315          40.000  
G30                                                                  26936376.256                        -831.600          22.000  
> 2025 04 04 11 17 04.0050000  0 10                     
G05  22862440.558   120142980.578       -2213.713          47.000    22862440.785    93617896.933       -1725.016          40.000  
G06  26173003.725   137540134.875       -3043.687          39.000    26173019.480   107174152.938       -2371.467          35.000  
G12  26000964.607   136636026.446       -3623.069          34.000    26000973.035   106469631.672       -2823.704          27.000  
G11  24097676.536   126634170.273       -2213.067          32.000    24097682.607    98675983.935       -1724.056          36.000  
G20  24137987.270   126845985.305       -2921.002          36.000                                                                  
G13  21833558.392   114736109.716        -471.448          40.000                                                                  
G30  26936571.259                       -1064.998          17.000    26936578.466                        -830.836          22.000  
G15  22824747.284   119944874.410        1368.362          47.000    22824748.028    93463555.021        1064.958          35.000  
G25  25922202.720   136222108.037       -2967.782          32.000    25922206.134   106147124.995       -2312.877          28.000  
G29  23676871.804   124422815.115        1126.546          47.000    23676873.614    96952842.797         877.830          40.000  
> 2025 04 04 11 17 05.0050000  0 10                     
G05  22862861.828   120145194.276       -2213.905          47.000    22862862.023    93619621.911       -1725.238          40.000  
G06  26173582.881   137543178.369       -3043.213          34.000    26173598.702   107176524.523       -2371.927          34.000  
G12  26001654.234   136639650.252       -3624.204          33.000    26001662.502   106472455.428       -2824.018          27.000  
G11  24098097.272   126636382.922       -2212.739          36.000    24098103.593    98677708.014       -1724.406          36.000  
G20  24138543.045   126848906.026       -2921.350          32.000                                                                  
G13  21833647.990   114736581.689        -472.576          42.000                                                                  
G30  26936773.454                       -1065.338          17.000    26936782.200                        -831.310          23.000  
G15  22824486.899   119943506.434        1367.612          47.000    22824487.679    93462489.031        1065.491          35.000  
G25  25922767.389   136225076.387       -2968.020          32.000    25922772.448   106149437.918       -2312.906          28.000  
G29  23676657.449   124421688.808        1125.848          47.000    23676659.327    96951965.171         877.454          40.000  
> 2025 04 04 11 17 06.0060000  0 10                     
G05  22863283.747   120147410.682       -2214.640          46.000    22863283.728    93621348.982       -1725.544          41.000  
G06  26174162.749   137546225.445       -3044.635          34.000    26174178.692   107178898.874       -2372.086          36.000  
G12  26002344.481   136643277.842       -3623.814          31.000    26002352.800   106475282.181       -2824.611          27.000  
G11  24098518.827   126638598.207       -2213.278          35.000    24098525.180    98679434.280       -1724.862          36.000  
G20  24139099.581   126851830.019       -2921.270          30.000                                                                  
G13  21833738.018   114737055.158        -473.703          45.000                                                                  
G30  26936977.006                       -1066.333          17.000    26936984.279                        -824.283          21.000  
G15  22824226.459   119942137.861        1366.566          47.000    22824227.214    93461422.594        1064.944          35.000  
G25  25923332.632   136228047.967       -2967.730          29.000    25923339.003   106151753.611       -2313.941          28.000  
G29  23676443.037   124420562.159        1125.073          47.000    23676444.913    96951087.250         876.839          40.000  
> 2025 04 04 11 17 07.0060000  0 10                     
G05  22863705.154   120149625.188       -2214.719          46.000    22863705.146    93623074.572       -1725.898          41.000  
G06  26174742.097   137549269.843       -3044.738          36.000    26174758.021   107181271.124       -2372.186          35.000  
G12  26003034.193   136646901.847       -3623.552          31.000    26003042.357   106478106.062       -2824.019          27.000  
G11  24098940.122   126640811.729       -2213.781          35.000    24098946.519    98681159.070       -1725.208          35.000  
G20  24139655.805   126854751.134       -2921.096          35.000                                                                  
G13  21833828.118   114737529.015        -474.761          42.000                                                                  
G30  26937181.606                       -1062.441          18.000    26937186.945                        -831.731          20.000  
G15  22823966.334   119940771.233        1366.384          47.000    22823967.196    93460357.751        1064.352          36.000  
G25  25923897.230   136231017.027       -2968.842          28.000    25923902.867   106154067.093       -2313.905          28.000  
G29  23676228.956   124419437.245        1124.512          46.000    23676230.790    96950210.707         876.309          40.000  
> 2025 04 04 11 17 08.0060000  0 10                     
G05  22864126.698   120151840.065       -2215.326          46.000    22864126.657    93624800.465       -1726.351          40.000  
G06  26175321.542   137552314.635       -3045.299          36.000    26175337.400   107183643.744       -2373.151          35.000  
G12  26003723.934   136650526.123       -3624.770          31.000    26003731.854   106480930.098       -2824.035          28.000  
G11  24099361.348   126643025.683       -2214.845          35.000    24099367.878    98682884.259       -1725.743          35.000  
G20  24140211.875   126857672.457       -2921.549          35.000                                                                  
G13  21833918.375   114738003.760        -475.477          41.000                                                                  
G30  26937384.874                       -1053.575          21.000    26937388.113                        -832.656          18.000  
G15  22823706.411   119939405.291        1365.490          47.000    22823707.244    93459293.404        1063.635          36.000  
G25  25924461.886   136233986.363       -2970.065          28.000    25924466.739   106156380.826       -2314.336          28.000  
G29  23676015.014   124418313.022        1123.609          47.000    23676016.893    96949334.714         875.647          40.000  
> 2025 04 04 11 17 09.0060000  0 11                     
G05  22864548.326   120154055.609       -2215.871          47.000    22864548.208    93626526.842       -1726.688          40.000  
G06  26175901.227   137555360.205       -3045.943          36.000    26175917.000   107186016.912       -2373.541          34.000  
G12  26004413.218   136654150.627       -3624.695          30.000    26004421.536   106483754.475       -2824.859          27.000  
G11  24099782.853   126645240.463       -2214.926          36.000    24099789.292    98684610.034       -1726.107          36.000  
G20  24140767.778   126860594.242       -2922.258          34.000                                                                  
G13  21834008.817   114738479.696        -476.360          41.000                                                                  
G30  26937584.769                       -1064.330          21.000    26937590.608                        -832.656          15.000  
G15  22823446.629   119938040.306        1364.680          48.000    22823447.429    93458229.789        1063.236          36.000  
G25  25925026.919   136236956.266       -2970.373          29.000    25925031.745   106158695.008       -2314.021          28.000  
G23  26726619.414                         710.288          22.000                                                                  
G29  23675801.188   124417189.757        1122.715          47.000    23675803.220    96948459.458         875.026          40.000  
> 2025 04 04 11 17 10.0060000  0 10                     
G05  22864970.093   120156271.716       -2216.726          47.000    22864969.966    93628253.669       -1727.219          39.000  
G06  26176480.968   137558406.351       -3046.649          35.000    26176496.617   107188390.566       -2374.387          34.000  
G12  26005070.824                       -3627.180          27.000    26005111.141   106486579.084       -2825.246          26.000  
G11  24100204.617   126647455.893       -2216.391          33.000    24100210.869    98686336.302       -1726.323          36.000  
G20  24141323.891   126863516.407       -2922.615          33.000                                                                  
G13  21834099.595   114738956.741        -477.994          41.000                                                                  
G30  26937786.319                       -1067.130          23.000    26937791.401                        -829.296          14.000  
G15  22823187.059   119936676.191        1363.592          47.000    22823187.905    93457166.854        1062.169          36.000  
G25  25925591.752   136239926.714       -2971.021          30.000    25925597.775   106161009.711       -2315.076          28.000  
G29  23675587.565   124416067.387        1121.608          47.000    23675589.594    96947584.889         873.748          40.000  
> 2025 04 04 11 17 11.0060000  0 11                     
G05  22865391.932   120158488.320       -2217.010          47.000    22865391.767    93629980.897       -1727.638          39.000  
G06  26177060.697   137561453.120       -3047.010          35.000    26177076.330   107190764.630       -2373.901          33.000  
G11  24100626.155   126649671.879       -2216.440          34.000    24100632.460    98688063.096       -1726.399          35.000  
G20  24141880.091   126866438.937       -2922.933          33.000                                                                  
G13  21834190.461   114739434.798        -478.526          41.000                                                                  
G30  26937991.051                       -1069.699          20.000    26937995.034                        -835.006          14.000  
G15  22822927.605   119935312.881        1362.818          47.000    22822928.383    93456104.513        1061.755          36.000  
G25  25926157.138   136242897.622       -2971.102          30.000    25926164.407   106163324.687       -2315.123          29.000  
G23  26725387.474                         705.759          23.000                                                                  
G29  23675374.201   124414945.843        1120.967          47.000    23675376.243    96946710.945         873.571          40.000  
G12                                                                  26005800.981   106489403.901       -2824.642          24.000  
> 2025 04 04 11 17 12.0060000  0 10                     
G05  22865813.909   120160705.397       -2217.198          48.000    22865813.675    93631708.491       -1727.930          39.000  
G06  26177640.682   137564500.391       -3047.490          38.000    26177656.142   107193139.151       -2374.336          32.000  
G12  26006467.848                       -3625.959          28.000    26006490.692   106492228.922       -2825.319          24.000  
G11  24101048.120   126651888.394       -2216.826          35.000    24101054.207    98689790.374       -1727.753          32.000  
G20  24142436.267   126869361.723       -2922.579          35.000                                                                  
G13  21834281.605   114739913.878        -479.616          42.000                                                                  
G30  26938193.144                       -1068.387          21.000    26938199.409                        -833.539          20.000  
G15  22822668.296   119933950.339        1362.256          47.000    22822669.070    93455042.771        1061.740          36.000  
G25  25926722.488   136245869.011       -2971.319          30.000    25926731.467   106165640.038       -2315.382          29.000  
G29  23675160.919   124413825.071        1120.524          46.000    23675163.006    96945837.620         873.228          40.000  
> 2025 04 04 11 17 13.0060000  0 10                     
G05  22866235.955   120162922.853       -2217.715          47.000    22866235.574    93633436.385       -1727.960          39.000  
G06  26178220.649   137567548.177       -3047.581          34.000    26178236.104   107195514.088       -2375.026          32.000  
G11  24101470.090   126654105.378       -2217.343          34.000    24101476.130    98691517.990       -1727.996          32.000  
G20  24142992.440   126872284.697       -2922.807          38.000                                                                  
G13  21834372.972   114740393.841        -480.049          41.000                                                                  
G30  26938397.292                       -1075.135          21.000    26938404.293                        -826.890          22.000  
G15  22822409.166   119932588.474        1361.695          47.000    22822409.891    93453981.619        1060.745          36.000  
G25  25927287.882   136248840.695       -2971.643          29.000    25927297.929   106167955.664       -2315.973          29.000  
G29  23674947.744   124412705.006        1119.775          45.000    23674949.954    96944964.861         872.428          40.000  
G12                                                                  26007180.581                       -2826.801          23.000  
> 2025 04 04 11 17 14.0060000  0 10                     
G05  22866658.054   120165140.622       -2217.816          48.000    22866657.698    93635164.505       -1728.051          39.000  
G06  26178800.649   137570596.321       -3048.215          35.000    26178816.132   107197889.249       -2375.398          36.000  
G12  26007859.470                       -3624.704          27.000    26007868.596                       -2824.295          24.000  
G11  24101892.423   126656322.862       -2217.661          31.000    24101898.154    98693245.930       -1728.167          29.000  
G20  24143548.861   126875207.841       -2922.713          38.000                                                                  
G13  21834464.459   114740874.676        -481.167          42.000                                                                  
G30  26938601.384                       -1074.125          18.000    26938608.864                        -833.564          23.000  
G15  22822150.084   119931227.218        1361.281          46.000    22822150.768    93452920.918        1060.261          36.000  
G25  25927853.203   136251812.617       -2971.377          30.000    25927864.275   106170271.465       -2315.927          29.000  
G29  23674734.745   124411585.541        1119.498          46.000    23674736.923    96944092.570         871.676          39.000  
> 2025 04 04 11 17 15.0060000  0 10                     
G05  22867080.178   120167358.709       -2218.302          48.000    22867079.656    93636892.912       -1728.696          39.000  
G06  26179380.732   137573644.840       -3048.882          36.000    26179396.132   107200264.752       -2375.991          34.000  
G12  26008556.043   136675884.3393      -3625.508          28.000    26008557.818                       -2826.156          25.000  
G11  24102314.590   126658517.6993      -2217.881          31.000    24102320.312    98694974.068       -1728.400          32.000  
G20  24144105.173   126878131.095       -2923.528          38.000                                                                  
G13  21834556.043   114741356.339        -482.157          40.000                                                                  
G30  26938805.552                       -1074.479          21.000    26938812.638                        -837.568          23.000  
G15  22821891.092   119929866.588        1360.195          47.000    22821891.747    93451860.675        1060.128          36.000  
G25  25928418.552   136254784.822       -2972.812          30.000    25928432.552   106172587.456       -2315.867          30.000  
G29  23674521.752   124410466.733        1118.356          45.000    23674524.068    96943220.784         871.351          40.000  
> 2025 04 04 11 17 16.0060000  0 10                     
G05  22867502.310   120169577.199       -2218.639          48.000    22867501.881    93638621.605       -1728.769          39.000  
G06  26179960.935   137576693.887       -3049.789          36.000    26179976.403   107202640.618       -2376.433          33.000  
G12  26009238.958   136679510.2972      -3626.662          28.000    26009246.918                       -2827.479          25.000  
G11  24102737.063   126660736.1602      -2218.835          32.000    24102742.441    98696702.582       -1728.395          33.000  
G20  24144661.470   126881054.514       -2923.546          38.000                                                                  
G13  21834647.867   114741838.964        -483.237          38.000                                                                  
G30  26939010.594                       -1070.195          23.000    26939016.480                        -835.775          23.000  
G15  22821632.285   119928506.653        1359.501          47.000    22821632.897    93450800.964        1059.524          37.000  
G25  25928983.976   136257757.445       -2973.533          28.000    25928995.330   106174903.780       -2316.530          30.000  
G29  23674308.906   124409348.646        1117.625          45.000    23674311.277    96942349.549         870.802          40.000  
> 2025 04 04 11 17 17.0060000  0 10                     
G05  22867924.645   120171796.268       -2219.180          48.000    22867924.110    93640350.745       -1729.352          38.000  
G06  26180541.231   137579743.542       -3050.739          34.000    26180556.742   107205016.938       -2376.708          31.000  
G12  26009932.144   136683136.4662      -3625.906          28.000    26009937.357                       -2824.187          24.000  
G11  24103159.661   126662955.3582      -2219.791          34.000    24103164.503    98698431.744       -1729.089          37.000  
G20  24145217.847   126883978.458       -2924.417          27.000                                                                  
G13  21834739.822   114742322.691        -484.684          38.000                                                                  
G30  26939213.345                       -1073.782          25.000    26939221.552                        -831.127          24.000  
G15  22821373.613   119927147.607        1358.639          46.000    22821374.231    93449741.984        1058.530          37.000  
G25  25929549.346   136260730.581       -2973.599          28.000    25929561.610   106177220.523       -2316.819          30.000  
G29  23674096.189   124408231.451        1116.762          45.000    23674098.719    96941479.039         869.950          39.000  
> 2025 04 04 11 17 18.0060000  0 10                     
G05  22868347.027   120174015.847       -2219.629          47.000    22868346.453    93642080.286       -1729.391          38.000  
G06  26181121.682   137582793.704       -3050.565          32.000    26181137.136   107207393.789       -2377.010          30.000  
G12  26010618.549   136686762.8252      -3626.342          28.000    26010627.803                       -2826.094          24.000  
G11  24103582.039   126665174.9372      -2219.052          35.000    24103586.763    98700161.342       -1729.690          38.000  
G20  24145774.395   126886902.563       -2923.578          25.000                                                                  
G13  21834832.021   114742807.434        -484.955          37.000                                                                  
G30  26939420.351   141567608.6363      -1073.150          27.000    26939426.764                        -838.331          24.000  
G15  22821115.095   119925789.338        1358.045          47.000    22821115.712    93448683.604        1058.357          36.000  
G25  25930114.834   136263704.164       -2973.454          28.000    25930128.878   106179537.624       -2317.001          31.000  
G29  23673883.685   124407115.071        1116.107          45.000    23673886.315    96940609.119         869.639          39.000  
> 2025 04 04 11 17 19.0060000  0 10                     
G05  22868769.641   120176235.782       -2220.177          48.000    22868768.880    93643810.122       -1730.066          38.000  
G06  26181702.118   137585844.381       -3051.234          32.000    26181717.682   107209770.901       -2376.735          30.000  
G12  26011309.356   136690389.3972      -3626.829          29.000    26011318.081   106511998.8151      -2825.597          26.000  
G11  24104004.410   126667394.904       -2219.938          35.000    24104009.128    98701891.290       -1730.069          37.000  
G20  24146331.056   126889826.863       -2923.611          28.000                                                                  
G13  21834924.414   114743293.072        -486.144          36.000                                                                  
G30  26939626.817   141568694.2352      -1075.305          26.000    26939630.323                        -834.950          24.000  
G15  22820856.646   119924431.751        1357.352          47.000    22820857.406    93447625.754        1057.506          36.000  
G25  25930680.464   136266678.122       -2973.881          28.000    25930695.776   106181854.941       -2317.732          30.000  
G29  23673671.333   124405999.374        1115.422          45.000    23673674.035    96939739.779         868.779          39.000  
> 2025 04 04 11 17 20.0060000  0 10                     
G05  22869192.188   120178455.999       -2220.527          48.000    22869191.294    93645540.156       -1730.137          38.000  
G06  26182282.650   137588895.319       -3051.202          33.000    26182298.464   107212148.354       -2378.059          30.000  
G12  26012000.198   136694015.4701      -3626.297          30.000    26012007.895                       -2827.387          25.000  
G11  24104426.997   126669615.396       -2221.462          35.000    24104431.746    98703621.506       -1730.213          38.000  
G20  24146887.949   126892751.308       -2924.417          33.000                                                                  
G13  21835016.901   114743779.501        -487.205          38.000                                                                  
G30  26939831.448   141569768.0502      -1074.448          26.000    26939835.136                        -840.440          23.000  
G15  22820598.351   119923074.730        1356.732          47.000    22820599.146    93446568.349        1056.779          37.000  
G25  25931240.832                       -2974.812          27.000    25931263.005   106184172.454       -2317.729          30.000  
G29  23673459.074   124404884.249        1114.703          46.000    23673461.839    96938870.821         868.562          39.000  
> 2025 04 04 11 17 21.0060000  0 10                     
G05  22869614.822   120180676.767       -2221.156          48.000    22869613.906    93647270.636       -1730.713          38.000  
G06  26182863.340   137591946.881       -3051.275          34.000    26182879.197   107214526.174       -2378.165          29.000  
G12  26012687.200   136697642.307       -3626.905          29.000    26012696.678                       -2827.174          26.000  
G11  24104849.678   126671836.524       -2222.036          33.000    24104854.403    98705352.249       -1731.433          37.000  
G20  24147444.714   126895676.104       -2925.174          35.000                                                                  
G13  21835109.533   114744267.067        -488.534          37.000                                                                  
G30  26940036.697   141570842.7222      -1074.530          26.000    26940040.377                        -844.202          22.000  
G15  22820340.289   119921718.550        1355.616          46.000    22820341.079    93445511.574        1056.512          37.000  
G25  25931802.070   136272539.4163      -2975.421          28.000    25931829.195   106186490.418       -2319.293          30.000  
G29  23673246.985   124403769.993        1113.703          46.000    23673249.812    96938002.571         867.970          39.000  
> 2025 04 04 11 17 22.0060000  0 10                     
G05  22870037.589   120182898.120       -2221.612          48.000    22870036.551    93649001.567       -1731.141          38.000  
G06  26183444.121   137594999.141       -3052.550          34.000    26183459.975   107216904.579       -2378.777          29.000  
G12  26013375.207   136701269.485       -3627.341          29.000    26013386.807                       -2827.103          25.000  
G11  24105272.655   126674058.290       -2222.079          34.000    24105277.180    98707083.483       -1731.635          36.000  
G20  24148001.511   126898601.297       -2925.756          35.000                                                                  
G13  21835202.451   114744755.676        -489.069          38.000                                                                  
G30  26940241.764   141571918.2332      -1075.181          26.000    26940244.537                        -840.523          20.000  
G15  22820082.407   119920363.255        1354.761          47.000    22820083.238    93444455.496        1055.738          37.000  
G25  25932370.209   136275514.5742      -2975.234          28.000    25932395.298   106188808.724       -2318.818          30.000  
G29  23673035.069   124402656.615        1112.943          46.000    23673037.930    96937135.010         867.504          39.000  
> 2025 04 04 11 17 23.0060000  0 11                     
G05  22870460.459   120185119.910       -2221.915          48.000    22870459.479    93650732.837       -1731.339          39.000  
G06  26184025.019   137598051.916       -3052.911          33.000    26184041.136   107219283.343       -2378.935          29.000  
G12  26014064.744   136704896.864       -3627.342          29.000    26014075.249                       -2825.589          25.000  
G11  24105695.528   126676280.666       -2222.424          34.000    24105699.974    98708815.167       -1731.375          37.000  
G20  24148558.277   126901526.756       -2925.466          34.000                                                                  
G13  21835295.636   114745245.320        -490.232          38.000                                                                  
G30  26940444.417   141572994.3862      -1076.427          27.000    26940450.458                        -835.811          20.000  
G15  22819824.586   119919008.709        1354.337          47.000    22819825.504    93443400.033        1054.782          37.000  
G25  25932934.664   136278490.0872      -2975.463          28.000    25932961.656   106191127.374       -2319.491          30.000  
G23  26725080.062                         708.359          16.000                                                                  
G29  23672823.329   124401544.012        1112.332          45.000    23672826.179    96936268.056         866.691          39.000  
> 2025 04 04 11 17 24.0060000  0 11                     
G05  22870883.214   120187341.946       -2222.005          48.000    22870882.330    93652464.282       -1731.336          39.000  
G06  26184605.895   137601105.021       -3053.367          32.000    26184622.330   107221662.371       -2379.160          30.000  
G12  26014755.858   136708524.273       -3628.304          30.000    26014765.267                       -2827.532          24.000  
G11  24106118.590   126678503.330       -2223.128          34.000    24106122.824    98710547.123       -1732.063          37.000  
G20  24149115.086   126904452.257       -2925.533          34.000                                                                  
G13  21835388.901   114745735.714        -490.929          37.000                                                                  
G30  26940649.946   141574070.9832      -1076.496          27.000    26940654.335                        -833.503          21.000  
G15  22819566.958   119917654.693        1353.782          47.000    22819567.863    93442344.965        1054.853          37.000  
G25  25933500.398   136281465.8982      -2975.673          27.000    25933527.954   106193446.181       -2319.756          31.000  
G23  26724949.242                         708.359          16.000                                                                  
G29  23672611.668   124400431.941        1111.978          45.000    23672614.490    96935401.551         866.431          39.000  
> 2025 04 04 11 17 25.0060000  0 11                     
G05  22871305.962   120189563.960       -2222.070          48.000    22871305.179    93654195.731       -1731.477          39.000  
G06  26185186.827   137604158.086       -3053.109          33.000    26185203.149   107224041.433       -2379.180          31.000  
G12  26015447.321   136712151.317       -3626.202          30.000    26015455.433                       -2825.292          23.000  
G11  24106541.533   126680726.070       -2221.899          37.000    24106545.782    98712279.095       -1731.766          38.000  
G20  24149671.909   126907377.563       -2925.061          35.000                                                                  
G13  21835482.286   114746226.624        -491.299          37.000                                                                  
G30  26940854.894   141575147.857       -1076.799          27.000    26940858.744                        -842.304          22.000  
G15  22819309.250   119916300.958        1353.672          47.000    22819310.222    93441290.104        1055.000          37.000  
G25  25934071.031   136284441.1201      -2975.400          27.000    25934094.184   106195764.886       -2318.235          31.000  
G23  26724821.583                         708.359          16.000                                                                  
G29  23672400.116   124399320.220        1111.593          44.000    23672403.055    96934535.272         866.066          38.000  
> 2025 04 04 11 17 26.0060000  0 11                     
G05  22871728.727   120191786.205       -2222.585          47.000    22871728.018    93655927.349       -1732.028          40.000  
G06  26185767.875   137607211.535       -3054.055          33.000    26185784.285   107226420.705       -2379.241          32.000  
G12  26016136.834   136715778.436       -3627.529          29.000    26016145.288                       -2824.079          22.000  
G11  24106964.766   126682949.140       -2223.438          39.000    24106968.806    98714011.371       -1732.459          37.000  
G20  24150228.699   126910302.981       -2925.546          34.000                                                                  
G13  21835575.798   114746718.239        -492.274          41.000                                                                  
G30  26941062.678   141576224.994       -1077.414          26.000    26941064.394                        -845.551          23.000  
G15  22819051.639   119914947.762        1352.682          47.000    22819052.638    93440235.705        1053.977          37.000  
G25  25934641.063   136287417.062       -2975.613          27.000    25934660.456   106198083.795       -2318.615          31.000  
G23  26724696.279                         708.359          14.000                                                                  
G29  23672188.583   124398208.984        1110.696          45.000    23672191.566    96933669.369         865.688          39.000  
> 2025 04 04 11 17 27.0060000  0 11                     
G05  22872151.816   120194008.982       -2223.284          47.000    22872150.933    93657659.361       -1732.147          41.000  
G06  26186349.040   137610265.489       -3054.419          33.000    26186365.482   107228800.415       -2379.387          32.000  
G12  26016827.345   136719405.815       -3627.344          29.000    26016835.317                       -2823.852          22.000  
G11  24107387.930   126685172.787       -2224.088          39.000    24107391.976    98715744.110       -1733.454          34.000  
G20  24150785.362   126913228.604       -2925.729          36.000                                                                  
G13  21835669.582   114747210.912        -493.195          43.000                                                                  
G30  26941268.306   141577302.881       -1077.429          28.000    26941269.916                        -840.542          24.000  
G15  22818794.278   119913595.362        1352.040          47.000    22818795.293    93439181.887        1053.752          36.000  
G25  25935210.667   136290393.503       -2976.941          26.000    25935226.929   106200403.080       -2319.954          32.000  
G23  26724549.972                         708.359          13.000                                                                  
G29  23671977.204   124397098.577        1109.906          46.000    23671980.192    96932804.136         864.667          39.000  
> 2025 04 04 11 17 28.0060000  0 10                     
G05  22872574.900   120196231.850       -2223.124          47.000    22872574.050    93659391.485       -1732.236          40.000  
G06  26186930.227   137613319.626       -3054.764          33.000    26186946.736   107231180.316       -2379.503          33.000  
G12  26017517.910   136723033.013       -3627.062          29.000    26017524.727                       -2826.919          23.000  
G11  24107811.193   126687396.673       -2224.062          39.000    24107815.146    98717477.014       -1733.525          35.000  
G20  24151342.028   126916154.228       -2925.655          34.000                                                                  
G13  21835763.592   114747704.252        -493.660          44.000                                                                  
G30  26941472.691   141578381.137       -1078.334          28.000    26941474.527                        -840.563          25.000  
G15  22818536.919   119912243.402        1351.756          46.000    22818538.026    93438128.405        1053.538          36.000  
G25  25935778.825                       -2974.388          25.000    25935793.300   106202722.401       -2319.722          32.000  
G29  23671766.006   124395988.646        1109.569          46.000    23671769.019    96931939.256         864.477          39.000  
> 2025 04 04 11 17 29.0060000  0 10                     
G05  22872997.911   120198454.480       -2222.236          47.000    22872997.074    93661123.419       -1731.609          41.000  
G06  26187511.278   137616373.637       -3053.914          34.000    26187527.989   107233560.154       -2379.651          33.000  
G12  26018208.147   136726659.856       -3626.779          28.000    26018215.145                       -2826.742          24.000  
G11  24108234.264   126689620.406       -2223.406          39.000    24108238.309    98719209.774       -1732.468          36.000  
G20  24151898.766   126919079.446       -2925.279          33.000                                                                  
G13  21835857.571   114748197.937        -493.729          43.000                                                                  
G30  26941677.001   141579459.435       -1078.011          28.000    26941681.626                        -839.046          25.000  
G15  22818279.639   119910891.519        1351.877          47.000    22818280.747    93437075.028        1053.374          35.000  
G25  25936342.508                       -2977.043          25.000    25936359.644   106205041.479       -2317.666          32.000  
G29  23671554.861   124394878.798        1109.918          46.000    23671557.711    96931074.410         864.776          40.000  
> 2025 04 04 11 17 30.0060000  0 10                     
G05  22873420.826   120200676.919       -2222.970          48.000    22873420.100    93662855.184       -1731.988          39.000  
G06  26188092.364   137619427.499       -3054.370          36.000    26188109.274   107235939.837       -2380.306          33.000  
G12  26018898.652   136730286.095       -3627.175          29.000    26018906.272                       -2824.971          25.000  
G11  24108657.392   126691844.013       -2223.412          34.000    24108661.321    98720942.538       -1733.264          38.000  
G20  24152455.105   126922004.313       -2925.028          37.000                                                                  
G13  21835951.625   114748691.886        -494.655          40.000                                                                  
G30  26941881.199   141580537.638       -1077.751          27.000    26941886.835                        -842.654          23.000  
G15  22818022.402   119909539.705        1351.444          47.000    22818023.374    93436021.640        1052.566          36.000  
G25  25936906.844                       -2976.794          26.000    25936925.865   106207360.368       -2317.620          31.000  
G29  23671343.738   124393769.037        1109.351          45.000    23671346.585    96930209.685         864.230          40.000  
> 2025 04 04 11 17 31.0060000  0 10                     
G05  22873843.812   120202899.737       -2222.868          48.000    22873843.108    93664587.276       -1731.976          39.000  
G06  26188673.688   137622481.848       -3054.231          35.000    26188690.670   107238319.894       -2380.620          32.000  
G12  26019588.868   136733912.507       -3625.915          31.000    26019597.135                       -2825.451          25.000  
G11  24109080.580   126694068.187       -2224.323          35.000    24109084.526    98722675.622       -1733.031          37.000  
G20  24153011.497   126924929.276       -2925.010          37.000                                                                  
G13  21836045.802   114749186.788        -495.015          38.000                                                                  
G30  26942085.004   141581616.417       -1079.682          29.000    26942093.077                        -841.619          24.000  
G15  22817765.220   119908188.608        1350.774          47.000    22817766.326    93434968.826        1052.607          35.000  
G25  25937469.860                       -2975.865          24.000    25937492.107   106209679.596       -2319.080          31.000  
G29  23671132.664   124392659.970        1108.845          46.000    23671135.568    96929345.493         863.880          40.000  
> 2025 04 04 11 17 32.0060000  0 10                     
G05  22874266.843   120205122.564       -2222.658          48.000    22874266.145    93666319.357       -1732.061          39.000  
G06  26189255.030   137625536.291       -3054.005          35.000    26189271.977   107240699.898       -2379.818          31.000  
G12  26020279.188   136737538.728       -3625.820          31.000    26020287.331                       -2825.973          25.000  
G11  24109504.093   126696292.352       -2224.551          35.000    24109507.679    98724408.785       -1733.351          37.000  
G20  24153567.990   126927854.102       -2924.822          37.000                                                                  
G13  21836140.166   114749682.203        -495.819          38.000                                                                  
G30  26942286.019   141582695.378       -1079.368          28.000    26942301.029                        -844.785          23.000  
G15  22817508.044   119906837.773        1350.912          47.000    22817509.322    93433916.245        1051.812          35.000  
G25  25938032.066                       -2976.006          25.000    25938058.509   106211998.758       -2319.542          31.000  
G29  23670921.676   124391551.229        1108.460          46.000    23670924.684    96928481.555         863.858          40.000  
> 2025 04 04 11 17 33.0060000  0 10                     
G05  22874689.815   120207345.419       -2222.887          48.000    22874689.135    93668051.440       -1732.326          38.000  
G06  26189836.445   137628590.833       -3054.668          35.000    26189853.243   107243080.071       -2380.159          30.000  
G12  26020969.169   136741164.716       -3625.963          31.000    26020978.282   106551555.4981      -2825.522          26.000  
G11  24109927.394   126698516.764       -2224.487          38.000    24109930.870    98726142.051       -1733.479          37.000  
G20  24154124.516   126930778.795       -2924.684          37.000                                                                  
G13  21836234.579   114750178.240        -496.495          37.000                                                                  
G30  26942490.870   141583774.397       -1078.192          26.000    26942505.760                        -838.301          22.000  
G15  22817251.111   119905487.321        1350.292          47.000    22817252.334    93432863.947        1052.317          35.000  
G25  25938594.552   136308233.8133      -2976.531          25.000    25938624.851   106214317.910       -2319.441          31.000  
G29  23670710.807   124390442.859        1108.067          46.000    23670713.808    96927617.885         863.392          40.000  
> 2025 04 04 11 17 34.0060000  0 10                     
G05  22875112.944   120209568.438       -2223.246          48.000    22875112.140    93669783.680       -1732.454          38.000  
G06  26190417.855   137631645.570       -3054.406          34.000    26190434.726   107245460.499       -2380.535          29.000  
G12  26021659.085   136744790.660       -3626.272          32.000    26021669.587   106554380.919       -2825.601          26.000  
G11  24110350.728   126700741.384       -2225.053          36.000    24110354.246    98727875.534       -1733.686          37.000  
G20  24154681.095   126933703.501       -2924.925          36.000                                                                  
G13  21836329.169   114750674.988        -497.039          37.000                                                                  
G30  26942689.783                       -1079.148          26.000    26942712.017                        -842.434          22.000  
G15  22816994.191   119904137.346        1349.532          47.000    22816995.324    93431812.046        1051.423          35.000  
G25  25939160.379   136311207.2733      -2977.345          26.000    25939191.277   106216637.162       -2319.053          32.000  
G29  23670499.956   124389334.977        1107.395          46.000    23670503.001    96926754.631         862.676          40.000  
> 2025 04 04 11 17 35.0060000  0 10                     
G05  22875536.043   120211791.757       -2223.269          48.000    22875535.147    93671516.137       -1732.871          38.000  
G06  26190999.125   137634700.767       -3055.625          34.000    26191016.160   107247841.114       -2380.749          29.000  
G12  26022348.952   136748416.610       -3625.635          32.000    26022360.276   106557206.369       -2825.761          27.000  
G11  24110774.265   126702966.403       -2225.148          36.000    24110777.620    98729609.311       -1733.855          38.000  
G20  24155237.454   126936628.340       -2924.983          36.000                                                                  
G13  21836423.885   114751172.549        -498.231          37.000                                                                  
G30  26942889.035                       -1078.367          25.000    26942917.371                        -844.053          22.000  
G15  22816737.471   119902787.945        1349.254          47.000    22816738.627    93430760.578        1051.140          36.000  
G25  25939727.253   136314185.8393      -2977.245          27.000    25939757.775   106218956.604       -2319.703          32.000  
G29  23670289.214   124388227.705        1106.964          47.000    23670292.285    96925891.838         862.302          40.000  
> 2025 04 04 11 17 36.0060000  0 10                     
G05  22875959.141   120214015.378       -2223.775          47.000    22875958.184    93673248.856       -1732.918          38.000  
G06  26191580.538   137637756.270       -3056.129          35.000    26191597.618   107250222.068       -2381.547          28.000  
G12  26023038.806   136752042.595       -3626.286          32.000    26023050.353   106560031.787       -2825.446          26.000  
G11  24111197.812   126705191.801       -2226.198          36.000    24111201.059    98731343.425       -1734.903          38.000  
G20  24155793.929   126939553.245       -2925.779          36.000                                                                  
G13  21836518.804   114751670.908        -498.892          37.000                                                                  
G30  26943096.267                       -1081.688          25.000    26943122.048                        -837.435          21.000  
G15  22816480.708   119901439.171        1348.215          47.000    22816481.984    93429709.572        1050.308          36.000  
G25  25940292.737   136317157.6162      -2977.095          26.000    25940324.339   106221276.296       -2320.909          33.000  
G29  23670078.566   124387121.035        1106.065          46.000    23670081.661    96925029.492         862.072          40.000  
> 2025 04 04 11 17 37.0060000  0 10                     
G05  22876382.394   120216239.243       -2223.972          48.000    22876381.323    93674981.682       -1733.045          38.000  
G06  26192162.032   137640812.040       -3056.211          35.000    26192179.112   107252603.160       -2381.012          28.000  
G12  26023728.764   136755668.607       -3626.352          32.000    26023740.269   106562857.232       -2825.073          26.000  
G11  24111621.343   126707417.574       -2226.101          39.000    24111624.511    98733077.681       -1734.298          39.000  
G20  24156350.538   126942478.132       -2924.752          35.000                                                                  
G13  21836613.889   114752170.038        -499.467          41.000                                                                  
G30  26943303.149                       -1079.543          26.000    26943327.828                        -843.838          21.000  
G15  22816224.163   119900090.892        1347.937          47.000    22816225.369    93428658.985        1050.533          37.000  
G25  25940858.577   136320131.6732      -2977.263          26.000    25940890.833   106223595.994       -2320.022          32.000  
G29  23669868.102   124386014.932        1105.765          46.000    23669871.198    96924167.558         861.911          40.000  
> 2025 04 04 11 17 38.0060000  0 10                     
G05  22876805.643   120218463.464       -2224.634          48.000    22876804.600    93676714.863       -1733.696          40.000  
G06  26192743.646   137643868.279       -3056.665          35.000    26192760.781   107254984.653       -2382.139          30.000  
G12  26024418.840   136759294.677       -3626.510          32.000    26024430.825   106565682.748       -2825.691          26.000  
G11  24112044.946   126709643.762       -2226.302          39.000    24112048.156    98734812.439       -1735.073          38.000  
G20  24156907.251   126945403.239       -2925.266          34.000                                                                  
G13  21836709.125   114752670.073        -500.548          43.000                                                                  
G30  26943510.417                       -1081.288          26.000    26943533.433                        -838.746          20.000  
G15  22815967.717   119898743.254        1347.277          47.000    22815968.951    93427608.901        1049.709          36.000  
G25  25941425.687   136323109.0422      -2977.391          26.000    25941457.447   106225916.095       -2321.335          32.000  
G29  23669657.762   124384909.462        1104.893          46.000    23669660.783    96923306.178         861.089          40.000  
> 2025 04 04 11 17 39.0060000  0 10                     
G05  22877228.933   120220687.941       -2224.618          48.000    22877227.941    93678448.211       -1733.541          40.000  
G06  26193325.329   137646924.839       -3056.560          35.000    26193342.561   107257366.370       -2381.630          30.000  
G12  26025108.827   136762920.773       -3626.109          31.000    26025119.821   106568508.326       -2825.882          28.000  
G11  24112468.674   126711870.349       -2226.969          39.000    24112471.857    98736547.402       -1735.217          37.000  
G20  24157464.049   126948328.476       -2925.365          33.000                                                                  
G13  21836804.487   114753170.921        -501.180          43.000                                                                  
G30  26943716.993   141590187.9143      -1082.520          27.000    26943740.455                        -845.048          20.000  
G15  22815711.300   119897396.229        1346.731          47.000    22815712.731    93426559.300        1048.742          36.000  
G25  25941991.752   136326086.6012      -2976.861          25.000    25942024.107   106228236.306       -2320.992          33.000  
G29  23669447.458   124383804.606        1104.492          45.000    23669450.479    96922445.267         860.563          40.000  
> 2025 04 04 11 17 40.0060000  0 10                     
G05  22877652.174   120222912.423       -2224.867          48.000    22877651.301    93680181.585       -1733.872          40.000  
G06  26193907.127   137649981.484       -3057.192          36.000    26193923.961   107259748.160       -2381.261          30.000  
G12  26025798.962   136766546.669       -3626.406          32.000    26025808.497   106571333.685       -2825.058          28.000  
G11  24112892.385   126714097.010       -2227.412          39.000    24112895.581    98738282.459       -1735.147          37.000  
G20  24158020.794   126951253.545       -2925.688          34.000                                                                  
G13  21836900.094   114753672.294        -502.197          43.000                                                                  
G30  26943926.235   141591270.1492      -1082.870          28.000    26943945.411                        -852.934          19.000  
G15  22815455.064   119896049.495        1346.094          47.000    22815456.448    93425509.862        1049.035          37.000  
G25  25942560.926   136329064.1792      -2977.868          26.000    25942590.678   106230556.447       -2319.874          33.000  
G29  23669237.369   124382700.064        1103.841          46.000    23669240.227    96921584.576         860.242          39.000  
> 2025 04 04 11 17 41.0060000  0 10                     
G05  22878075.541   120225137.069       -2224.653          47.000    22878074.614    93681915.061       -1733.594          41.000  
G06  26194488.849   137653038.323       -3056.751          35.000    26194505.508   107262130.111       -2381.762          30.000  
G12  26026489.110   136770172.447       -3625.312          32.000    26026498.048   106574158.936       -2824.780          27.000  
G11  24113316.096   126716323.880       -2226.843          40.000    24113319.437    98740017.710       -1735.675          36.000  
G20  24158577.442   126954178.530       -2924.909          35.000                                                                  
G13  21836995.727   114754174.352        -502.317          43.000                                                                  
G30  26944131.399   141592352.6682      -1082.409          28.000    26944150.289                        -839.072          19.000  
G15  22815198.796   119894703.192        1345.999          46.000    22815200.216    93424460.828        1048.559          36.000  
G25  25943131.830   136332041.8492      -2977.624          26.000    25943157.352   106232876.736       -2320.763          33.000  
G29  23669027.271   124381595.972        1103.993          45.000    23669030.129    96920724.250         860.394          40.000  
> 2025 04 04 11 17 42.0060000  0 10                     
G05  22878498.899   120227361.914       -2224.837          47.000    22878498.085    93683648.730       -1733.724          41.000  
G06  26195070.505   137656095.479       -3057.227          35.000    26195087.211   107264512.388       -2382.610          29.000  
G12  26027179.414   136773798.226       -3625.970          33.000    26027186.523   106576984.231       -2825.436          26.000  
G11  24113739.946   126718551.115       -2227.880          40.000    24113743.313    98741753.201       -1735.666          36.000  
G20  24159134.093   126957103.597       -2925.342          35.000                                                                  
G13  21837091.498   114754677.153        -503.187          43.000                                                                  
G30  26944340.063   141593435.6542      -1083.060          27.000    26944356.303                        -844.990          18.000  
G15  22814942.742   119893357.434        1345.349          46.000    22814944.084    93423412.187        1048.022          36.000  
G25  25943701.189   136335019.6082      -2976.837          26.000    25943724.034   106235197.133       -2320.693          32.000  
G29  23668817.333   124380492.438        1103.081          45.000    23668820.073    96919864.377         859.686          39.000  
> 2025 04 04 11 17 43.0060000  0 10                     
G05  22878922.459   120229587.180       -2225.436          47.000    22878921.533    93685382.734       -1734.203          40.000  
G06  26195652.429   137659153.165       -3058.484          34.000    26195669.142   107266894.958       -2382.614          29.000  
G12  26027869.828   136777424.128       -3625.636          34.000    26027874.147                       -2825.200          25.000  
G11  24114163.940   126720778.753       -2227.795          39.000    24114167.192    98743489.067       -1736.505          35.000  
G20  24159690.720   126960028.804       -2925.409          36.000                                                                  
G13  21837187.494   114755180.931        -503.892          40.000                                                                  
G30  26944548.853   141594518.8361      -1083.915          29.000    26944561.952                        -846.320          21.000  
G15  22814686.747   119892012.384        1344.669          47.000    22814688.069    93422364.110        1047.987          35.000  
G25  25944269.962   136337997.888       -2978.762          26.000    25944290.918   106237517.870       -2321.627          31.000  
G29  23668607.377   124379389.662        1102.614          46.000    23668610.148    96919005.072         859.159          39.000  
> 2025 04 04 11 17 44.0060000  0 10                     
G05  22879346.112   120231812.935       -2225.815          47.000    22879345.040    93687117.068       -1734.170          40.000  
G06  26196234.483   137662211.378       -3058.201          33.000    26196251.158   107269278.128       -2383.210          28.000  
G12  26028560.258   136781050.319       -3626.259          35.000    26028562.733                       -2826.369          25.000  
G11  24114587.935   126723007.080       -2228.445          41.000    24114591.029    98745225.341       -1736.173          34.000  
G20  24160247.232   126962954.408       -2925.890          36.000                                                                  
G13  21837283.641   114755685.716        -505.053          41.000                                                                  
G30  26944754.195   141595603.155       -1085.178          30.000    26944768.821                        -846.376          23.000  
G15  22814430.948   119890668.118        1343.936          47.000    22814432.243    93421316.652        1046.861          35.000  
G25  25944840.374   136340976.506       -2978.691          26.000    25944857.739   106239838.823       -2320.875          32.000  
G29  23668397.689   124378287.677        1101.604          46.000    23668400.379    96918146.384         858.317          38.000  
> 2025 04 04 11 17 45.0060000  0 10                     
G05  22879769.773   120234039.042       -2226.432          48.000    22879768.689    93688851.717       -1735.033          40.000  
G06  26196816.578   137665269.961       -3058.779          32.000    26196833.367   107271661.495       -2383.760          29.000  
G12  26029250.407   136784676.589       -3626.350          34.000    26029251.558                       -2827.084          24.000  
G11  24115012.145   126725235.864       -2228.901          40.000    24115015.097    98746962.115       -1737.521          35.000  
G20  24160803.889   126965880.117       -2925.986          36.000                                                                  
G13  21837379.886   114756191.418        -506.173          40.000                                                                  
G30  26944958.195   141596687.979       -1084.989          32.000    26944974.372                        -842.466          22.000  
G15  22814175.239   119889324.525        1343.078          47.000    22814176.638    93420269.682        1046.644          35.000  
G25  25945407.034   136343955.451       -2977.999          30.000    25945424.563   106242160.107       -2321.629          32.000  
G29  23668188.102   124377186.346        1100.729          45.000    23668190.775    96917288.205         858.219          39.000  
> 2025 04 04 11 17 46.0060000  0 10                     
G05  22880193.455   120236265.511       -2226.945          47.000    22880192.417    93690586.643       -1735.387          40.000  
G06  26197398.764   137668329.038       -3059.259          32.000    26197415.720   107274045.239       -2384.610          29.000  
G12  26029940.485   136788302.949       -3626.799          33.000    26029940.980                       -2827.021          24.000  
G11  24115436.385   126727465.122       -2230.039          40.000    24115439.190    98748699.168       -1736.897          38.000  
G20  24161360.583   126968806.084       -2926.529          35.000                                                                  
G13  21837476.288   114756697.996        -507.005          40.000                                                                  
G30  26945161.542   141597773.394       -1085.437          32.000    26945182.283                        -843.828          22.000  
G15  22813919.682   119887981.589        1342.402          47.000    22813921.013    93419223.233        1045.716          36.000  
G25  25945976.448   136346934.738       -2979.552          31.000    25945991.461   106244481.610       -2321.707          32.000  
G29  23667978.659   124376085.682        1100.042          46.000    23667981.296    96916430.568         857.121          40.000  
> 2025 04 04 11 17 47.0060000  0 10                     
G05  22880617.196   120238492.304       -2226.795          47.000    22880616.124    93692321.793       -1735.052          40.000  
G06  26197980.953   137671388.449       -3059.497          32.000    26197997.938   107276429.158       -2384.379          28.000  
G12  26030630.852   136791929.366       -3626.467          34.000    26030630.507                       -2826.804          25.000  
G11  24115860.744   126729694.698       -2229.426          42.000    24115863.323    98750436.481       -1736.974          37.000  
G20  24161917.417   126971732.028       -2926.006          36.000                                                                  
G13  21837572.936   114757205.373        -507.846          40.000                                                                  
G30  26945369.892   141598859.320       -1085.818          32.000    26945388.385                        -848.192          22.000  
G15  22813664.176   119886639.245        1342.233          47.000    22813665.549    93418177.276        1045.768          36.000  
G25  25946543.172   136349914.218       -2978.197          31.000    25946558.435   106246803.345       -2322.098          32.000  
G29  23667769.338   124374985.634        1100.107          45.000    23667771.968    96915573.387         857.071          39.000  
> 2025 04 04 11 17 48.0060000  0 10                     
G05  22881040.944   120240719.276       -2227.015          47.000    22881039.844    93694057.095       -1735.389          40.000  
G06  26198563.115   137674448.034       -3059.150          34.000    26198580.630                       -2384.592          28.000  
G12  26031321.132   136795555.741       -3626.218          33.000    26031319.954                       -2826.148          25.000  
G11  24116285.047   126731924.558       -2229.994          41.000    24116287.668    98752174.015       -1737.515          34.000  
G20  24162474.051   126974658.070       -2925.862          39.000                                                                  
G13  21837669.626   114757713.461        -508.444          42.000                                                                  
G30  26945578.555   141599945.648       -1086.724          30.000    26945594.848                        -847.989          23.000  
G15  22813408.777   119885297.405        1341.746          47.000    22813410.152    93417131.696        1045.678          36.000  
G25  25947106.437   136352893.907       -2979.125          30.000    25947125.574   106249125.154       -2321.629          32.000  
G29  23667560.122   124373886.119        1099.217          44.000    23667562.641    96914716.632         856.844          39.000  
> 2025 04 04 11 17 49.0060000  0 10                     
G05  22881464.743   120242946.300       -2227.052          47.000    22881463.625    93695792.434       -1735.182          40.000  
G06  26199145.537   137677507.841       -3059.592          36.000    26199161.023                       -2384.615          26.000  
G12  26032011.186   136799181.907       -3626.101          34.000    26032011.663                       -2825.503          26.000  
G11  24116709.553   126734154.596       -2229.833          40.000    24116713.108                       -1736.887          27.000  
G20  24163030.783   126977583.978       -2925.637          40.000                                                                  
G13  21837766.514   114758222.159        -509.182          43.000                                                                  
G30  26945785.781   141601032.211       -1086.322          29.000    26945800.173                        -846.580          22.000  
G15  22813153.450   119883955.923        1341.441          46.000    22813154.964    93416086.405        1045.087          36.000  
G25  25947672.763   136355940.6763      -2980.378          29.000    25947692.645   106251447.004       -2321.896          32.000  
G29  23667350.993   124372786.957        1099.157          44.000    23667353.400    96913860.159         856.198          39.000  
> 2025 04 04 11 17 50.0060000  0 10                     
G05  22881888.639   120245173.612       -2227.538          47.000    22881887.521    93697528.005       -1735.537          40.000  
G06  26199727.937   137680567.995       -3060.574          35.000    26199743.534                       -2383.686          25.000  
G12  26032701.424   136802808.094       -3626.610          34.000    26032701.934                       -2824.759          26.000  
G11  24117133.972   126736385.033       -2230.573          38.000    24117137.725    98755646.7611      -1737.997          30.000  
G20  24163587.484   126980509.974       -2926.463          40.000                                                                  
G13  21837863.563   114758731.692        -509.783          43.000                                                                  
G30  26945993.845   141602119.237       -1086.888          28.000    26946006.777                        -845.545          22.000  
G15  22812898.248   119882615.024        1340.559          47.000    22812899.852    93415041.546        1044.562          37.000  
G25  25948243.567   136358920.5342      -2980.083          29.000    25948259.898   106253768.986       -2321.727          32.000  
G29  23667141.962   124371688.406        1098.275          45.000    23667144.364    96913004.138         855.735          39.000  
> 2025 04 04 11 17 51.0060000  0 10                     
G05  22882312.487   120247401.384       -2228.317          47.000    22882311.412    93699263.936       -1736.321          40.000  
G06  26200310.487   137683628.700       -3061.409          35.000    26200325.185                       -2385.615          24.000  
G12  26033391.647   136806434.542       -3626.550          35.000    26033393.417                       -2827.125          26.000  
G11  24117558.536   126738616.057       -2231.484          40.000    24117563.593    98757385.236       -1739.701          34.000  
G20  24164144.349   126983436.215       -2926.927          39.000                                                                  
G13  21837960.759   114759242.234        -511.537          42.000                                                                  
G30  26946200.230   141603206.953       -1087.972          30.000    26946214.687                        -848.530          24.000  
G15  22812643.121   119881274.905        1339.365          46.000    22812644.935    93413997.291        1043.856          36.000  
G25  25948807.420   136361900.8622      -2980.299          29.000    25948827.105   106256091.355       -2322.642          31.000  
G29  23666933.040   124370590.632        1096.915          45.000    23666935.415    96912148.755         854.734          39.000  
> 2025 04 04 11 17 52.0060000  0 10                     
G05  22882736.439   120249629.652       -2228.146          47.000    22882735.458    93701000.255       -1736.037          40.000  
G06  26200893.146   137686689.919       -3061.163          35.000    26200907.039                       -2391.508          23.000  
G12  26034081.723   136810061.201       -3626.464          36.000    26034083.587                       -2825.327          25.000  
G11  24117983.232   126740847.652       -2231.825          38.000    24117985.625    98759124.124       -1739.057          31.000  
G20  24164701.141   126986362.861       -2926.483          39.000                                                                  
G13  21838058.091   114759753.767        -511.885          42.000                                                                  
G30  26946407.220   141604295.379       -1088.114          29.000    26946421.413                        -859.593          23.000  
G15  22812388.245   119879935.587        1339.351          46.000    22812390.054    93412953.647        1043.717          36.000  
G25  25949372.136   136364881.6762      -2980.354          30.000    25949394.467   106258414.064       -2322.687          31.000  
G29  23666724.218   124369493.672        1096.843          45.000    23666726.602    96911293.993         854.538          39.000  
> 2025 04 04 11 17 53.0060000  0 10                     
G05  22883160.418   120251857.901       -2228.285          47.000    22883159.530    93702736.569       -1736.070          39.000  
G06  26201475.810   137689751.313       -3061.177          35.000    26201489.654                       -2384.269          23.000  
G12  26034771.725   136813687.668       -3626.372          37.000    26034774.504                       -2825.101          25.000  
G11  24118407.933   126743079.280       -2231.818          39.000    24118409.551                       -1738.720          22.000  
G20  24165257.833   126989289.276       -2926.037          40.000                                                                  
G13  21838155.501   114760265.828        -512.162          41.000                                                                  
G30  26946614.320   141605383.926       -1088.733          28.000    26946628.209                        -843.838          21.000  
G15  22812133.341   119878596.557        1338.955          46.000    22812135.324    93411910.304        1042.875          36.000  
G25  25949943.129   136367862.4482      -2980.532          29.000    25949961.669   106260736.757       -2322.861          32.000  
G29  23666515.509   124368397.039        1096.421          45.000    23666517.924    96910439.457         854.216          39.000  
> 2025 04 04 11 17 54.0060000  0 10                     
G05  22883584.429   120254086.379       -2228.764          47.000    22883583.608    93704473.060       -1736.468          39.000  
G06  26202058.572   137692812.880       -3061.765          35.000    26202071.670                       -2385.315          25.000  
G12  26035461.954   136817314.035       -3626.337          37.000    26035466.475                       -2826.492          26.000  
G11  24118832.720   126745311.310       -2232.506          39.000    24118836.370                       -1739.245          21.000  
G20  24165814.743   126992215.677       -2926.381          41.000                                                                  
G13  21838253.081   114760778.642        -513.192          41.000                                                                  
G30  26946821.538   141606473.008       -1088.591          29.000    26946835.491                        -843.245          19.000  
G15  22811878.716   119877258.061        1338.022          46.000    22811880.629    93410867.319        1042.297          36.000  
G25  25950510.833   136370843.3772      -2980.603          30.000    25950528.860   106263059.536       -2322.379          32.000  
G29  23666306.909   124367300.912        1095.870          44.000    23666309.288    96909585.348         853.763          39.000  
> 2025 04 04 11 17 55.0060000  0 10                     
G05  22884008.373   120256314.850       -2228.502          47.000    22884007.642    93706209.517       -1736.141          39.000  
G06  26202641.350   137695874.595       -3062.656          34.000    26202654.728                       -2380.943          24.000  
G12  26036151.902   136820940.184       -3626.219          36.000    26036158.442                       -2825.316          26.000  
G11  24119257.470   126747543.482       -2232.397          39.000    24119260.079    98764337.6301      -1739.383          36.000  
G20  24166371.566   126995141.840       -2925.936          37.000                                                                  
G13  21838350.804   114761292.022        -513.531          42.000                                                                  
G30  26947028.451   141607562.259       -1089.954          29.000    26947043.612                        -844.973          22.000  
G15  22811624.088   119875919.828        1338.096          46.000    22811625.977    93409824.539        1042.663          36.000  
G25  25951078.828   136373824.231       -2980.943          30.000    25951096.132   106265382.267       -2322.199          31.000  
G29  23666098.306   124366205.093        1095.790          44.000    23666100.690    96908731.500         853.417          39.000  
> 2025 04 04 11 17 56.0060000  0 10                     
G05  22884432.564   120258543.611       -2228.887          47.000    22884431.772    93707946.227       -1736.764          39.000  
G06  26203224.171   137698936.608       -3062.445          32.000    26203238.141   107297879.2201      -2387.135          31.000  
G12  26036841.986   136824566.332       -3625.917          35.000    26036848.980   106616543.8401      -2825.660          27.000  
G11  24119682.350   126749775.990       -2232.620          38.000    24119682.302    98766077.253       -1739.701          35.000  
G20  24166928.408   126998068.144       -2926.157          33.000                                                                  
G13  21838448.525   114761806.172        -514.824          41.000                                                                  
G30  26947235.979   141608651.933       -1090.410          29.000    26947253.167                        -854.730          24.000  
G15  22811369.538   119874582.208        1337.142          46.000    22811371.517    93408782.219        1042.022          36.000  
G25  25951646.786   136376805.418       -2983.024          30.000    25951663.417   106267705.208       -2322.853          31.000  
G29  23665889.842   124365109.898        1094.938          45.000    23665892.299    96907878.066         853.227          39.000  
> 2025 04 04 11 17 57.0060000  0 10                     
G05  22884856.752   120260772.598       -2229.485          47.000    22884855.931    93709683.098       -1737.103          39.000  
G06  26203810.639   137701953.9563      -3063.213          31.000    26203820.422   107300265.530       -2388.097          23.000  
G12  26037532.042   136828192.486       -3626.221          35.000    26037539.722   106619369.431       -2825.935          27.000  
G11  24120107.381   126752008.854       -2233.778          38.000    24120107.694    98767817.141       -1739.981          35.000  
G20  24167485.334   127000994.645       -2926.574          34.000                                                                  
G13  21838546.555   114762321.101        -515.352          40.000                                                                  
G30  26947443.187   141609742.109       -1091.496          28.000    26947461.910                        -853.180          25.000  
G15  22811115.010   119873245.139        1336.412          46.000    22811117.130    93407740.348        1041.900          36.000  
G25  25952215.728   136379786.570       -2981.578          30.000    25952230.817   106270028.313       -2323.155          31.000  
G29  23665681.475   124364015.238        1094.193          46.000    23665683.927    96907025.095         852.790          38.000  
> 2025 04 04 11 17 58.0060000  0 10                     
G05  22885280.883   120263001.783       -2229.482          47.000    22885280.091    93711420.091       -1737.001          39.000  
G06  26204394.947   137705016.4942      -3063.127          31.000    26204400.577   107302651.889       -2387.438          27.000  
G12  26038222.140   136831818.586       -3626.289          35.000    26038229.067   106622194.945       -2825.630          27.000  
G11  24120532.420   126754241.965       -2233.598          38.000    24120531.783    98769557.264       -1740.793          37.000  
G20  24168042.258   127003921.005       -2927.014          33.000                                                                  
G13  21838644.596   114762836.717        -516.214          43.000                                                                  
G30  26947651.899                       -1087.420          25.000    26947670.471                        -847.965          23.000  
G15  22810860.652   119871908.533        1336.239          46.000    22810862.836    93406698.850        1040.736          37.000  
G25  25952784.199   136382768.078       -2982.406          30.000    25952798.205   106272351.522       -2323.469          32.000  
G29  23665473.158   124362921.114        1093.292          43.000    23665475.595    96906172.534         852.215          39.000  
> 2025 04 04 11 17 59.0060000  0 10                     
G05  22885705.175   120265231.594       -2229.896          47.000    22885704.422    93713157.634       -1737.604          39.000  
G06  26204972.787   137708079.7042      -3063.275          35.000    26204982.877   107305038.897       -2387.471          32.000  
G12  26038912.217   136835445.076       -3626.371          35.000    26038918.811   106625020.748       -2825.035          26.000  
G11  24120957.623   126756475.754       -2233.668          38.000    24120956.919    98771297.923       -1741.049          37.000  
G20  24168599.410   127006847.941       -2926.653          31.000                                                                  
G13  21838742.798   114763353.581        -517.170          44.000                                                                  
G30  26947859.071                       -1090.497          25.000    26947879.469                        -850.387          23.000  
G15  22810606.575   119870572.873        1335.454          45.000    22810608.754    93405658.082        1040.899          37.000  
G25  25953351.703   136385750.114       -2982.084          29.000    25953365.669   106274675.182       -2323.622          32.000  
G29  23665265.231   124361827.955        1092.816          44.000    23665267.514    96905320.719         851.455          38.000  
> 2025 04 04 11 18 00.0060000  0 10                     
G05  22886129.506   120267461.364       -2230.078          47.000    22886128.687    93714895.135       -1738.083          38.000  
G06  26205557.539   137711143.1352      -3063.623          34.000    26205566.235   107307425.867       -2386.188          31.000  
G12  26039602.496   136839071.303       -3626.216          35.000    26039608.011                       -2825.789          26.000  
G11  24121382.852   126758709.648       -2234.251          37.000    24121383.596    98773038.579       -1740.846          36.000  
G20  24169156.426   127009774.527       -2926.894          31.000                                                                  
G13  21838841.250   114763870.925        -517.842          45.000                                                                  
G30  26948065.855                       -1092.916          24.000    26948087.885                        -861.214          21.000  
G15  22810352.212   119869237.500        1335.079          45.000    22810354.641    93404617.529        1040.208          38.000  
G25  25953919.075   136388732.040       -2981.573          30.000    25953933.239   106276998.806       -2323.828          31.000  
G29  23665057.164   124360735.082        1092.382          45.000    23665059.503    96904469.149         851.202          38.000  
> 2025 04 04 11 18 01.0060000  0 10                     
G05  22886553.918   120269691.581       -2230.344          48.000    22886553.036    93716632.966       -1737.684          37.000  
G06  26206141.471   137714206.931       -3063.730          37.000    26206148.609   107309813.332       -2387.116          29.000  
G12  26040292.494   136842697.666       -3625.745          36.000    26040297.771                       -2824.678          26.000  
G11  24121808.154   126760944.022       -2234.938          37.000    24121807.488    98774779.649       -1741.043          29.000  
G20  24169713.412   127012701.454       -2926.857          35.000                                                                  
G13  21838939.837   114764389.237        -518.634          45.000                                                                  
G30  26948270.226                       -1098.694          23.000    26948295.052                        -850.332          19.000  
G15  22810098.235   119867902.850        1334.697          45.000    22810100.740    93403577.552        1040.271          38.000  
G25  25954486.698   136391714.368       -2981.964          31.000    25954500.973   106279322.712       -2323.779          31.000  
G29  23664849.168   124359642.950        1092.302          45.000    23664851.695    96903618.107         851.416          38.000  
> 2025 04 04 11 18 02.0060000  0 10                     
G05  22886978.383   120271922.027       -2230.844          48.000    22886977.435    93718370.976       -1738.125          38.000  
G06  26206723.732   137717271.095       -3064.291          37.000    26206730.684   107312201.034       -2388.422          28.000  
G12  26040982.593   136846324.036       -3626.613          36.000    26040985.335                       -2825.620          25.000  
G11  24122233.441   126763178.812       -2235.293          38.000    24122232.488    98776521.035       -1741.969          30.000  
G20  24170270.372   127015628.348       -2927.288          35.000                                                                  
G13  21839038.580   114764908.324        -519.924          45.000                                                                  
G30  26948470.951                       -1086.806          22.000    26948502.658                        -855.332          16.000  
G15  22809844.383   119866568.743        1333.558          45.000    22809846.932    93402538.028        1038.543          38.000  
G25  25955054.724   136394696.942       -2983.200          30.000    25955068.639   106281646.759       -2323.909          31.000  
G29  23664641.370   124358551.362        1090.991          44.000    23664643.993    96902767.547         850.599          39.000  
> 2025 04 04 11 18 03.0060000  0 10                     
G05  22887402.792   120274152.669       -2230.880          48.000    22887401.889    93720109.164       -1738.738          38.000  
G06  26207306.970   137720335.536       -3064.839          37.000    26207314.461   107314588.868       -2388.025          28.000  
G12  26041672.763   136849950.367       -3626.602          35.000    26041673.204                       -2828.468          25.000  
G11  24122658.785   126765413.870       -2235.011          38.000    24122657.807    98778262.619       -1741.242          32.000  
G20  24170827.295   127018555.324       -2926.797          35.000                                                                  
G13  21839137.451   114765428.142        -520.370          44.000                                                                  
G30  26948677.317                       -1092.835          21.000    26948712.487                        -848.891          15.000  
G15  22809590.470   119865235.152        1333.077          45.000    22809593.144    93401498.843        1038.457          38.000  
G25  25955622.363   136397679.549       -2982.379          29.000    25955636.414   106283970.948       -2324.394          31.000  
G29  23664433.725   124357460.310        1090.510          45.000    23664436.333    96901917.408         849.688          39.000  
> 2025 04 04 11 18 04.0060000  0 10                     
G05  22887827.233   120276383.527       -2231.216          48.000    22887826.459    93721847.502       -1738.836          38.000  
G06  26207889.633   137723400.211       -3064.806          37.000    26207897.800   107316976.986       -2388.516          28.000  
G12  26042362.914   136853576.666       -3626.662          35.000    26042362.639                       -2826.045          25.000  
G11  24123084.050   126767649.214       -2235.164          38.000    24123083.280    98780004.475       -1742.539          32.000  
G20  24171384.131   127021482.303       -2926.885          36.000                                                                  
G13  21839236.469   114765948.708        -520.926          43.000                                                                  
G30  26948888.377                       -1095.803          21.000    26948920.921                        -856.749          13.000  
G15  22809336.772   119863902.071        1332.906          45.000    22809339.491    93400460.090        1038.885          37.000  
G25  25956190.198   136400662.464       -2982.946          29.000    25956204.021   106286295.268       -2324.891          31.000  
G29  23664226.219   124356369.780        1089.846          45.000    23664228.698    96901067.646         849.280          39.000  
> 2025 04 04 11 18 05.0060000  0 10                     
G05  22888251.822   120278614.844       -2231.377          47.000    22888251.065    93723586.171       -1738.693          39.000  
G06  26208472.799   137726465.438       -3065.467          37.000    26208481.172   107319365.434       -2388.515          28.000  
G12  26043053.029   136857203.161       -3626.378          34.000    26043051.146                       -2825.940          25.000  
G11  24123509.559   126769885.152       -2236.137          39.000    24123508.757    98781746.788       -1743.280          32.000  
G20  24171941.069   127024409.556       -2927.168          36.000                                                                  
G13  21839335.682   114766470.285        -522.164          44.000                                                                  
G30  26949100.143                       -1095.957          22.000    26949128.854                        -844.002          11.000  
G15  22809083.155   119862569.783        1331.882          45.000    22809085.948    93399421.933        1037.685          38.000  
G25  25956758.005   136403645.704       -2982.797          29.000    25956771.606   106288619.866       -2324.644          31.000  
G29  23664018.887   124355280.045        1089.446          45.000    23664021.260    96900218.502         848.850          39.000  
> 2025 04 04 11 18 06.0060000  0 10                     
G05  22888676.469   120280846.439       -2231.764          47.000    22888675.732    93725325.089       -1739.407          39.000  
G06  26209056.148   137729531.064       -3065.784          36.000    26209064.463   107321754.229       -2388.779          27.000  
G12  26043743.205   136860829.649       -3626.573          35.000    26043739.987                       -2826.762          25.000  
G11  24123935.176   126772121.449       -2236.688          39.000    24123934.000    98783489.259       -1742.616          32.000  
G20  24172497.974   127027336.860       -2926.939          36.000                                                                  
G13  21839435.012   114766992.632        -523.058          42.000                                                                  
G30  26949311.072                       -1092.559          22.000                                                                  
G15  22808829.760   119861238.022        1331.325          45.000    22808832.620    93398384.235        1037.473          38.000  
G25  25957325.564   136406629.246       -2983.527          28.000    25957339.309   106290944.687       -2325.875          31.000  
G29  23663811.662   124354190.881        1088.644          45.000    23663813.817    96899369.799         848.256          39.000  
> 2025 04 04 11 18 07.0060000  0 10                     
G05  22889101.048   120283078.281       -2232.087          48.000    22889100.379    93727064.181       -1739.124          39.000  
G06  26209639.433   137732596.994       -3066.274          34.000    26209647.931   107324143.380       -2389.752          27.000  
G12  26044433.366   136864456.193       -3626.739          36.000    26044429.191                       -2825.916          25.000  
G11  24124360.702   126774358.027       -2236.523          37.000    24124359.616    98785232.076       -1743.476          33.000  
G20  24173055.088   127030264.325       -2927.699          36.000                                                                  
G13  21839534.609   114767515.815        -523.523          39.000                                                                  
G30  26949520.884   141620687.3583      -1094.659          27.000                                                                  
G15  22808576.323   119859906.864        1330.755          45.000    22808579.216    93397346.956        1037.185          39.000  
G25  25957893.308   136409612.950       -2983.893          28.000    25957907.112   106293269.659       -2325.462          32.000  
G29  23663604.526   124353102.312        1088.203          45.000    23663606.621    96898521.544         848.057          39.000  
> 2025 04 04 11 18 08.0060000  0 10                     
G05  22889525.789   120285310.461       -2232.635          47.000    22889525.058    93728803.564       -1739.541          39.000  
G06  26210222.906   137735663.335       -3066.373          34.000    26210231.609   107326532.746       -2389.738          27.000  
G12  26045123.564   136868082.850       -3626.683          35.000    26045120.811                       -2825.589          25.000  
G11  24124786.439   126776595.047       -2237.035          37.000    24124785.207    98786975.278       -1743.292          33.000  
G20  24173612.205   127033191.923       -2927.885          38.000                                                                  
G13  21839634.238   114768039.935        -524.702          39.000                                                                  
G30  26949731.773   141621796.0233      -1096.466          30.000                                                                  
G15  22808323.075   119858576.371        1330.231          45.000    22808326.051    93396310.209        1036.419          38.000  
G25  25958461.025   136412597.008       -2984.672          28.000    25958474.779   106295594.862       -2325.464          32.000  
G29  23663397.517   124352014.404        1087.550          45.000    23663399.520    96897673.868         847.312          39.000  
> 2025 04 04 11 18 09.0060000  0 10                     
G05  22889950.602   120287543.251       -2232.783          48.000    22889949.765    93730543.405       -1739.597          38.000  
G06  26210806.446   137738730.339       -3066.511          34.000    26210815.207   107328922.625       -2390.173          26.000  
G12  26045813.683   136871709.865       -3627.032          36.000    26045812.177                       -2826.631          25.000  
G11  24125212.242   126778832.857       -2238.142          37.000    24125210.872    98788718.986       -1743.240          32.000  
G20  24174169.397   127036119.945       -2927.957          38.000                                                                  
G13  21839734.186   114768565.141        -525.494          39.000                                                                  
G30  26949942.400   141622902.3812      -1096.015          30.000                                                                  
G15  22808070.111   119857246.751        1329.636          45.000    22808073.012    93395274.143        1036.265          38.000  
G25  25959028.923   136415581.551       -2984.523          28.000    25959042.393   106297920.498       -2325.128          31.000  
G29  23663190.754   124350927.437        1086.812          44.000    23663192.645    96896826.872         847.131          39.000  
> 2025 04 04 11 18 10.0060000  0 10                     
G05  22890375.553   120289776.369       -2233.091          48.000    22890374.664    93732283.512       -1739.995          38.000  
G06  26211390.027   137741797.757       -3067.246          33.000    26211398.886   107331312.783       -2390.142          27.000  
G12  26046503.976   136875336.898       -3626.389          36.000    26046504.904                       -2825.942          25.000  
G11  24125638.111   126781071.034       -2237.911          37.000    24125636.649    98790463.193       -1743.855          30.000  
G20  24174726.478   127039048.079       -2928.017          37.000                                                                  
G13  21839834.112   114769091.195        -526.579          38.000                                                                  
G30  26950153.832   141624013.3313      -1096.860          32.000                                                                  
G15  22807817.251   119855917.794        1328.732          45.000    22807820.211    93394238.586        1035.405          38.000  
G25  25959596.850   136418566.399       -2984.896          29.000    25959610.332   106300246.405       -2326.169          32.000  
G29  23662984.123   124349841.150        1085.920          44.000    23662985.939    96895980.371         846.562          39.000  
> 2025 04 04 11 18 11.0060000  0 10                     
G05  22890800.553   120292009.910       -2233.851          48.000    22890799.614    93734023.934       -1740.855          38.000  
G06  26211973.684   137744865.614       -3067.831          34.000    26211982.740   107333703.367       -2390.827          27.000  
G12  26047194.268   136878964.181       -3627.564          36.000    26047197.482                       -2826.572          25.000  
G11  24126064.114   126783309.847       -2238.627          39.000    24126062.379    98792207.513       -1744.287          34.000  
G20  24175283.638   127041976.512       -2928.758          37.000                                                                  
G13  21839934.393   114769618.129        -527.824          40.000                                                                  
G30  26950362.674   141625110.9113      -1098.765          33.000    26950368.696                        -855.432          26.000  
G15  22807564.496   119854589.524        1327.597          45.000    22807567.547    93393203.615        1034.647          39.000  
G25  25960164.761   136421551.676       -2986.156          30.000    25960178.347   106302572.529       -2325.951          31.000  
G29  23662777.664   124348755.538        1084.830          45.000    23662779.408    96895134.505         845.516          39.000  
> 2025 04 04 11 18 12.0060000  0 10                     
G05  22891225.659   120294244.021       -2234.374          48.000    22891224.701    93735764.817       -1740.940          38.000  
G06  26212557.621   137747934.131       -3068.827          34.000    26212566.755   107336094.429       -2391.053          28.000  
G12  26047884.530   136882591.715       -3627.006          36.000    26047889.077                       -2826.483          25.000  
G11  24126490.169   126785549.302       -2239.780          41.000    24126488.771    98793952.556       -1745.495          34.000  
G20  24175840.965   127044905.276       -2928.793          37.000                                                                  
G13  21840034.897   114770146.231        -528.750          42.000                                                                  
G30  26950570.566   141626204.1532      -1097.913          32.000    26950576.903   110358110.2921       -856.563          27.000  
G15  22807311.965   119853262.157        1326.951          45.000    22807315.024    93392169.284        1033.991          37.000  
G25  25960732.898   136424537.433       -2985.846          28.000    25960746.372   106304899.138       -2327.388          31.000  
G29  23662571.283   124347670.842        1084.346          45.000    23662572.939    96894289.281         845.001          39.000  
> 2025 04 04 11 18 13.0060000  0 10                     
G05  22891650.784   120296478.495       -2234.791          48.000    22891649.902    93737505.947       -1741.327          38.000  
G06  26213141.810   137751003.066       -3068.479          32.000    26213150.691   107338485.801       -2391.435          26.000  
G12  26048574.941   136886219.392       -3627.274          35.000    26048580.542                       -2826.343          25.000  
G11  24126916.319   126787789.269       -2240.132          35.000    24126915.083    98795698.053       -1745.569          35.000  
G20  24176398.392   127047834.194       -2928.975          37.000                                                                  
G13  21840135.518   114770675.200        -529.401          40.000                                                                  
G30  26950778.616   141627297.0572      -1099.349          30.000    26950786.278   110358966.551        -856.638          26.000  
G15  22807059.435   119851935.452        1326.326          45.000    22807062.556    93391135.480        1033.618          38.000  
G25  25961301.181   136427523.405       -2986.350          28.000    25961314.331   106307225.922       -2327.166          31.000  
G29  23662365.011   124346586.830        1083.708          44.000    23662366.624    96893444.598         844.658          39.000  
> 2025 04 04 11 18 14.0060000  0 10                     
G05  22892076.060   120298713.136       -2234.487          48.000    22892075.186    93739247.257       -1741.085          39.000  
G06  26213726.009   137754072.415       -3069.640          28.000    26213734.764   107340877.485       -2391.382          26.000  
G12  26049265.194   136889847.035       -3627.572          35.000    26049270.790                       -2825.460          25.000  
G11  24127342.550   126790029.414       -2240.073          40.000    24127341.432    98797443.593       -1745.329          36.000  
G20  24176955.870   127050763.162       -2928.657          31.000                                                                  
G13  21840236.283   114771204.939        -529.982          41.000                                                                  
G30  26950988.321   141628396.3142      -1098.378          28.000    26950992.476                        -854.722          25.000  
G15  22806807.010   119850609.246        1326.260          45.000    22806810.192    93390102.067        1033.596          38.000  
G25  25961869.251   136430509.678       -2986.099          28.000    25961882.451   106309552.873       -2327.065          31.000  
G29  23662158.837   124345503.341        1083.391          44.000    23662160.431    96892600.343         844.109          39.000  
> 2025 04 04 11 18 15.0060000  0 10                     
G05  22892501.303   120300947.676       -2234.488          48.000    22892500.424    93740988.432       -1741.089          39.000  
G06  26214309.867   137757141.467       -3068.993          34.000    26214318.585                       -2391.904          25.000  
G12  26049955.345   136893474.276       -3627.339          36.000    26049960.846                       -2823.953          24.000  
G11  24127768.689   126792269.495       -2240.298          38.000    24127766.661                       -1746.417          27.000  
G20  24177513.026   127053691.908       -2928.900          40.000                                                                  
G13  21840337.046   114771735.134        -530.616          44.000                                                                  
G30  26951196.959   141629495.6572      -1098.309          26.000                                                                  
G15  22806554.585   119849283.235        1325.768          45.000    22806557.971    93389068.839        1032.567          38.000  
G25  25962437.245   136433495.728       -2986.222          28.000    25962450.648   106311879.622       -2325.412          32.000  
G29  23661952.688   124344420.045        1083.137          45.000    23661954.234    96891756.225         844.268          39.000  
> 2025 04 04 11 18 16.0060000  0 10                     
G05  22892926.668   120303182.456       -2235.018          48.000    22892925.711    93742729.865       -1741.955          38.000  
G06  26214893.920   137760210.924       -3069.012          32.000    26214903.126   107345645.7941      -2391.756          26.000  
G12  26050645.445   136897101.518       -3627.341          36.000    26050650.889                       -2826.240          24.000  
G11  24128194.957   126794510.081       -2240.926          35.000    24128192.784    98800915.1661      -1746.689          29.000  
G20  24178070.304   127056620.644       -2928.593          38.000                                                                  
G13  21840438.081   114772266.079        -531.357          43.000                                                                  
G30  26951406.183   141630595.3352      -1100.348          25.000                                                                  
G15  22806302.366   119847957.763        1325.092          45.000    22806305.810    93388036.010        1032.466          38.000  
G25  25963005.280   136436481.906       -2985.635          27.000    25963018.953   106314206.634       -2327.353          31.000  
G29  23661746.684   124343337.322        1082.440          45.000    23661748.131    96890912.559         843.265          39.000  
> 2025 04 04 11 18 17.0060000  0  9                     
G05  22893352.020   120305417.408       -2235.078          49.000    22893351.008    93744471.360       -1741.017          38.000  
G06  26215478.243   137763280.726       -3068.821          33.000    26215489.191   107348037.743       -2391.833          26.000  
G12  26051335.527   136900728.680       -3626.672          36.000    26051339.665                       -2830.070          22.000  
G11  24128621.103   126796750.776       -2241.416          37.000    24128617.230    98802661.123       -1745.004          29.000  
G20  24178627.608   127059549.348       -2928.808          38.000                                                                  
G13  21840539.209   114772797.727        -531.915          43.000                                                                  
G15  22806050.266   119846632.780        1324.950          45.000    22806053.696    93387003.596        1031.787          39.000  
G25  25963573.425   136439468.362       -2986.570          27.000    25963587.092   106316533.707       -2327.675          31.000  
G29  23661540.700   124342255.121        1082.012          44.000    23661542.309    96890069.286         843.194          39.000  
> 2025 04 04 11 18 18.0060000  0 10                     
G05  22893777.358   120307652.322       -2234.939          49.000    22893776.323    93746212.894       -1741.435          37.000  
G06  26216062.331   137766350.557       -3069.485          34.000    26216073.598   107350429.863       -2392.331          26.000  
G12  26052025.546   136904355.633       -3627.110          36.000    26052027.973                       -2822.990          23.000  
G11  24129047.359   126798991.632       -2240.939          39.000    24129043.637                       -1746.368          21.000  
G20  24179184.829   127062477.789       -2928.567          37.000                                                                  
G13  21840640.510   114773329.901        -532.496          43.000                                                                  
G30  26951823.980                       -1099.262          24.000                                                                  
G15  22805798.165   119845308.119        1324.499          45.000    22805801.612    93385971.327        1031.942          38.000  
G25  25964141.311   136442454.627       -2985.797          28.000    25964155.133   106318860.760       -2327.741          32.000  
G29  23661334.883   124341173.198        1081.748          44.000    23661336.328    96889226.209         842.824          39.000  
> 2025 04 04 11 18 19.0060000  0 10                     
G05  22894202.677   120309887.215       -2234.838          48.000    22894201.657    93747954.350       -1741.289          38.000  
G06  26216646.586   137769420.487       -3070.471          31.000    26216656.275                       -2392.003          24.000  
G12  26052715.620   136907982.247       -3626.557          36.000    26052716.495                       -2820.759          23.000  
G11  24129473.650   126801232.599       -2240.901          39.000    24129470.492    98806147.3371      -1745.962          34.000  
G20  24179741.941   127065406.028       -2928.006          37.000                                                                  
G13  21840741.771   114773862.541        -532.844          41.000                                                                  
G30  26952035.956                       -1101.837          30.000                                                                  
G15  22805546.210   119843983.673        1324.561          45.000    22805549.627    93384939.290        1032.184          38.000  
G25  25964709.363   136445440.785       -2985.990          27.000    25964723.475   106321187.611       -2326.189          31.000  
G29  23661128.986   124340091.505        1081.600          45.000    23661130.560    96888383.372         842.853          39.000  
> 2025 04 04 11 18 20.0060000  0 10                     
G05  22894627.967   120312122.011       -2234.906          49.000    22894627.020    93749695.723       -1741.305          38.000  
G06  26217230.753   137772490.263       -3069.734          34.000    26217240.454                       -2391.270          24.000  
G12  26053405.659   136911608.499       -3625.850          36.000    26053405.056                       -2822.121          23.000  
G11  24129899.941   126803473.451       -2240.760          43.000    24129899.619    98807893.444       -1746.328          37.000  
G20  24180299.172   127068334.080       -2927.910          34.000                                                                  
G13  21840843.219   114774395.651        -533.277          43.000                                                                  
G30  26952244.881   141635002.1033      -1101.669          31.000                                                                  
G15  22805294.261   119842659.455        1324.203          45.000    22805297.592    93383907.443        1031.763          39.000  
G25  25965277.195   136448426.908       -2985.425          27.000    25965291.556   106323514.468       -2327.032          30.000  
G29  23660923.085   124339010.091        1081.342          45.000    23660924.745    96887540.722         842.649          39.000  
> 2025 04 04 11 18 21.0060000  0 10                     
G05  22895053.202   120314356.727       -2234.915          48.000    22895052.265    93751437.081       -1741.256          38.000  
G06  26217815.207   137775560.040       -3070.272          34.000    26217824.649                       -2394.693          24.000  
G12  26054095.483   136915234.441       -3626.456          36.000    26054095.759                       -2828.537          22.000  
G11  24130326.198   126805714.436       -2241.155          41.000    24130327.821    98809639.688       -1746.417          35.000  
G20  24180856.284   127071261.828       -2927.795          38.000                                                                  
G13  21840944.763   114774929.241        -534.454          40.000                                                                  
G30  26952454.911   141636105.7592      -1100.596          31.000                                                                  
G15  22805042.420   119841335.442        1323.599          45.000    22805045.615    93382875.753        1031.403          38.000  
G25  25965845.247   136451412.814       -2986.508          27.000    25965859.637   106325841.194       -2326.966          31.000  
G29  23660717.250   124337928.883        1080.973          46.000    23660719.012    96886698.228         842.463          39.000  
> 2025 04 04 11 18 22.0060000  0 10                     
G05  22895478.500   120316591.585       -2234.737          48.000    22895477.551    93753178.558       -1741.534          38.000  
G06  26218399.312   137778630.020       -3069.687          33.000    26218407.960                       -2389.885          23.000  
G12  26054785.402   136918860.221       -3625.555          36.000    26054785.066                       -2826.209          23.000  
G11  24130752.657   126807955.595       -2241.074          38.000    24130755.608    98811386.059       -1746.325          35.000  
G20  24181413.346   127074189.525       -2927.782          38.000                                                                  
G13  21841046.385   114775463.453        -534.673          40.000                                                                  
G30  26952663.407   141637201.9413      -1101.628          31.000                                                                  
G15  22804790.532   119840011.882        1323.400          45.000    22804793.771    93381844.411        1031.414          38.000  
G25  25966413.442   136454398.910       -2985.676          26.000    25966427.815   106328167.915       -2325.938          30.000  
G29  23660511.567   124336848.187        1080.693          45.000    23660513.278    96885856.141         842.146          38.000  
> 2025 04 04 11 18 23.0060000  0 10                     
G05  22895903.818   120318826.537       -2234.990          48.000    22895902.882    93754920.078       -1741.751          38.000  
G06  26218983.708   137781700.250       -3070.905          33.000    26218992.924                       -2386.729          21.000  
G12  26055475.310   136922485.905       -3625.658          36.000    26055473.582                       -2825.138          25.000  
G11  24131179.067   126810196.948       -2241.601          39.000    24131182.304    98813132.579       -1746.708          35.000  
G20  24181970.438   127077117.083       -2927.782          38.000                                                                  
G13  21841148.123   114775998.294        -535.201          40.000                                                                  
G30  26952870.536   141638290.3693      -1101.478          29.000                                                                  
G15  22804538.788   119838688.728        1322.651          46.000    22804541.969    93380813.394        1030.610          38.000  
G25  25966981.301   136457385.073       -2986.944          27.000    25966996.032   106330494.779       -2327.430          30.000  
G29  23660305.980   124335767.880        1080.034          44.000    23660307.588    96885014.336         841.450          39.000  
> 2025 04 04 11 18 24.0060000  0 10                     
G05  22896329.232   120321061.713       -2235.250          48.000    22896328.209    93756661.771       -1741.939          38.000  
G06  26219568.178   137784770.686       -3070.510          32.000    26219577.140                       -2396.382          19.000  
G12  26056165.207   136926111.555       -3625.553          36.000    26056163.843                       -2824.865          25.000  
G11  24131605.541   126812438.661       -2241.979          39.000    24131609.414    98814879.328       -1747.159          35.000  
G20  24182527.466   127080044.717       -2927.855          39.000                                                                  
G13  21841249.984   114776533.915        -535.984          40.000                                                                  
G30  26953079.079   141639386.1472      -1101.869          29.000                                                                  
G15  22804287.049   119837366.104        1322.385          45.000    22804290.249    93379782.758        1030.594          38.000  
G25  25967549.334   136460371.301       -2986.535          26.000    25967564.235   106332821.736       -2327.246          30.000  
G29  23660100.567   124334688.123        1079.373          44.000    23660102.086    96884172.944         841.649          39.000  
> 2025 04 04 11 18 25.0060000  0 10                     
G05  22896754.646   120323296.991       -2235.167          48.000    22896753.524    93758403.547       -1741.751          38.000  
G06  26220152.733   137787841.399       -3071.094          32.000    26220162.426                       -2403.179          18.000  
G12  26056855.076   136929737.039       -3625.190          37.000    26056854.659                       -2825.608          25.000  
G11  24132032.074   126814680.553       -2241.956          39.000    24132036.348    98816626.290       -1747.273          36.000  
G20  24183084.519   127082972.261       -2927.629          39.000                                                                  
G13  21841352.011   114777070.149        -536.196          40.000                                                                  
G30  26953289.579   141640492.3532      -1102.321          28.000                                                                  
G15  22804035.464   119836043.902        1322.034          45.000    22804038.578    93378752.499        1030.212          38.000  
G25  25968117.562   136463357.552       -2985.865          26.000    25968132.323   106335148.756       -2327.112          30.000  
G29  23659895.280   124333608.784        1079.000          44.000    23659896.748    96883331.917         841.104          39.000  
> 2025 04 04 11 18 26.0060000  0 10                     
G05  22897180.101   120325532.208       -2235.090          48.000    22897178.804    93760145.276       -1741.636          38.000  
G06  26220737.428   137790911.976       -3070.780          31.000    26220747.162                       -2399.628          20.000  
G12  26057544.723   136933362.222       -3625.298          37.000    26057545.087                       -2824.044          25.000  
G11  24132458.633   126816922.446       -2241.851          37.000    24132462.945    98818373.269       -1746.968          35.000  
G20  24183641.429   127085899.533       -2926.788          39.000                                                                  
G13  21841454.199   114777606.920        -537.017          40.000                                                                  
G30  26953499.946   141641594.5772      -1102.622          28.000                                                                  
G15  22803783.942   119834721.907        1321.707          46.000    22803786.925    93377722.382        1030.004          38.000  
G25  25968685.536   136466343.813       -2985.946          26.000    25968700.477   106337475.698       -2326.566          30.000  
G29  23659689.981   124332529.687        1079.215          44.000    23659691.437    96882491.077         840.910          39.000  
> 2025 04 04 11 18 27.0060000  0 10                     
G05  22897605.414   120327767.424       -2235.409          48.000    22897604.121    93761886.988       -1741.816          39.000  
G06  26221321.701   137793982.616       -3069.894          32.000    26221330.820   107371965.4921      -2393.146          30.000  
G12  26058234.474   136936987.092       -3624.137          36.000    26058235.894                       -2824.947          25.000  
G11  24132885.182   126819164.618       -2242.670          32.000    24132889.553    98820148.4271      -1747.406          35.000  
G20  24184198.390   127088826.486       -2927.195          29.000                                                                  
G13  21841556.337   114778144.121        -537.717          45.000                                                                  
G30  26953709.317   141642697.1782      -1102.791          27.000                                                                  
G15  22803532.446   119833400.211        1321.297          46.000    22803535.488    93376692.516        1029.381          38.000  
G25  25969253.690   136469329.964       -2986.664          27.000    25969268.704   106339802.615       -2327.676          31.000  
G29  23659484.752   124331450.894        1078.723          45.000    23659486.163    96881650.471         840.389          39.000  
> 2025 04 04 11 18 28.0060000  0  9                     
G05  22898030.783   120330003.051       -2235.521          48.000    22898029.546    93763629.014       -1741.632          39.000  
G06  26221905.957   137797053.724       -3070.464          32.000    26221916.056   107374358.578       -2393.024          33.000  
G12  26058924.213   136940612.245       -3625.400          35.000    26058926.591                       -2825.815          25.000  
G11  24133311.460   126821407.200       -2242.399          30.000    24133316.175    98821895.868       -1747.315          38.000  
G13  21841658.682   114778682.339        -538.402          46.000                                                                  
G30  26953920.160   141643800.3162      -1103.926          28.000                                                                  
G15  22803281.100   119832079.279        1320.820          45.000    22803284.193    93375663.219        1028.888          38.000  
G25  25969821.668   136472316.472       -2986.592          28.000    25969836.890   106342129.799       -2328.257          31.000  
G29  23659279.617   124330372.888        1077.844          45.000    23659280.993    96880810.485         839.570          39.000  
> 2025 04 04 11 18 29.0060000  0  9                     
G05  22898456.142   120332238.868       -2235.778          47.000    22898455.114    93765371.226       -1741.634          39.000  
G06  26222490.520   137800125.372       -3070.780          32.000    26222500.597   107376751.994       -2392.457          31.000  
G12  26059613.977   136944237.247       -3624.648          34.000    26059617.441                       -2824.875          25.000  
G11  24133738.033   126823649.990       -2242.532          34.000    24133742.875    98823643.483       -1747.577          36.000  
G13  21841761.199   114779221.294        -538.904          45.000                                                                  
G30  26954130.134   141644903.7312      -1103.164          28.000                                                                  
G15  22803029.843   119830758.850        1320.314          45.000    22803032.943    93374634.338        1028.542          38.000  
G25  25970389.827   136475303.138       -2986.816          28.000    25970405.029   106344457.095       -2328.292          31.000  
G29  23659074.589   124329295.406        1077.297          46.000    23659075.838    96879970.876         839.417          39.000  
> 2025 04 04 11 18 30.0060000  0  9                     
G05  22898881.678   120334474.905       -2236.384          47.000    22898880.625    93767113.637       -1742.439          38.000  
G06  26223074.956   137803197.217       -3071.659          30.000    26223084.653   107379145.567       -2392.377          28.000  
G12  26060303.766   136947862.230       -3624.961          34.000    26060308.942                       -2824.317          25.000  
G11  24134164.799   126825893.062       -2244.099          37.000    24134169.591    98825391.304       -1748.497          37.000  
G13  21841863.857   114779761.070        -540.331          41.000                                                                  
G30  26954339.614   141646007.6112      -1104.624          29.000                                                                  
G15  22802778.597   119829438.934        1319.604          45.000    22802781.749    93373605.838        1028.068          37.000  
G25  25970958.100   136478290.041       -2986.710          29.000    25970973.186   106346784.438       -2327.479          30.000  
G29  23658869.575   124328218.444        1076.564          45.000    23658870.900    96879131.696         839.027          39.000  
> 2025 04 04 11 18 31.0060000  0 10                     
G05  22899307.203   120336710.860       -2235.629          48.000    22899306.040    93768855.941       -1742.312          38.000  
G06  26223659.724   137806268.948       -3070.652          34.000    26223667.857                       -2393.894          27.000  
G12  26060993.319   136951486.934       -3623.973          34.000    26061000.611   106715439.9621      -2824.270          26.000  
G11  24134591.596   126828136.190       -2243.047          42.000    24134596.382    98827139.179       -1747.620          38.000  
G20  24186430.228                       -2926.806          34.000                                                                  
G13  21841966.726   114780301.191        -539.893          41.000                                                                  
G30  26954549.656   141647111.699       -1104.062          29.000                                                                  
G15  22802527.490   119828119.262        1320.001          45.000    22802530.469    93372577.467        1029.246          37.000  
G25  25971526.106   136481276.824       -2986.797          28.000    25971541.372   106349111.830       -2327.449          30.000  
G29  23658664.613   124327141.729        1076.942          46.000    23658665.987    96878292.719         839.459          39.000  
> 2025 04 04 11 18 32.0060000  0 10                     
G05  22899732.644   120338946.654       -2235.976          48.000    22899731.565    93770598.099       -1742.327          38.000  
G06  26224244.583   137809340.619       -3072.075          30.000    26224252.689   107383930.7211      -2393.296          27.000  
G12  26061682.731   136955111.148       -3624.562          34.000    26061691.883   106718264.078       -2824.230          27.000  
G11  24135018.495   126830379.300       -2243.408          34.000    24135023.207    98828887.210       -1748.253          34.000  
G20  24186981.272   127103444.1653      -2926.632          34.000                                                                  
G13  21842069.550   114780841.727        -540.860          45.000                                                                  
G30  26954759.966   141648215.855       -1105.114          29.000                                                                  
G15  22802276.509   119826799.717        1319.254          46.000    22802279.334    93371549.289        1028.256          38.000  
G25  25972094.184   136484263.317       -2987.198          27.000    25972109.639   106351439.020       -2328.267          30.000  
G29  23658459.742   124326065.158        1076.354          46.000    23658461.128    96877453.881         838.016          39.000  
> 2025 04 04 11 18 33.0060000  0 10                     
G05  22900157.931   120341182.111       -2234.979          49.000    22900157.064    93772340.014       -1741.942          39.000  
G06  26224829.169   137812412.053       -3071.132          31.000    26224837.459   107386324.012       -2393.376          28.000  
G12  26062372.180   136958734.834       -3623.284          35.000    26062382.302   106721087.679       -2823.402          27.000  
G11  24135445.292   126832622.087       -2242.690          34.000    24135449.884    98830634.907       -1747.141          33.000  
G20  24187536.998   127106370.4572      -2924.907          32.000                                                                  
G13  21842172.430   114781382.458        -540.686          45.000                                                                  
G30  26954970.001                       -1103.566          29.000                                                                  
G15  22802025.380   119825480.149        1319.604          45.000    22802028.094    93370521.070        1028.199          37.000  
G25  25972662.267   136487249.422       -2985.861          27.000    25972677.764   106353765.811       -2326.039          30.000  
G29  23658254.840   124324988.582        1076.647          45.000    23658256.276    96876614.987         838.778          39.000  
> 2025 04 04 11 18 34.0060000  0 10                     
G05  22900583.257   120343417.306       -2235.100          49.000    22900582.371    93774081.709       -1741.506          38.000  
G06  26225413.659   137815483.261       -3071.559          31.000    26225422.876   107388717.217       -2393.032          28.000  
G12  26063061.454   136962357.973       -3623.279          35.000    26063071.224   106723911.046       -2824.238          26.000  
G11  24135871.977   126834864.853       -2242.046          34.000    24135876.626    98832382.459       -1747.570          34.000  
G20  24188093.587   127109296.1902      -2925.884          33.000                                                                  
G13  21842275.355   114781923.457        -541.218          44.000                                                                  
G30  26955180.295   141650427.8923      -1103.204          27.000                                                                  
G15  22801774.358   119824160.616        1319.417          46.000    22801776.956    93369492.873        1028.122          37.000  
G25  25973229.946                       -2986.522          26.000    25973245.861   106356092.470       -2326.877          29.000  
G29  23658049.994   124323912.098        1076.408          45.000    23658051.423    96875776.148         838.750          40.000  
> 2025 04 04 11 18 35.0060000  0 10                     
G05  22901008.455   120345652.290       -2235.007          48.000    22901007.755    93775823.267       -1741.625          38.000  
G06  26225998.016   137818554.290       -3070.886          30.000    26226006.645   107391110.272       -2393.066          29.000  
G12  26063750.596   136965980.654       -3622.794          34.000    26063759.874   106726733.822       -2823.082          26.000  
G11  24136298.811   126837107.556       -2243.579          33.000    24136303.269    98834129.962       -1747.920          35.000  
G20  24188650.252   127112221.6562      -2924.487          32.000                                                                  
G13  21842378.368   114782464.790        -541.552          44.000                                                                  
G30  26955392.897   141651544.7773      -1103.856          26.000                                                                  
G15  22801523.392   119822841.198        1319.024          46.000    22801525.870    93368464.743        1027.659          37.000  
G25  25973793.136                       -2985.474          26.000    25973813.856   106358418.879       -2326.816          29.000  
G29  23657845.136   124322835.686        1076.163          45.000    23657846.603    96874937.383         838.783          40.000  
> 2025 04 04 11 18 36.0060000  0 10                     
G05  22901433.848   120347887.215       -2234.956          48.000    22901433.000    93777564.801       -1741.864          38.000  
G06  26226582.474   137821625.435       -3071.240          30.000    26226591.769   107393503.340       -2393.624          30.000  
G12  26064439.735   136969603.078       -3622.892          34.000    26064448.987   106729556.464       -2822.442          26.000  
G11  24136725.561   126839350.187       -2242.600          36.000    24136730.046    98835877.444       -1747.158          35.000  
G20  24189207.177   127115146.8482      -2925.210          31.000                                                                  
G13  21842481.423   114783006.638        -542.365          44.000                                                                  
G30  26955604.596                       -1103.418          24.000                                                                  
G15  22801272.413   119821522.039        1318.930          46.000    22801274.861    93367436.818        1027.896          38.000  
G25  25974361.657   136496191.2693      -2986.009          26.000    25974381.754   106360745.216       -2326.477          29.000  
G29  23657640.420   124321759.581        1075.865          46.000    23657641.718    96874098.878         838.206          39.000  
> 2025 04 04 11 18 37.0060000  0 10                     
G05  22901859.167   120350122.322       -2234.763          48.000    22901858.291    93779306.399       -1741.501          39.000  
G06  26227166.949   137824696.762       -3070.952          30.000    26227176.170   107395896.573       -2392.767          30.000  
G12  26065128.875   136973225.316       -3621.761          34.000    26065137.721   106732378.998       -2822.402          25.000  
G11  24137152.524   126841593.087       -2243.276          36.000    24137156.806    98837625.164       -1747.180          35.000  
G20  24189763.878   127118072.0962      -2925.306          31.000                                                                  
G13  21842584.626   114783549.149        -542.961          42.000                                                                  
G30  26955814.964                       -1104.790          26.000    26955808.935                        -860.169          24.000  
G15  22801021.500   119820203.359        1318.717          46.000    22801023.967    93366409.285        1027.449          38.000  
G25  25974932.713   136499176.8522      -2985.758          27.000    25974949.712   106363071.666       -2326.310          29.000  
G29  23657435.825   124320683.934        1075.803          45.000    23657436.999    96873260.738         837.838          39.000  
> 2025 04 04 11 18 38.0060000  0 10                     
G05  22902284.397   120352357.125       -2234.814          48.000    22902283.538    93781047.819       -1741.313          38.000  
G06  26227751.553   137827767.903       -3071.606          30.000    26227762.714   107398289.720       -2393.344          30.000  
G12  26065817.895   136976847.072       -3621.331          35.000    26065826.739   106735201.216       -2822.376          26.000  
G11  24137579.443   126843835.775       -2243.269          39.000    24137583.527    98839372.754       -1747.497          35.000  
G20  24190320.578   127120996.3001      -2924.708          34.000                                                                  
G13  21842687.807   114784091.902        -542.992          43.000                                                                  
G30  26956024.588   141654864.5313      -1105.022          27.000                                                                  
G15  22800770.606   119818884.646        1318.597          45.000    22800773.096    93365381.724        1027.496          38.000  
G25  25975504.571   136502162.0672      -2984.944          28.000    25975517.734   106365397.826       -2326.310          29.000  
G29  23657231.122   124319608.337        1075.637          45.000    23657232.303    96872422.598         838.020          39.000  
> 2025 04 04 11 18 39.0060000  0 10                     
G05  22902709.691   120354591.992       -2234.972          48.000    22902708.835    93782789.301       -1741.439          39.000  
G06  26228336.094   137830839.167       -3072.194          30.000    26228345.994   107400682.783       -2393.103          28.000  
G12  26066506.981   136980468.604       -3621.004          35.000    26066515.452   106738023.133       -2822.076          25.000  
G11  24138006.346   126846078.735       -2242.924          38.000    24138010.294    98841120.464       -1748.095          35.000  
G20  24190877.505   127123920.940       -2924.883          35.000                                                                  
G13  21842791.215   114784635.272        -543.732          43.000                                                                  
G30  26956229.056   141655939.0062      -1104.375          28.000                                                                  
G15  22800519.796   119817566.320        1318.052          46.000    22800522.203    93364354.485        1026.422          38.000  
G25  25976073.990   136505147.3332      -2985.126          28.000    25976085.731   106367723.914       -2325.574          29.000  
G29  23657026.554   124318533.093        1075.016          45.000    23657027.677    96871584.775         837.735          39.000  
> 2025 04 04 11 18 40.0060000  0 10                     
G05  22903135.027   120356826.951       -2235.074          48.000    22903134.211    93784530.832       -1741.450          38.000  
G06  26228920.869   137833910.580       -3072.335          28.000    26228931.322   107403076.105       -2392.833          28.000  
G12  26067195.901   136984089.940       -3620.422          35.000    26067202.972   106740845.049       -2822.235          25.000  
G11  24138433.163   126848321.868       -2243.667          36.000    24138437.115    98842868.325       -1748.042          38.000  
G20  24191434.132   127126845.354       -2924.358          34.000                                                                  
G13  21842894.650   114785179.235        -544.219          42.000                                                                  
G30  26956433.027                       -1112.479          26.000                                                                  
G15  22800269.121   119816248.348        1317.879          46.000    22800271.424    93363327.475        1027.321          38.000  
G25  25976646.636   136508132.5512      -2984.720          28.000    25976653.733   106370050.164       -2326.135          29.000  
G29  23656822.062   124317458.255        1074.904          46.000    23656823.179    96870747.233         837.254          39.000  
> 2025 04 04 11 18 41.0060000  0 10                     
G05  22903560.363   120359061.842       -2235.432          48.000    22903559.556    93786272.357       -1741.724          38.000  
G06  26229505.580   137836981.947       -3072.143          26.000    26229514.260   107405469.418       -2392.893          28.000  
G12  26067884.817   136987711.076       -3621.710          35.000    26067891.002                       -2820.281          25.000  
G11  24138860.135   126850564.769       -2243.322          36.000    24138863.994    98844616.045       -1747.250          35.000  
G20  24191990.597   127129769.516       -2925.732          27.000                                                                  
G13  21842998.286   114785723.692        -544.948          43.000                                                                  
G30  26956641.982                       -1102.470          25.000                                                                  
G15  22800018.444   119814930.694        1317.258          46.000    22800020.651    93362300.769        1025.477          37.000  
G25  25977214.998   136511117.7882      -2985.020          29.000    25977221.586   106372376.262       -2326.302          29.000  
G29  23656617.683   124316383.703        1074.251          46.000    23656618.625    96869909.946         836.752          39.000  
> 2025 04 04 11 18 42.0060000  0 10                     
G05  22903985.821   120361297.304       -2235.615          48.000    22903984.823    93788014.282       -1742.437          38.000  
G06  26230091.696                       -3071.520          25.000    26230098.271                       -2393.583          27.000  
G12  26068573.845   136991332.427       -3620.992          35.000    26068577.765                       -2822.244          25.000  
G11  24139287.127   126852808.387       -2244.365          35.000    24139290.880    98846364.101       -1748.555          26.000  
G20  24192547.430   127132694.405       -2924.938          32.000                                                                  
G13  21843102.111   114786269.225        -546.079          44.000                                                                  
G30  26956857.186                       -1105.897          24.000                                                                  
G15  22799767.806   119813613.877        1316.487          46.000    22799770.002    93361274.626        1025.771          37.000  
G25  25977778.086   136514103.5332      -2986.870          29.000    25977789.711   106374702.802       -2326.619          29.000  
G29  23656413.340   124315310.055        1073.344          46.000    23656414.368    96869073.314         836.501          39.000  
> 2025 04 04 11 18 43.0060000  0 10                     
G05  22904411.276   120363532.933       -2235.787          48.000    22904410.335    93789756.304       -1741.815          38.000  
G06  26230679.831   137843152.4723      -3073.085          27.000    26230682.619                       -2393.787          27.000  
G12  26069262.796   136994953.752       -3621.556          35.000    26069265.481                       -2823.397          23.000  
G11  24139714.288   126855052.446       -2244.379          36.000    24139717.681    98848112.722       -1748.746          27.000  
G20  24193103.636   127135619.018       -2924.671          30.000                                                                  
G13  21843206.203   114786815.510        -546.704          44.000                                                                  
G30  26957070.970                       -1115.708          21.000                                                                  
G15  22799517.248   119812297.530        1315.976          46.000    22799519.519    93360248.937        1025.420          37.000  
G25  25978343.129   136517089.315       -2986.641          29.000    25978357.773   106377029.429       -2327.850          30.000  
G29  23656209.167   124314236.875        1072.900          45.000    23656210.202    96868237.082         836.223          39.000  
> 2025 04 04 11 18 44.0060000  0 11                     
G05  22904836.751   120365769.068       -2236.384          49.000    22904835.874    93791498.717       -1742.322          38.000  
G06  26231267.952   137846225.3402      -3073.693          27.000    26231266.494                       -2395.726          27.000  
G12  26069951.852   136998575.312       -3621.595          34.000    26069953.789                       -2824.986          21.000  
G11  24140141.509   126857297.091       -2245.074          39.000    24140144.986    98849861.838       -1750.722          30.000  
G20  24193660.222   127138543.939       -2925.215          30.000                                                                  
G13  21843310.460   114787362.851        -547.727          45.000                                                                  
G30  26957288.842                       -1106.821          21.000                                                                  
G15  22799266.927   119810982.017        1315.107          46.000    22799269.136    93359223.874        1024.551          37.000  
G25  25978910.074   136520075.548       -2986.982          30.000    25978925.971   106379356.360       -2326.867          30.000  
G23  26716000.780                         718.039          22.000                                                                  
G29  23656005.092   124313164.534        1072.017          45.000    23656006.119    96867401.502         835.460          39.000  
> 2025 04 04 11 18 45.0060000  0 10                     
G05  22905262.447   120368005.680       -2237.251          48.000    22905261.647    93793241.553       -1742.971          39.000  
G06  26231857.853   137849298.6652      -3072.437          27.000    26231851.701   107415046.8251      -2395.228          28.000  
G12  26070640.990   137002197.129       -3621.821          34.000    26070642.853                       -2818.296          18.000  
G11  24140568.744   126859542.434       -2245.664          40.000    24140572.267    98851611.585       -1749.724          30.000  
G20  24194216.802   127141469.359       -2924.208          28.000                                                                  
G13  21843414.792   114787911.195        -549.127          45.000                                                                  
G30  26957499.062                       -1107.956          29.000                                                                  
G15  22799016.803   119809667.309        1314.050          46.000    22799018.978    93358199.439        1023.318          37.000  
G25  25979481.038   136523062.226       -2986.889          29.000    25979494.187   106381683.678       -2327.797          30.000  
G29  23655801.092   124312093.011        1070.958          46.000    23655802.088    96866566.574         834.531          39.000  
> 2025 04 04 11 18 46.0060000  0 10                     
G05  22905688.255   120370243.027       -2237.617          48.000    22905687.443    93794984.928       -1743.526          38.000  
G06  26232438.336   137852372.8382      -3073.607          29.000    26232436.671   107417442.086       -2395.217          26.000  
G12  26071330.165   137005819.394       -3622.369          34.000    26071330.629                       -2825.410          19.000  
G11  24140996.132   126861788.641       -2246.427          40.000    24140999.741    98853361.892       -1750.239          39.000  
G20  24194773.900   127144394.7923      -2927.643          27.000                                                                  
G13  21843519.424   114788460.858        -550.320          41.000                                                                  
G30  26957702.865   141663683.8053      -1109.117          33.000    26957705.015                        -863.279          23.000  
G15  22798766.968   119808353.599        1313.403          46.000    22798768.947    93357175.759        1023.388          37.000  
G25  25980049.144   136526049.606       -2987.015          29.000    25980062.633   106384011.488       -2328.078          30.000  
G29  23655597.332   124311022.514        1069.809          46.000    23655598.416    96865732.410         834.087          39.000  
> 2025 04 04 11 18 47.0060000  0 10                     
G05  22906114.087   120372480.864       -2237.777          47.000    22906113.305    93796728.739       -1744.105          39.000  
G06  26233023.998   137855447.5942      -3075.136          28.000    26233022.063   107419839.1951      -2396.418          27.000  
G12  26072019.339   137009441.924       -3622.326          33.000    26072020.655                       -2827.617          20.000  
G11  24141423.724   126864035.106       -2246.157          34.000    24141427.346    98855112.707       -1750.031          30.000  
G20  24195330.623   127147320.7972      -2924.944          35.000                                                                  
G13  21843624.237   114789011.425        -550.921          45.000                                                                  
G30  26957913.734   141664792.0223      -1109.605          26.000                                                                  
G15  22798517.137   119807040.701        1313.061          46.000    22798519.061    93356152.778        1021.938          37.000  
G25  25980616.257   136529037.420       -2986.816          30.000    25980631.104   106386339.658       -2327.547          30.000  
G29  23655393.703   124309952.855        1069.371          44.000    23655394.892    96864898.939         833.590          39.000  
> 2025 04 04 11 18 48.0060000  0 10                     
G05  22906539.992   120374719.088       -2238.669          48.000    22906539.218    93798472.770       -1744.302          38.000  
G06  26233603.903   137858522.8242      -3075.567          28.000    26233607.576   107422235.469       -2396.857          26.000  
G12  26072708.769   137013064.527       -3622.490          33.000    26072711.825                       -2822.065          23.000  
G11  24141851.387   126866282.513       -2247.479          35.000    24141854.990    98856863.650       -1751.940          37.000  
G20  24195887.447   127150246.9262      -2927.065          31.000                                                                  
G13  21843729.299   114789562.998        -552.250          42.000                                                                  
G30  26958128.479   141665920.8632      -1110.513          26.000                                                                  
G15  22798267.489   119805728.542        1311.420          46.000    22798269.397    93355130.293        1022.506          36.000  
G25  25981184.057   136532025.607       -2987.542          30.000    25981199.714   106388668.199       -2330.159          30.000  
G29  23655190.232   124308883.931        1068.328          43.000    23655191.457    96864065.973         832.386          39.000  
> 2025 04 04 11 18 49.0060000  0 10                     
G05  22906965.844   120376957.701       -2238.521          48.000    22906965.234    93800217.149       -1744.322          38.000  
G06  26234184.742   137861598.580       -3075.960          28.000    26234192.207   107424632.233       -2397.123          25.000  
G12  26073398.131   137016687.305       -3622.745          33.000    26073402.806                       -2823.069          25.000  
G11  24142279.086   126868530.020       -2247.787          39.000    24142282.677    98858614.920       -1751.663          37.000  
G20  24196444.359   127153173.669       -2926.366          35.000                                                                  
G13  21843834.436   114790115.521        -552.826          41.000                                                                  
G30  26958338.386   141667024.2082      -1111.356          26.000                                                                  
G15  22798017.931   119804417.047        1311.301          46.000    22798019.789    93354108.381        1021.763          36.000  
G25  25981752.608   136535014.153       -2989.237          30.000    25981768.244   106390996.820       -2328.236          30.000  
G29  23654986.911   124307815.700        1067.927          44.000    23654988.167    96863233.628         831.966          40.000  
> 2025 04 04 11 18 50.0060000  0 10                     
G05  22907391.939   120379196.528       -2238.787          48.000    22907391.262    93801961.745       -1744.779          38.000  
G06  26234766.539   137864674.629       -3077.732          28.000    26234778.921   107427029.232       -2397.640          25.000  
G12  26074087.363   137020310.056       -3622.371          34.000    26074093.576                       -2822.456          24.000  
G11  24142706.772   126870778.032       -2247.817          43.000    24142710.421    98860366.649       -1751.925          42.000  
G20  24197001.214   127156100.195       -2927.049          34.000                                                                  
G13  21843939.712   114790668.793        -553.654          41.000                                                                  
G30  26958547.972   141668134.9822      -1110.968          29.000    26958549.675                        -865.685          23.000  
G15  22797768.487   119803106.117        1310.760          46.000    22797770.228    93353086.830        1021.085          38.000  
G25  25982321.380   136538002.763       -2988.134          30.000    25982336.835   106393325.666       -2328.411          30.000  
G29  23654783.757   124306748.016        1067.414          44.000    23654785.029    96862401.655         831.890          39.000  
> 2025 04 04 11 18 51.0060000  0 10                     
G05  22907818.069   120381435.427       -2238.757          48.000    22907817.365    93803706.361       -1744.515          38.000  
G06  26235350.368   137867750.838       -3076.450          28.000    26235365.586   107429426.170       -2395.755          24.000  
G12  26074776.642   137023932.686       -3622.756          34.000    26074783.894                       -2816.863          22.000  
G11  24143134.547   126873026.181       -2248.127          43.000    24143138.235    98862118.470       -1751.880          42.000  
G20  24197558.055   127159026.647       -2926.097          34.000                                                                  
G13  21844045.082   114791222.709        -554.156          42.000                                                                  
G30  26958756.823   141669246.0112      -1111.119          29.000    26958760.721                        -867.492          23.000  
G15  22797519.202   119801795.574        1310.432          47.000    22797520.830    93352065.590        1021.851          37.000  
G25  25982890.091   136540991.557       -2988.697          30.000    25982905.608   106395654.603       -2328.813          30.000  
G29  23654580.681   124305680.748        1067.466          45.000    23654581.926    96861570.040         831.639          40.000  
> 2025 04 04 11 18 52.0060000  0 10                     
G05  22908244.106   120383674.341       -2239.147          48.000    22908243.451    93805450.936       -1744.526          39.000  
G06  26235939.320   137870827.101       -3075.548          26.000    26235951.579                       -2396.253          23.000  
G12  26075465.895   137027554.992       -3621.848          34.000    26075472.947                       -2817.686          20.000  
G11  24143562.384   126875274.320       -2248.351          40.000    24143566.071    98863870.282       -1752.428          34.000  
G20  24198114.889   127161952.954       -2926.345          34.000                                                                  
G13  21844150.538   114791777.085        -554.854          41.000                                                                  
G30  26958965.820   141670357.4822      -1110.029          26.000                                                                  
G15  22797269.882   119800485.337        1309.739          47.000    22797271.454    93351044.708        1020.644          37.000  
G25  25983458.882   136543980.185       -2988.122          30.000    25983474.282   106397983.427       -2328.726          30.000  
G29  23654377.630   124304613.821        1066.587          45.000    23654378.896    96860738.669         831.199          40.000  
> 2025 04 04 11 18 53.0060000  0 10                     
G05  22908670.205   120385913.666       -2239.850          48.000    22908669.549    93807195.884       -1745.432          39.000  
G06  26236526.748   137873903.909       -3076.844          25.000    26236537.594                       -2398.955          22.000  
G12  26076155.148   137031177.521       -3622.327          34.000    26076161.548                       -2824.772          19.000  
G11  24143990.317   126877523.152       -2249.092          41.000    24143994.010    98865622.568       -1752.493          36.000  
G20  24198671.785   127164879.449       -2927.313          34.000                                                                  
G13  21844256.349   114792332.416        -555.566          41.000                                                                  
G30  26959174.328                       -1120.110          23.000                                                                  
G15  22797020.728   119799175.814        1309.088          47.000    22797022.143    93350024.315        1019.945          37.000  
G25  25984028.024   136546969.293       -2990.569          31.000    25984043.201   106400312.593       -2329.531          31.000  
G29  23654174.612   124303547.628        1065.707          45.000    23654175.971    96859907.884         830.496          40.000  
> 2025 04 04 11 18 54.0060000  0 10                     
G05  22909096.428   120388153.138       -2239.761          48.000    22909095.739    93808940.923       -1745.424          39.000  
G06  26237111.312   137876980.875       -3078.245          26.000    26237123.404   107436633.3551      -2397.390          25.000  
G12  26076844.446   137034799.958       -3622.429          34.000    26076849.074                       -2823.420          20.000  
G11  24144418.235   126879772.173       -2248.940          43.000    24144421.980    98867375.099       -1752.447          38.000  
G20  24199228.652   127167805.804       -2926.554          34.000                                                                  
G13  21844362.210   114792888.490        -556.426          45.000                                                                  
G30  26959386.185   141672530.4733      -1112.292          31.000                                                                  
G15  22796771.598   119797866.748        1308.779          47.000    22796772.908    93349004.238        1019.824          35.000  
G25  25984596.954   136549958.456       -2989.169          30.000    25984611.904   106402641.781       -2329.844          30.000  
G29  23653971.690   124302481.886        1065.463          45.000    23653973.278    96859077.448         830.406          40.000  
> 2025 04 04 11 18 55.0060000  0 10                     
G05  22909522.663   120390392.935       -2240.104          48.000    22909521.959    93810686.224       -1745.592          39.000  
G06  26237695.768   137880058.310       -3077.921          26.000    26237708.326   107439031.368       -2398.033          27.000  
G12  26077533.764   137038422.461       -3623.031          34.000    26077537.389                       -2820.300          20.000  
G11  24144846.274   126882021.704       -2249.812          44.000    24144850.052    98869127.946       -1752.993          39.000  
G20  24199785.674   127170732.383       -2926.498          35.000                                                                  
G13  21844468.175   114793445.438        -557.419          43.000                                                                  
G30  26959601.049   141673659.2842      -1113.407          32.000    26959605.768                        -867.312          30.000  
G15  22796522.681   119796558.380        1307.834          46.000    22796523.868    93347984.704        1019.732          35.000  
G25  25985165.844   136552947.902       -2989.411          29.000    25985180.865   106404971.201       -2328.892          30.000  
G29  23653769.020   124301416.853        1064.496          44.000    23653770.610    96858247.570         829.249          40.000  
> 2025 04 04 11 18 56.0060000  0 10                     
G05  22909948.933   120392633.107       -2240.458          47.000    22909948.291    93812431.817       -1745.903          39.000  
G06  26238281.306   137883136.062       -3077.702          26.000    26238293.650   107441429.692       -2398.015          26.000  
G12  26078223.235   137042045.064       -3622.468          35.000    26078226.797                       -2827.557          20.000  
G11  24145274.351   126884271.634       -2249.838          43.000    24145278.193    98870881.138       -1753.461          39.000  
G20  24200342.674   127173659.240       -2927.245          35.000                                                                  
G13  21844574.313   114794003.324        -558.384          42.000                                                                  
G30  26959812.801   141674772.7122      -1114.190          32.000    26959818.328                        -867.665          28.000  
G15  22796273.854   119795250.666        1307.351          47.000    22796274.912    93346965.714        1019.121          35.000  
G25  25985734.784   136555937.711       -2990.266          29.000    25985749.832   106407300.905       -2329.784          30.000  
G29  23653566.484   124300352.506        1064.054          45.000    23653568.054    96857418.229         828.986          39.000  
> 2025 04 04 11 18 57.0060000  0 11                     
G05  22910375.335   120394873.775       -2241.192          48.000    22910374.767    93814177.776       -1745.978          39.000  
G06  26238865.668                       -3075.354          22.000    26238879.019                       -2399.318          25.000  
G12  26078912.738   137045667.967       -3623.088          34.000    26078915.667                       -2807.359          20.000  
G11  24145702.545   126886522.142       -2250.968          41.000    24145706.530    98872634.792       -1754.308          34.000  
G20  24200899.788   127176586.414       -2927.524          32.000                                                                  
G13  21844680.755   114794562.207        -559.636          43.000                                                                  
G30  26960023.769   141675886.7762      -1114.135          32.000    26960033.348   110396829.7181       -868.476          27.000  
G15  22796025.184   119793943.754        1306.343          47.000    22796026.193    93345947.365        1017.878          34.000  
G25  25986303.650   136558927.882       -2990.600          29.000    25986318.876   106409630.934       -2329.928          29.000  
G23  26714227.577                         715.313          22.000                                                                  
G29  23653364.080   124299288.988        1062.856          44.000    23653365.636    96856589.511         828.133          39.000  
> 2025 04 04 11 18 58.0060000  0 10                     
G05  22910801.672   120397114.698       -2240.745          48.000    22910801.263    93815923.973       -1746.397          39.000  
G06  26239446.226                       -3075.139          23.000    26239464.858                       -2398.225          24.000  
G12  26079602.254   137049290.877       -3623.150          34.000    26079606.031                       -2819.154          19.000  
G11  24146130.880   126888773.145       -2250.859          42.000    24146134.891    98874388.828       -1754.064          37.000  
G20  24201456.514   127179513.440       -2927.347          32.000                                                                  
G13  21844787.384   114795121.927        -559.836          42.000                                                                  
G30  26960237.109   141677001.4052      -1114.743          32.000    26960246.760   110397698.235        -868.599          28.000  
G15  22795776.563   119792637.425        1306.419          47.000    22795777.553    93344929.445        1018.178          34.000  
G25  25986872.980   136561918.353       -2990.518          29.000    25986887.967   106411961.077       -2328.421          30.000  
G29  23653161.778   124298226.075        1062.944          44.000    23653163.382    96855761.263         828.329          39.000  
> 2025 04 04 11 18 59.0060000  0 10                     
G05  22911228.054   120399355.562       -2240.823          48.000    22911227.696    93817670.088       -1745.831          39.000  
G06  26240029.883                       -3079.225          25.000    26240049.416                       -2400.562          23.000  
G12  26080291.694   137052913.475       -3623.123          34.000    26080294.801                       -2820.844          19.000  
G11  24146559.095   126891024.089       -2250.926          43.000    24146563.171    98876142.809       -1754.284          38.000  
G20  24202013.287   127182440.459       -2926.498          32.000                                                                  
G13  21844894.041   114795682.110        -560.656          42.000                                                                  
G30  26960448.801   141678116.1072      -1113.901          32.000    26960461.451   110398566.897        -868.476          29.000  
G15  22795528.047   119791331.371        1305.939          47.000    22795528.863    93343911.743        1017.794          34.000  
G25  25987442.066   136564908.668       -2990.716          29.000    25987457.021   106414291.324       -2330.623          30.000  
G29  23652959.592   124297163.422        1062.592          44.000    23652961.181    96854933.235         828.006          39.000  
> 2025 04 04 11 19 00.0060000  0 10                     
G05  22911654.457   120401596.521       -2241.016          47.000    22911654.272    93819416.289       -1746.150          39.000  
G06  26240610.069                       -3078.721          25.000    26240633.971                       -2402.852          23.000  
G12  26080980.961   137056535.843       -3622.434          34.000    26080986.571                       -2824.410          22.000  
G11  24146987.355   126893275.264       -2251.266          43.000    24146991.580    98877896.943       -1753.936          38.000  
G20  24202570.149   127185367.268       -2926.604          32.000                                                                  
G13  21845000.717   114796242.915        -560.983          43.000                                                                  
G30  26960661.567   141679231.1902      -1115.374          32.000    26960674.536   110399435.845        -869.182          29.000  
G15  22795279.562   119790025.690        1305.503          47.000    22795280.336    93342894.364        1017.382          34.000  
G25  25988011.153   136567899.027       -2991.208          29.000    25988026.105   106416621.419       -2329.553          30.000  
G29  23652757.400   124296101.177        1062.100          44.000    23652759.028    96854105.519         827.726          39.000  
> 2025 04 04 11 19 01.0060000  0 10                     
G05  22912080.812   120403837.270       -2240.901          47.000    22912080.660    93821162.341       -1745.788          39.000  
G06  26241193.178                       -3079.625          23.000    26241218.335                       -2400.484          23.000  
G12  26081670.240   137060157.834       -3622.374          34.000    26081676.875                       -2824.322          22.000  
G11  24147415.792   126895526.321       -2251.278          43.000    24147419.938    98879651.013       -1754.061          36.000  
G20  24203127.157   127188293.884       -2926.639          35.000                                                                  
G13  21845107.561   114796804.075        -561.636          43.000                                                                  
G30  26960873.573   141680345.7401      -1115.853          32.000    26960887.179   110400304.670        -868.831          27.000  
G15  22795031.139   119788720.167        1305.448          46.000    22795031.785    93341877.068        1017.271          34.000  
G25  25988580.366   136570889.139       -2990.188          30.000    25988595.057   106418951.441       -2329.778          30.000  
G29  23652555.179   124295039.090        1061.851          44.000    23652556.942    96853277.957         827.228          39.000  
> 2025 04 04 11 19 02.0060000  0 10                     
G05  22912507.161   120406078.085       -2241.287          47.000    22912507.098    93822908.419       -1746.210          39.000  
G06  26241781.614                       -3081.908          19.000    26241803.822                       -2397.282          24.000  
G12  26082359.490   137063779.588       -3622.598          34.000    26082366.162                       -2819.947          21.000  
G11  24147844.137   126897777.583       -2251.846          43.000    24147848.344    98881405.249       -1754.535          36.000  
G20  24203684.180   127191220.185       -2926.236          35.000                                                                  
G13  21845214.489   114797365.830        -562.513          42.000                                                                  
G30  26961086.022   141681461.024       -1116.128          33.000    26961099.596   110401173.794        -869.396          27.000  
G15  22794782.784   119787414.981        1304.566          47.000    22794783.463    93340860.053        1016.996          34.000  
G25  25989149.394   136573879.225       -2989.928          29.000    25989164.033   106421281.383       -2329.171          30.000  
G29  23652353.011   124293977.374        1061.181          44.000    23652354.900    96852450.634         826.994          39.000  
> 2025 04 04 11 19 03.0060000  0 11                     
G05  22912933.593   120408319.074       -2240.835          47.000    22912933.490    93824654.639       -1745.913          39.000  
G06  26242364.431                       -3082.919          19.000    26242390.648                       -2401.294          25.000  
G12  26083048.761   137067401.226       -3621.356          34.000    26083055.612                       -2826.460          19.000  
G11  24148272.681   126900029.101       -2251.486          43.000    24148276.888    98883159.683       -1754.324          39.000  
G20  24204241.158   127194146.509       -2925.542          35.000                                                                  
G13  21845321.583   114797928.301        -562.544          42.000                                                                  
G30  26961298.078   141682576.714       -1115.674          32.000    26961311.645   110402043.171        -869.389          27.000  
G15  22794534.418   119786110.282        1304.690          47.000    22794535.121    93339843.451        1016.199          35.000  
G25  25989718.540   136576869.528       -2989.307          30.000    25989733.050   106423611.531       -2330.372          30.000  
G29  23652150.972   124292916.179        1061.260          44.000    23652152.986    96851623.723         826.937          39.000  
G18  27462205.567                        1014.336          24.000                                                                  
> 2025 04 04 11 19 04.0060000  0 10                     
G05  22913360.053   120410559.862       -2241.116          47.000    22913359.891    93826400.704       -1746.346          40.000  
G06  26242951.076                       -3080.797          20.000    26242976.696                       -2398.960          24.000  
G12  26083737.888   137071022.506       -3621.688          34.000    26083746.351                       -2826.460          16.000  
G11  24148701.112   126902280.515       -2251.672          44.000    24148705.377    98884914.012       -1754.346          39.000  
G20  24204797.950   127197072.523       -2926.625          35.000                                                                  
G13  21845428.676   114798491.123        -563.273          42.000                                                                  
G30  26961510.063   141683692.409       -1115.662          32.000    26961523.957   110402912.545        -869.465          27.000  
G15  22794286.238   119784805.697        1304.096          47.000    22794286.739    93338826.873        1016.350          35.000  
G25  25990287.522   136579859.626       -2990.947          30.000    25990302.126   106425941.394       -2330.179          30.000  
G29  23651949.117   124291855.121        1060.563          44.000    23651951.110    96850796.898         826.698          39.000  
> 2025 04 04 11 19 05.0060000  0 10                     
G05  22913786.412   120412800.602       -2240.612          47.000    22913786.316    93828146.767       -1746.009          40.000  
G06  26243538.106                       -3086.733          22.000    26243562.766                       -2398.523          24.000  
G12  26084426.947   137074643.420       -3620.525          34.000                                                                  
G11  24149129.641   126904531.980       -2251.387          42.000    24149133.793    98886668.437       -1754.432          38.000  
G20  24205354.788   127199998.326       -2925.809          35.000                                                                  
G13  21845535.897   114799054.435        -563.465          44.000                                                                  
G30  26961722.286   141684808.325       -1115.664          32.000    26961735.898   110403782.094        -869.399          27.000  
G15  22794038.022   119783501.419        1304.311          46.000    22794038.439    93337810.511        1016.835          35.000  
G25  25990856.313   136582849.421       -2989.005          29.000    25990871.186   106428271.208       -2329.719          31.000  
G29  23651747.300   124290794.348        1060.674          45.000    23651749.264    96849970.347         826.727          39.000  
> 2025 04 04 11 19 06.0060000  0 10                     
G05  22914212.936   120415041.469       -2241.115          47.000    22914212.776    93829892.907       -1746.382          40.000  
G06  26244128.009                       -3082.785          23.000    26244148.097   107465398.5051      -2399.491          26.000  
G12  26085115.919   137078264.288       -3621.052          34.000                                                                  
G11  24149558.175   126906783.690       -2251.904          42.000    24149562.359    98888423.033       -1754.750          37.000  
G20  24205911.383   127202923.968       -2926.427          32.000                                                                  
G13  21845643.210   114799618.430        -564.559          45.000                                                                  
G30  26961934.532   141685924.582       -1116.962          31.000    26961947.896   110404652.079        -870.433          27.000  
G15  22793789.985   119782197.572        1303.264          46.000    22793790.206    93336794.569        1015.659          34.000  
G25  25991425.309   136585839.491       -2990.489          29.000    25991440.173   106430601.100       -2330.129          32.000  
G29  23651545.494   124289734.033        1059.683          44.000    23651547.530    96849144.131         825.890          39.000  
> 2025 04 04 11 19 07.0060000  0 10                     
G05  22914639.435   120417282.703       -2241.377          46.000    22914639.283    93831639.355       -1746.659          40.000  
G06  26244716.944                       -3079.528          25.000    26244735.602   107467798.378       -2400.580          27.000  
G12  26085805.032   137081885.282       -3622.056          32.000                                                                  
G11  24149986.713   126909035.959       -2252.567          44.000    24149990.870    98890177.999       -1755.269          41.000  
G20  24206468.249   127205849.873       -2925.341          34.000                                                                  
G13  21845750.769   114800183.336        -565.577          44.000                                                                  
G30  26962147.027   141687041.448       -1119.164          30.000    26962160.455   110405522.337        -871.355          28.000  
G15  22793542.068   119780894.401        1302.518          46.000    22793542.164    93335779.103        1014.710          34.000  
G25  25991994.288   136588829.913       -2990.995          29.000    25992009.185   106432931.277       -2330.188          31.000  
G29  23651343.858   124288674.400        1059.126          44.000    23651345.847    96848318.488         825.232          39.000  
> 2025 04 04 11 19 08.0060000  0 10                     
G05  22915065.779   120419524.217       -2241.430          47.000    22915065.892    93833385.957       -1746.480          40.000  
G06  26245306.319   137920015.0093      -3079.633          26.000    26245323.093   107470198.439       -2400.051          27.000  
G12  26086494.288   137085506.204       -3620.797          34.000                                                                  
G11  24150415.446   126911288.532       -2252.626          43.000    24150419.550    98891933.274       -1755.324          42.000  
G20  24207025.076   127208775.844       -2925.633          33.000                                                                  
G13  21845858.401   114800749.036        -565.986          44.000                                                                  
G30  26962359.756   141688158.610       -1116.892          29.000    26962373.306   110406392.968        -870.372          28.000  
G15  22793294.102   119779591.795        1302.395          46.000    22793294.255    93334764.117        1015.327          34.000  
G25  25992563.194   136591820.407       -2990.293          29.000    25992578.328   106435261.601       -2329.852          31.000  
G29  23651142.300   124287615.365        1058.905          45.000    23651144.332    96847493.250         825.116          39.000  
> 2025 04 04 11 19 09.0060000  0 10                     
G05  22915492.344   120421765.988       -2242.035          47.000    22915492.477    93835132.834       -1747.447          39.000  
G06  26245890.022   137923082.3572      -3079.653          26.000    26245909.953   107472598.855       -2400.728          27.000  
G12  26087183.330   137089127.189       -3620.552          33.000                                                                  
G11  24150844.109   126913541.452       -2252.839          44.000    24150848.215    98893688.800       -1755.797          42.000  
G20  24207581.921   127211701.975       -2926.202          34.000                                                                  
G13  21845966.235   114801315.550        -566.859          44.000                                                                  
G30  26962572.287   141689276.325       -1116.877          30.000    26962586.185   110407263.999        -872.181          29.000  
G15  22793046.303   119778289.785        1301.775          46.000    22793046.383    93333749.563        1013.800          34.000  
G25  25993132.066   136594811.148       -2990.344          28.000    25993147.443   106437592.059       -2330.338          31.000  
G29  23650940.700   124286556.952        1058.113          44.000    23650942.918    96846668.506         824.557          39.000  
> 2025 04 04 11 19 10.0060000  0 10                     
G05  22915918.860   120424007.578       -2241.530          48.000    22915919.017    93836879.503       -1747.055          39.000  
G06  26246482.081                       -3079.298          23.000    26246495.772   107474999.088       -2400.098          27.000  
G12  26087872.509   137092747.792       -3620.462          34.000                                                                  
G11  24151272.868   126915794.264       -2253.102          42.000    24151276.899    98895444.248       -1755.173          36.000  
G20  24208138.757   127214627.716       -2925.380          34.000                                                                  
G13  21846074.177   114801882.424        -567.051          44.000                                                                  
G30  26962785.160   141690394.147       -1117.374          29.000    26962798.906   110408135.041        -871.025          27.000  
G15  22792798.545   119776987.887        1301.860          47.000    22792798.486    93332735.139        1013.539          33.000  
G25  25993701.022   136597801.680       -2990.198          28.000    25993716.458   106439922.354       -2330.803          30.000  
G29  23650739.238   124285498.636        1058.457          45.000    23650741.597    96845843.905         824.481          39.000  
> 2025 04 04 11 19 11.0060000  0 11                     
G05  22916345.488   120426248.901       -2241.343          48.000    22916345.477    93838625.965       -1746.265          39.000  
G06  26247073.576                       -3082.195          22.000    26247082.529   107477399.211       -2400.088          28.000  
G12  26088561.269   137096367.756       -3619.668          33.000                                                                  
G11  24151701.491   126918047.021       -2252.664          44.000    24151705.538    98897199.633       -1755.370          41.000  
G24  27339151.896                        1022.469          22.000                                                                  
G20  24208695.533   127217552.787       -2924.408          37.000                                                                  
G13  21846182.162   114802449.584        -567.282          43.000                                                                  
G30  26962998.112   141691511.777       -1116.413          30.000    26963011.542   110409005.926        -871.429          27.000  
G15  22792550.732   119775686.041        1301.785          47.000    22792550.640    93331720.687        1014.061          33.000  
G25  25994269.786   136600791.983       -2990.495          28.000    25994285.385   106442252.368       -2329.393          31.000  
G29  23650537.905   124284440.443        1057.931          43.000    23650540.207    96845019.279         824.632          40.000  
> 2025 04 04 11 19 12.0060000  0 10                     
G05  22916771.968   120428490.243       -2241.021          47.000    22916772.004    93840372.489       -1746.410          39.000  
G06  26247660.696                       -3076.199          23.000    26247668.738   107479799.396       -2399.566          28.000  
G12  26089249.979   137099987.537       -3619.308          33.000                                                                  
G11  24152130.169   126920299.829       -2252.619          43.000    24152134.148    98898955.049       -1754.949          42.000  
G20  24209252.476   127220477.945       -2925.148          36.000                                                                  
G13  21846290.247   114803017.324        -567.427          43.000                                                                  
G30  26963210.949   141692629.705       -1117.376          29.000    26963224.351   110409877.088        -871.290          28.000  
G15  22792302.935   119774384.545        1301.477          46.000    22792302.931    93330706.536        1014.831          32.000  
G25  25994838.539   136603782.191       -2990.114          28.000    25994854.432   106444582.418       -2328.993          31.000  
G29  23650336.585   124283382.563        1058.142          44.000    23650338.880    96844194.976         824.424          40.000  
> 2025 04 04 11 19 13.0060000  0 10                     
G05  22917198.329   120430731.116       -2240.887          47.000    22917198.460    93842118.638       -1746.046          39.000  
G06  26248251.736                       -3078.037          22.000    26248254.834   107482199.353       -2401.083          28.000  
G12  26089938.588   137103606.610       -3618.912          33.000                                                                  
G11  24152558.857   126922552.258       -2252.472          44.000    24152562.764    98900710.203       -1755.079          40.000  
G20  24209808.934   127223402.467       -2924.374          36.000                                                                  
G13  21846398.306   114803585.088        -567.875          44.000                                                                  
G30  26963422.492                       -1118.144          27.000                                                                  
G15  22792055.159   119773082.864        1301.564          47.000    22792055.078    93329692.282        1014.043          34.000  
G25  25995407.005   136606771.752       -2989.701          28.000    25995423.393   106446912.033       -2329.105          31.000  
G29  23650135.210   124282324.512        1058.106          44.000    23650137.619    96843370.577         824.174          40.000  
> 2025 04 04 11 19 14.0060000  0 11                     
G05  22917624.751   120432971.972       -2240.903          47.000    22917624.834    93843864.758       -1746.226          39.000  
G06  26248838.546                       -3073.957          23.000    26248840.445   107484599.240       -2399.709          28.000  
G12  26090627.102   137107225.428       -3619.161          35.000                                                                  
G11  24152987.550   126924804.797       -2252.722          44.000    24152991.469    98902465.415       -1755.340          40.000  
G24  27337153.299                        1040.895          23.000                                                                  
G20  24210365.460   127226326.668       -2924.392          37.000                                                                  
G13  21846506.431   114804153.389        -568.880          44.000                                                                  
G30  26963634.943                       -1118.726          27.000    26963649.745   110411638.1251       -871.542          28.000  
G15  22791807.527   119771781.482        1301.163          47.000    22791807.268    93328678.188        1013.308          34.000  
G25  25995975.995   136609761.402       -2989.729          29.000    25995992.244   106449241.580       -2329.104          31.000  
G29  23649933.974   124281266.808        1057.386          44.000    23649936.271    96842546.388         823.691          40.000  
> 2025 04 04 11 19 15.0060000  0 10                     
G05  22918051.300   120435213.180       -2241.197          48.000    22918051.329    93845611.164       -1746.533          40.000  
G06  26249431.377                       -3084.937          21.000    26249426.562   107486999.475       -2400.470          27.000  
G12  26091315.821   137110844.307       -3618.539          35.000                                                                  
G11  24153416.246   126927057.785       -2252.923          44.000    24153420.164    98904220.994       -1755.563          40.000  
G20  24210921.984   127229251.076       -2924.185          37.000                                                                  
G13  21846614.782   114804722.576        -569.353          44.000                                                                  
G30  26963847.226   141695975.7523      -1119.304          29.000    26963863.618   110412509.637        -871.958          28.000  
G15  22791559.976   119770480.766        1300.546          47.000    22791559.622    93327664.624        1013.887          33.000  
G25  25996544.994   136612751.206       -2987.462          29.000    25996561.308   106451571.456       -2330.638          31.000  
G29  23649732.893   124280209.781        1057.123          44.000    23649735.112    96841722.708         823.532          39.000  
> 2025 04 04 11 19 16.0060000  0 10                     
G05  22918477.912   120437454.759       -2241.429          48.000    22918477.875    93847357.837       -1746.644          40.000  
G06  26250021.333                       -3078.986          20.000    26250012.842   107489400.170       -2401.634          26.000  
G12  26092004.669   137114463.316       -3618.545          35.000                                                                  
G11  24153845.151   126929311.226       -2253.513          44.000    24153848.899    98905976.952       -1756.134          40.000  
G20  24211478.498   127232175.669       -2924.723          36.000                                                                  
G13  21846723.367   114805292.679        -570.491          44.000                                                                  
G30  26964060.934   141697094.7802      -1119.573          30.000    26964076.183   110413381.643        -873.153          28.000  
G15  22791312.483   119769180.719        1299.952          46.000    22791312.118    93326651.622        1012.857          33.000  
G25  25997113.915   136615741.440       -2989.156          30.000    25997130.279   106453901.430       -2329.402          31.000  
G29  23649531.945   124279153.432        1056.246          44.000    23649534.054    96840899.587         823.159          40.000  
> 2025 04 04 11 19 17.0060000  0 10                     
G05  22918904.486   120439696.561       -2241.920          47.000    22918904.403    93849104.679       -1746.795          39.000  
G06  26250609.361                       -3103.261          18.000    26250598.628   107491800.903       -2400.573          25.000  
G12  26092693.647   137118082.278       -3618.899          35.000                                                                  
G11  24154274.177   126931565.075       -2254.169          43.000    24154277.754    98907733.161       -1756.281          41.000  
G20  24212035.041   127235100.278       -2924.682          36.000                                                                  
G13  21846831.703   114805863.539        -571.168          44.000                                                                  
G30  26964276.795   141698214.0422      -1118.179          31.000    26964288.494   110414253.835        -872.150          29.000  
G15  22791065.155   119767881.213        1299.157          46.000    22791064.766    93325639.035        1013.134          33.000  
G25  25997682.839   136618731.942       -2991.644          30.000    25997699.383   106456231.658       -2330.457          31.000  
G29  23649331.005   124278097.647        1055.348          44.000    23649333.201    96840076.927         822.523          40.000  
> 2025 04 04 11 19 18.0060000  0 10                     
G05  22919331.175   120441938.666       -2242.107          47.000    22919331.033    93850851.791       -1747.254          40.000  
G06  26251193.632                       -3126.663          20.000    26251184.112                       -2400.307          26.000  
G12  26093382.583   137121701.316       -3618.993          36.000                                                                  
G11  24154703.197   126933819.201       -2254.110          42.000    24154706.775    98909489.670       -1756.601          39.000  
G20  24212591.764   127238025.036       -2924.425          37.000                                                                  
G13  21846940.401   114806435.240        -572.107          44.000                                                                  
G30  26964489.008   141699334.0592      -1119.833          32.000    26964501.745   110415126.454        -871.485          29.000  
G15  22790817.892   119766582.343        1298.660          46.000    22790817.446    93324626.944        1011.584          34.000  
G25  25998251.837   136621722.538       -2990.939          30.000    25998268.553   106458562.025       -2330.318          32.000  
G29  23649130.177   124277042.506        1054.923          44.000    23649132.549    96839254.762         821.932          40.000  
> 2025 04 04 11 19 19.0060000  0 10                     
G05  22919757.795   120444181.078       -2242.553          47.000    22919757.708    93852599.153       -1747.408          39.000  
G06  26251779.174                       -3084.260          22.000    26251768.618                       -2401.915          26.000  
G12  26094071.447   137125320.466       -3619.364          35.000                                                                  
G11  24155132.149   126936073.883       -2254.879          44.000    24155135.848    98911246.522       -1756.959          39.000  
G20  24213148.401   127240949.964       -2925.052          37.000                                                                  
G13  21847049.413   114807007.850        -573.143          43.000                                                                  
G30  26964702.177   141700454.687       -1120.803          28.000    26964714.748   110415999.655        -873.762          27.000  
G15  22790570.879   119765284.125        1297.935          46.000    22790570.374    93323615.358        1010.957          34.000  
G25  25998821.165   136624713.520       -2992.240          30.000    25998837.988   106460892.626       -2330.133          32.000  
G29  23648929.499   124275988.049        1054.458          44.000    23648931.876    96838433.078         821.470          39.000  
> 2025 04 04 11 19 20.0060000  0 10                     
G05  22920184.499   120446423.954       -2242.920          47.000    22920184.551    93854346.846       -1747.787          40.000  
G06  26252366.230                       -3087.356          23.000    26252354.343                       -2402.310          25.000  
G12  26094760.307   137128939.750       -3619.358          35.000                                                                  
G11  24155561.344   126938329.065       -2255.106          44.000    24155565.043    98913003.838       -1757.530          41.000  
G20  24213705.074   127243875.159       -2925.226          36.000                                                                  
G13  21847158.500   114807581.401        -573.820          43.000                                                                  
G30  26964917.136   141701575.725       -1120.354          30.000    26964928.895   110416873.255        -873.099          27.000  
G15  22790323.891   119763986.636        1297.134          45.000    22790323.303    93322604.302        1011.283          34.000  
G25  25999390.761   136627704.789       -2991.054          30.000    25999407.264   106463223.559       -2330.906          32.000  
G29  23648728.934   124274934.312        1053.723          44.000    23648731.362    96837612.024         820.719          39.000  
> 2025 04 04 11 19 21.0060000  0 10                     
G05  22920611.315   120448666.792       -2242.835          47.000    22920611.359    93856094.534       -1747.846          40.000  
G06  26252953.076                       -3075.854          22.000    26252938.852                       -2401.855          24.000  
G12  26095449.021   137132558.763       -3618.928          36.000                                                                  
G11  24155990.416   126940584.359       -2255.272          44.000    24155994.177    98914761.205       -1757.477          42.000  
G20  24214261.651   127246800.109       -2924.437          36.000                                                                  
G13  21847267.678   114808155.519        -574.331          43.000                                                                  
G30  26965130.932   141702697.113       -1121.461          31.000    26965142.180   110417747.075        -874.154          28.000  
G15  22790076.953   119762689.466        1296.985          45.000    22790076.431    93321593.542        1010.767          35.000  
G25  25999959.988   136630696.039       -2990.232          30.000    25999976.600   106465554.449       -2331.209          32.000  
G29  23648528.472   124273880.939        1053.266          44.000    23648530.961    96836791.200         820.518          39.000  
> 2025 04 04 11 19 22.0060000  0 10                     
G05  22921038.053   120450909.877       -2243.145          47.000    22921038.212    93857842.415       -1748.178          40.000  
G06  26253537.133                       -3081.388          22.000    26253525.147                       -2402.546          23.000  
G12  26096137.656   137136177.775       -3618.893          35.000                                                                  
G11  24156419.601   126942839.991       -2256.180          44.000    24156423.452    98916518.817       -1757.869          42.000  
G20  24214818.303   127249725.150       -2925.490          37.000                                                                  
G13  21847377.127   114808730.383        -575.135          43.000                                                                  
G30  26965344.561   141703818.994       -1124.226          31.000    26965355.015   110418621.245        -874.698          29.000  
G15  22789830.145   119761392.830        1296.198          45.000    22789829.699    93320583.200        1010.534          36.000  
G25  26000529.369   136633687.437       -2989.191          30.000    26000545.960   106467885.415       -2331.073          33.000  
G29  23648328.128   124272828.126        1052.419          45.000    23648330.544    96835970.804         820.077          39.000  
> 2025 04 04 11 19 23.0060000  0 10                     
G05  22921464.965   120453153.328       -2243.624          48.000    22921465.186    93859590.540       -1748.273          40.000  
G06  26254121.298                       -3078.569          22.000    26254110.332                       -2398.336          23.000  
G12  26096826.263   137139796.887       -3619.573          35.000                                                                  
G11  24156848.801   126945096.031       -2256.300          43.000    24156852.764    98918276.804       -1758.288          42.000  
G20  24215374.990   127252650.347       -2925.349          37.000                                                                  
G13  21847486.687   114809306.148        -576.335          43.000                                                                  
G30  26965558.060   141704941.338       -1122.669          27.000    26965569.706   110419495.868        -874.449          28.000  
G15  22789583.384   119760096.886        1295.175          45.000    22789583.118    93319573.365        1009.754          36.000  
G25  26001098.890   136636679.262       -2991.158          30.000    26001115.337   106470216.669       -2331.821          32.000  
G29  23648128.012   124271775.997        1051.438          45.000    23648130.358    96835150.956         819.688          40.000  
> 2025 04 04 11 19 24.0060000  0 10                     
G05  22921892.026   120455397.282       -2244.378          48.000    22921892.255    93861339.062       -1748.774          40.000  
G06  26254706.632                       -3079.411          22.000    26254695.076                       -2405.776          23.000  
G12  26097514.956   137143416.244       -3619.734          35.000    26097513.887                       -2820.888          25.000  
G11  24157278.159   126947352.724       -2257.271          44.000    24157282.209    98920035.253       -1758.981          42.000  
G20  24215931.858   127255575.870       -2926.072          37.000                                                                  
G13  21847596.521   114809882.956        -577.422          43.000                                                                  
G30  26965771.768   141706064.306       -1123.586          33.000    26965783.189   110420370.862        -875.664          27.000  
G15  22789336.844   119758801.721        1294.649          45.000    22789336.665    93318564.227        1007.650          35.000  
G25  26001668.361   136639671.491       -2992.460          30.000    26001684.896   106472548.240       -2331.813          32.000  
G29  23647927.980   124270724.679        1050.646          44.000    23647930.232    96834331.794         818.460          40.000  
> 2025 04 04 11 19 25.0060000  0 10                     
G05  22922319.101   120457641.736       -2244.664          48.000    22922319.382    93863087.978       -1748.896          40.000  
G06  26255291.737                       -3081.247          25.000    26255282.182                       -2411.501          24.000  
G12  26098203.632   137147035.844       -3619.493          36.000    26098203.175                       -2821.531          23.000  
G11  24157707.806   126949610.030       -2257.830          44.000    24157711.833    98921794.175       -1759.142          43.000  
G20  24216488.461   127258501.702       -2925.947          37.000                                                                  
G13  21847706.411   114810460.829        -578.297          43.000                                                                  
G30  26965985.344   141707188.068       -1124.474          32.000    26965996.681   110421246.589        -875.726          30.000  
G15  22789090.493   119757507.398        1293.954          45.000    22789090.335    93317555.634        1008.133          35.000  
G25  26002238.018   136642664.116       -2992.740          30.000    26002254.494   106474880.196       -2331.750          32.000  
G29  23647727.969   124269674.204        1050.011          44.000    23647730.334    96833513.278         817.881          40.000  
> 2025 04 04 11 19 26.0060000  0 10                     
G05  22922746.227   120459886.506       -2244.821          48.000    22922746.574    93864837.161       -1749.354          40.000  
G06  26255880.798                       -3088.474          21.000    26255869.423                       -2402.230          24.000  
G12  26098892.418   137150655.550       -3619.994          36.000    26098892.636                       -2820.524          22.000  
G11  24158137.379   126951867.745       -2257.838          45.000    24158141.424    98923553.445       -1759.467          42.000  
G20  24217045.186   127261427.666       -2925.882          37.000                                                                  
G13  21847816.588   114811039.582        -579.193          42.000                                                                  
G30  26966199.200   141708312.399       -1124.994          33.000    26966210.472   110422122.705        -875.676          30.000  
G15  22788844.277   119756213.711        1293.448          45.000    22788844.179    93316547.557        1007.831          35.000  
G25  26002807.745   136645657.104       -2994.052          30.000    26002824.089   106477212.355       -2331.870          32.000  
G29  23647528.277   124268624.383        1049.580          44.000    23647530.528    96832695.232         817.668          40.000  
> 2025 04 04 11 19 27.0060000  0 10                     
G05  22923173.368   120462131.262       -2245.124          47.000    22923173.718    93866586.330       -1749.539          40.000  
G06  26256470.902                       -3094.826          19.000    26256457.434                       -2401.914          24.000  
G12  26099581.244   137154274.945       -3619.353          36.000                                                                  
G11  24158566.969   126954125.565       -2258.064          45.000    24158571.111    98925312.793       -1759.627          43.000  
G20  24217601.833   127264353.488       -2926.170          38.000                                                                  
G13  21847926.910   114811618.846        -579.759          43.000                                                                  
G30  26966413.205   141709436.898       -1124.800          33.000    26966424.590   110422998.908        -875.721          30.000  
G15  22788598.065   119754920.337        1292.855          45.000    22788598.101    93315539.764        1007.481          35.000  
G25  26003377.445   136648649.905       -2992.190          30.000    26003393.714   106479544.484       -2332.208          32.000  
G29  23647328.702   124267574.892        1049.139          44.000    23647330.794    96831877.437         817.705          40.000  
> 2025 04 04 11 19 28.0060000  0 10                     
G05  22923600.608   120464376.312       -2245.665          47.000    22923600.907    93868335.733       -1750.095          40.000  
G06  26257057.540                       -3076.047          17.000    26257045.859                       -2401.024          24.000  
G12  26100270.043   137157894.441       -3619.692          36.000                                                                  
G11  24158996.690   126956383.774       -2258.653          46.000    24159000.900    98927072.432       -1760.044          42.000  
G20  24218158.718   127267279.371       -2926.048          38.000                                                                  
G13  21848037.248   114812198.946        -580.819          42.000                                                                  
G30  26966627.455   141710561.918       -1125.788          32.000    26966638.719   110423875.715        -877.418          30.000  
G15  22788351.973   119753627.573        1292.168          45.000    22788352.041    93314532.388        1006.874          34.000  
G25  26003947.347   136651643.047       -2992.771          31.000    26003963.283   106481876.833       -2333.304          32.000  
G29  23647128.987   124266526.048        1048.016          44.000    23647131.182    96831060.170         816.566          39.000  
> 2025 04 04 11 19 29.0060000  0 10                     
G05  22924027.852   120466621.839       -2245.780          47.000    22924028.303    93870085.460       -1749.704          39.000  
G06  26257641.208                       -3082.100          16.000    26257632.491                       -2409.146          24.000  
G12  26100958.852   137161514.132       -3619.431          36.000                                                                  
G11  24159426.536   126958642.560       -2258.773          43.000    24159430.717    98928832.550       -1760.159          39.000  
G20  24218715.720   127270205.639       -2926.670          38.000                                                                  
G13  21848147.862   114812780.102        -581.559          45.000                                                                  
G30  26966841.516   141711687.565       -1125.216          33.000    26966852.918   110424752.771        -877.485          29.000  
G15  22788106.007   119752335.629        1291.666          44.000    22788106.177    93313525.697        1006.182          33.000  
G25  26004517.107   136654636.623       -2993.429          30.000    26004532.930   106484209.496       -2333.234          31.000  
G29  23646929.477   124265477.999        1047.909          44.000    23646931.749    96830243.511         816.298          39.000  
> 2025 04 04 11 19 30.0060000  0 10                     
G05  22924455.076   120468867.413       -2245.773          48.000    22924455.603    93871835.286       -1750.247          40.000  
G06  26258228.211                       -3090.115          17.000    26258221.164                       -2407.899          24.000  
G12  26101647.788   137165133.636       -3619.488          36.000                                                                  
G11  24159856.406   126960901.501       -2258.981          43.000    24159860.576    98930592.758       -1760.468          38.000  
G20  24219272.778   127273131.663       -2925.863          38.000                                                                  
G13  21848258.522   114813361.788        -582.195          45.000                                                                  
G30  26967055.512   141712813.659       -1126.849          31.000    26967067.403   110425630.227        -877.332          22.000  
G15  22787860.089   119751043.992        1291.264          46.000    22787860.393    93312519.229        1006.119          34.000  
G25  26005086.859   136657630.187       -2993.599          31.000    26005102.564   106486542.056       -2332.377          32.000  
G29  23646729.981   124264430.306        1047.181          44.000    23646732.362    96829427.120         816.088          39.000  
> 2025 04 04 11 19 31.0060000  0 10                     
G05  22924882.405   120471113.316       -2245.873          48.000    22924882.956    93873585.339       -1750.132          40.000  
G06  26258812.016                       -3084.664          18.000    26258809.316                       -2404.879          22.000  
G12  26102336.486   137168753.160       -3619.214          36.000                                                                  
G11  24160286.346   126963160.891       -2259.202          41.000    24160290.580    98932353.345       -1760.564          37.000  
G20  24219829.614   127276057.894       -2926.214          37.000                                                                  
G13  21848369.306   114813944.378        -582.920          45.000                                                                  
G30  26967269.428   141713940.091       -1126.717          32.000    26967281.963   110426507.972        -877.893          25.000  
G15  22787614.398   119749753.022        1290.794          46.000    22787614.766    93311513.272        1005.949          34.000  
G25  26005656.702   136660623.996       -2993.447          31.000    26005672.350   106488874.951       -2332.920          32.000  
G29  23646530.687   124263383.246        1047.037          43.000    23646533.178    96828611.271         815.680          39.000  
> 2025 04 04 11 19 32.0060000  0 10                     
G05  22925309.760   120473359.145       -2245.656          47.000    22925310.309    93875335.360       -1750.182          40.000  
G06  26259400.737                       -3088.227          18.000    26259396.088                       -2405.655          21.000  
G12  26103025.195   137172372.359       -3618.563          36.000                                                                  
G11  24160716.269   126965420.300       -2259.409          42.000    24160720.458    98934113.907       -1760.790          37.000  
G20  24220386.611   127278983.831       -2925.948          37.000                                                                  
G13  21848480.249   114814527.396        -583.281          45.000                                                                  
G30  26967483.404   141715066.747       -1127.267          33.000    26967496.532   110427385.902        -877.982          27.000  
G15  22787368.715   119748462.281        1290.475          46.000    22787369.203    93310507.507        1005.517          34.000  
G25  26006226.527   136663617.683       -2993.209          31.000    26006242.117   106491207.705       -2333.129          32.000  
G29  23646331.462   124262336.454        1046.521          44.000    23646334.044    96827795.598         815.375          39.000  
> 2025 04 04 11 19 33.0060000  0 10                     
G05  22925737.161   120475605.232       -2245.908          47.000    22925737.795    93877085.558       -1750.037          40.000  
G06  26259984.534                       -3088.229          19.000    26259983.912                       -2404.461          20.000  
G12  26103713.865   137175991.599       -3619.486          35.000                                                                  
G11  24161146.371   126967680.074       -2259.892          42.000    24161150.426    98935874.726       -1760.802          36.000  
G20  24220943.425   127281909.831       -2925.786          35.000                                                                  
G13  21848591.353   114815111.237        -584.232          43.000                                                                  
G30  26967697.576   141716193.665       -1126.510          32.000    26967711.028   110428263.946        -878.429          27.000  
G15  22787123.102   119747172.108        1290.161          46.000    22787123.720    93309502.214        1005.112          34.000  
G25  26006796.425   136666611.469       -2992.362          31.000    26006811.978   106493540.564       -2332.350          32.000  
G29  23646132.461   124261290.293        1046.165          44.000    23646135.035    96826980.398         814.967          39.000  
> 2025 04 04 11 19 34.0060000  0 11                     
G05  22926164.500   120477851.318       -2246.327          47.000    22926165.191    93878835.767       -1750.137          40.000  
G06  26260570.280                       -3081.119          18.000    26260571.009                       -2404.461          18.000  
G12  26104402.261   137179610.565       -3618.961          35.000                                                                  
G11  24161576.401   126969939.934       -2259.741          41.000    24161580.450    98937635.695       -1760.942          37.000  
G20  24221500.202   127284835.700       -2925.717          35.000                                                                  
G13  21848702.524   114815695.577        -584.527          42.000                                                                  
G30  26967911.940   141717320.969       -1126.377          31.000    26967925.724   110429142.502        -879.070          27.000  
G15  22786877.764   119745882.263        1289.634          46.000    22786878.183    93308497.101        1005.022          35.000  
G25  26007366.367   136669605.436       -2994.593          31.000    26007381.822   106495873.460       -2332.684          32.000  
G23  26709316.422                         714.197          22.000                                                                  
G29  23645933.463   124260244.416        1045.649          45.000    23645935.885    96826165.429         815.026          39.000  
> 2025 04 04 11 19 35.0060000  0 11                     
G05  22926592.090   120480097.413       -2246.385          47.000    22926592.561    93880585.957       -1750.083          39.000  
G06  26261153.526                       -3092.152          18.000    26261157.338                       -2408.863          15.000  
G12  26105090.881   137183229.290       -3618.041          35.000                                                                  
G11  24162006.445   126972199.918       -2260.350          40.000    24162010.552    98939396.732       -1761.290          36.000  
G20  24222057.011   127287761.380       -2925.630          35.000                                                                  
G13  21848813.864   114816280.523        -585.542          41.000                                                                  
G30  26968126.535   141718448.553       -1129.584          30.000    26968140.201   110430021.088        -878.679          25.000  
G15  22786632.459   119744592.744        1289.130          46.000    22786632.881    93307492.321        1004.275          35.000  
G25  26007936.132   136672599.177       -2993.335          32.000    26007951.637   106498206.325       -2333.112          32.000  
G23  26709988.445                         709.141          24.000                                                                  
G29  23645734.588   124259198.896        1045.265          45.000    23645736.893    96825350.762         814.372          39.000  
> 2025 04 04 11 19 36.0060000  0 11                     
G05  22927019.532   120482343.311       -2245.754          47.000    22927019.995    93882336.021       -1750.069          40.000  
G06  26261735.145                       -3084.066          17.000    26261746.108                       -2407.950          17.000  
G12  26105779.411   137186847.576       -3617.969          35.000                                                                  
G11  24162436.539   126974459.812       -2259.364          41.000    24162440.590    98941157.678       -1760.292          36.000  
G20  24222613.693   127290686.684       -2924.927          36.000                                                                  
G13  21848925.216   114816865.806        -585.576          41.000                                                                  
G30  26968340.985   141719576.031       -1127.053          30.000    26968353.805                        -878.468          23.000  
G15  22786387.041   119743303.330        1289.320          46.000    22786387.482    93306487.578        1004.789          35.000  
G25  26008506.171   136675592.780       -2994.812          31.000    26008521.424   106500538.966       -2332.796          32.000  
G23  26708741.627                         695.052          23.000                                                                  
G29  23645535.725   124258153.535        1045.559          45.000    23645537.956    96824536.169         814.685          38.000  
> 2025 04 04 11 19 37.0060000  0 10                     
G05  22927446.818   120484588.906       -2245.853          48.000    22927447.248    93884085.834       -1749.773          40.000  
G06  26262321.712                       -3079.654          19.000    26262334.263                       -2404.856          21.000  
G12  26106467.925   137190465.319       -3617.344          35.000                                                                  
G11  24162866.487   126976719.522       -2260.047          43.000    24162870.630    98942918.527       -1761.134          37.000  
G20  24223170.395   127293611.501       -2924.873          36.000                                                                  
G13  21849036.747   114817451.341        -585.997          42.000                                                                  
G30  26968555.604   141720703.589       -1127.727          32.000    26968567.918                        -883.038          24.000  
G15  22786141.722   119742013.964        1289.243          46.000    22786142.076    93305482.907        1004.130          35.000  
G25  26009075.986   136678586.017       -2993.622          32.000    26009091.003   106502871.324       -2332.441          32.000  
G29  23645336.850   124257108.211        1045.067          45.000    23645338.947    96823721.646         814.099          39.000  
> 2025 04 04 11 19 38.0060000  0 10                     
G05  22927874.132   120486834.127       -2245.184          47.000    22927874.432    93885835.370       -1749.604          39.000  
G06  26262909.044                       -3086.723          27.000    26262921.345                       -2406.947          23.000  
G12  26107156.105   137194082.402       -3617.102          34.000                                                                  
G11  24163296.492   126978978.986       -2259.532          44.000    24163300.609    98944679.149       -1760.814          40.000  
G20  24223726.972   127296535.772       -2924.155          37.000                                                                  
G13  21849148.182   114818037.054        -585.877          45.000                                                                  
G30  26968770.433   141721830.925       -1127.558          32.000    26968783.405                        -877.869          25.000  
G15  22785896.472   119740724.520        1289.245          46.000    22785896.632    93304478.124        1004.646          34.000  
G25  26009645.685   136681578.775       -2992.117          33.000    26009660.536   106505203.358       -2331.942          32.000  
G29  23645137.951   124256062.823        1045.137          45.000    23645140.001    96822907.052         814.585          39.000  
> 2025 04 04 11 19 39.0060000  0 10                     
G05  22928301.522   120489079.620       -2245.629          47.000    22928301.741    93887585.125       -1750.071          39.000  
G06  26263497.472                       -3085.909          25.000    26263510.441                       -2399.125          25.000  
G12  26107844.134   137197699.501       -3617.286          33.000    26107831.633                       -2821.694          18.000  
G11  24163726.462   126981238.810       -2260.173          43.000    24163730.624    98946440.042       -1761.233          40.000  
G20  24224283.676   127299460.139       -2924.609          37.000                                                                  
G13  21849259.794   114818623.564        -586.958          44.000                                                                  
G30  26968985.328   141722958.663       -1128.285          32.000    26968998.636                        -880.682          26.000  
G15  22785651.264   119739435.667        1288.360          46.000    22785651.260    93303473.806        1005.236          35.000  
G25  26010215.495   136684571.856       -2993.879          33.000    26010230.121   106507535.566       -2332.038          32.000  
G29  23644939.096   124255018.056        1044.527          45.000    23644941.325    96822092.972         813.607          39.000  
> 2025 04 04 11 19 40.0060000  0 10                     
G05  22928728.884   120491325.488       -2246.092          46.000    22928729.069    93889335.154       -1750.364          39.000  
G06  26264083.546                       -3089.059          24.000    26264096.942                       -2416.376          25.000  
G12  26108532.445   137201316.730       -3617.050          34.000    26108521.132                       -2813.926          18.000  
G11  24164156.581   126983499.105       -2260.638          45.000    24164160.742    98948201.320       -1761.653          40.000  
G20  24224840.335   127302384.638       -2924.339          36.000                                                                  
G13  21849371.574   114819210.999        -587.989          44.000                                                                  
G30  26969200.408   141724087.015       -1127.965          32.000    26969212.160                        -878.293          25.000  
G15  22785406.212   119738147.476        1287.920          46.000    22785406.062    93302470.075        1003.317          35.000  
G25  26010785.231   136687565.106       -2992.879          32.000    26010799.884   106509868.045       -2332.657          32.000  
G29  23644740.351   124253973.995        1043.666          44.000    23644742.694    96821279.412         813.240          39.000  
> 2025 04 04 11 19 41.0060000  0 10                     
G05  22929156.333   120493571.625       -2245.812          48.000    22929156.467    93891085.355       -1749.936          39.000  
G06  26264671.904                       -3086.445          22.000    26264683.707                       -2404.302          24.000  
G12  26109220.747   137204934.003       -3617.346          35.000    26109208.927                       -2816.748          18.000  
G11  24164586.778   126985759.779       -2260.763          44.000    24164590.884    98949962.890       -1761.820          37.000  
G20  24225396.885   127305309.265       -2924.361          37.000                                                                  
G13  21849483.459   114819799.225        -588.366          45.000                                                                  
G30  26969415.129   141725215.844       -1127.694          32.000    26969425.820                        -878.719          24.000  
G15  22785161.152   119736859.925        1287.480          46.000    22785160.997    93301466.759        1003.116          35.000  
G25  26011355.144   136690558.686       -2993.423          33.000    26011369.700   106512200.700       -2333.195          32.000  
G29  23644541.753   124252930.533        1043.348          44.000    23644544.085    96820466.318         812.917          39.000  
> 2025 04 04 11 19 42.0060000  0 10                     
G05  22929583.794   120495817.913       -2246.447          47.000    22929583.972    93892835.747       -1750.357          39.000  
G06  26265257.340                       -3089.790          22.000    26265271.482                       -2403.847          24.000  
G12  26109909.137   137208551.094       -3616.647          35.000    26109896.327                       -2813.672          18.000  
G11  24165016.942   126988020.732       -2261.002          42.000    24165021.263    98951724.655       -1761.711          36.000  
G20  24225953.591   127308233.892       -2924.534          37.000                                                                  
G13  21849595.531   114820388.179        -589.094          45.000                                                                  
G30  26969630.107   141726345.078       -1129.602          34.000    26969640.533                        -880.856          25.000  
G15  22784916.231   119735572.809        1286.799          46.000    22784916.106    93300463.824        1002.622          34.000  
G25  26011925.079   136693552.301       -2993.443          33.000    26011939.312   106514533.388       -2332.182          33.000  
G29  23644343.342   124251887.542        1042.817          43.000    23644345.713    96819653.621         812.500          39.000  
> 2025 04 04 11 19 43.0060000  0 10                     
G05  22930011.321   120498064.730       -2247.268          47.000    22930011.541    93894586.537       -1750.944          39.000  
G06  26265842.225                       -3085.529          23.000    26265858.487                       -2408.346          22.000  
G12  26110597.529   137212168.558       -3617.346          35.000    26110585.039                       -2814.159          19.000  
G11  24165447.225   126990282.363       -2262.264          43.000    24165451.618    98953486.976       -1762.887          38.000  
G20  24226510.174   127311158.890       -2925.546          36.000                                                                  
G13  21849707.917   114820978.231        -590.781          44.000                                                                  
G30  26969845.033   141727475.131       -1130.936          32.000    26969856.343   110437052.9551       -880.835          27.000  
G15  22784671.457   119734286.584        1285.574          46.000    22784671.405    93299461.604        1001.549          34.000  
G25  26012494.989   136696546.478       -2995.151          33.000    26012509.186   106516866.523       -2333.162          31.000  
G29  23644145.013   124250845.468        1041.659          43.000    23644147.412    96818841.618         811.458          39.000  
> 2025 04 04 11 19 44.0060000  0 10                     
G05  22930439.054   120500312.241       -2247.470          47.000    22930439.288    93896337.831       -1751.112          40.000  
G06  26266427.579                       -3091.066          24.000    26266445.946                       -2399.134          21.000  
G12  26111286.105   137215786.441       -3617.913          34.000    26111274.621                       -2814.020          19.000  
G11  24165877.678   126992544.807       -2262.734          44.000    24165882.173    98955249.878       -1762.808          42.000  
G20  24227066.898   127314084.342       -2924.990          36.000                                                                  
G13  21849820.381   114821569.459        -591.323          45.000                                                                  
G30  26970060.189   141728605.937       -1130.892          30.000    26970070.289   110437934.116        -879.863          26.000  
G15  22784426.845   119733001.331        1285.276          46.000    22784426.937    93298460.120        1001.057          34.000  
G25  26013065.061   136699541.263       -2995.618          32.000    26013079.197   106519200.103       -2333.198          31.000  
G29  23643946.812   124249804.397        1040.862          43.000    23643949.306    96818030.385         811.257          39.000  
> 2025 04 04 11 19 45.0060000  0 11                     
G05  22930866.812   120502559.680       -2247.341          47.000    22930866.987    93898089.093       -1751.246          40.000  
G06  26267015.253                       -3088.146          23.000    26267033.691                       -2412.423          19.000  
G12  26111974.522   137219403.984       -3617.319          34.000    26111964.047                       -2824.251          20.000  
G11  24166308.145   126994807.212       -2262.625          43.000    24166312.691    98957012.840       -1762.913          40.000  
G20  24227623.694   127317009.635       -2925.542          37.000                                                                  
G13  21849932.975   114822161.204        -591.911          44.000                                                                  
G30  26970275.200   141729736.901       -1130.408          31.000    26970287.258                        -880.157          24.000  
G15  22784182.431   119731716.379        1284.796          46.000    22784182.340    93297458.843        1000.763          34.000  
G25  26013635.031   136702535.872       -2994.166          32.000    26013649.062   106521533.653       -2334.035          31.000  
G29  23643748.727   124248763.584        1040.614          43.000    23643751.298    96817219.404         810.896          39.000  
G18  27453582.149                         874.317          10.000                                                                  
> 2025 04 04 11 19 46.0060000  0 11                     
G05  22931294.386   120504806.849       -2246.864          47.000    22931294.645    93899840.096       -1750.394          40.000  
G06  26267604.788                       -3086.655          20.000    26267621.691                       -2409.616          21.000  
G12  26112662.790   137223021.059       -3616.932          34.000    26112654.410                       -2823.230          20.000  
G11  24166738.637   126997069.452       -2262.063          43.000    24166743.194    98958775.614       -1762.463          37.000  
G20  24228180.374   127319934.399       -2924.317          38.000                                                                  
G13  21850045.614   114822753.229        -592.124          44.000                                                                  
G30  26970490.250   141730867.924       -1130.662          30.000    26970501.499                        -889.465          23.000  
G15  22783937.866   119730431.431        1285.065          46.000    22783937.741    93296457.576        1001.416          34.000  
G25  26014205.116   136705530.252       -2994.030          32.000    26014218.918   106523866.865       -2333.377          32.000  
G29  23643550.543   124247722.832        1040.883          43.000    23643553.270    96816408.427         811.193          39.000  
G18  27453420.615                         874.317          12.000                                                                  
> 2025 04 04 11 19 47.0060000  0 11                     
G05  22931721.922   120507053.774       -2247.083          48.000    22931722.167    93901590.966       -1750.929          39.000  
G06  26268194.736                       -3089.700          22.000    26268208.697                       -2404.351          22.000  
G12  26113351.061   137226637.638       -3616.758          35.000    26113345.096                       -2815.855          22.000  
G11  24167169.134   126999331.644       -2262.087          40.000    24167173.743    98960538.385       -1762.881          34.000  
G20  24228737.037   127322858.805       -2924.731          38.000                                                                  
G13  21850158.280   114823345.599        -592.877          44.000                                                                  
G30  26970705.322   141731998.829       -1130.876          31.000    26970717.609   110440579.9821       -881.956          26.000  
G15  22783693.430   119729146.599        1284.448          46.000    22783693.187    93295456.415        1000.665          35.000  
G25  26014775.025   136708524.343       -2994.525          32.000    26014788.741   106526199.934       -2333.254          32.000  
G29  23643352.403   124246682.222        1040.163          43.000    23643355.192    96815597.552         810.620          39.000  
G18  27453257.414                         874.317          10.000                                                                  
> 2025 04 04 11 19 48.0060000  0 10                     
G05  22932149.569   120509300.892       -2246.985          47.000    22932149.779    93903341.967       -1750.997          39.000  
G06  26268781.998   138043381.0253      -3088.712          29.000    26268797.459                       -2418.817          21.000  
G12  26114039.275   137230254.086       -3616.050          35.000    26114034.832                       -2822.404          23.000  
G11  24167599.585   127001594.079       -2262.315          40.000    24167604.365    98962301.309       -1762.738          34.000  
G20  24229293.809   127325783.159       -2924.045          37.000                                                                  
G13  21850271.159   114823938.631        -592.958          45.000                                                                  
G30  26970920.145   141733130.106       -1130.958          31.000    26970932.162                        -881.312          25.000  
G15  22783449.071   119727862.236        1284.393          46.000    22783448.853    93294455.617        1000.977          35.000  
G25  26015344.847   136711518.477       -2993.323          32.000    26015358.566   106528533.076       -2333.483          32.000  
G29  23643154.384   124245642.089        1040.314          43.000    23643157.284    96814787.074         810.823          39.000  
> 2025 04 04 11 19 49.0060000  0 11                     
G05  22932577.196   120511548.056       -2247.052          48.000    22932577.315    93905093.021       -1751.292          39.000  
G06  26269372.462   138046483.9582      -3088.666          27.000    26269384.714                       -2405.255          21.000  
G12  26114727.395   137233870.366       -3616.053          35.000    26114723.716                       -2818.676          24.000  
G11  24168030.310   127003856.632       -2262.956          41.000    24168034.875    98964064.317       -1763.373          35.000  
G20  24229850.292   127328707.391       -2924.166          37.000                                                                  
G13  21850383.985   114824532.254        -593.853          43.000                                                                  
G30  26971135.283   141734261.693       -1130.964          31.000    26971147.049                        -881.783          25.000  
G15  22783204.689   119726578.219        1283.856          46.000    22783204.630    93293455.130        1000.360          35.000  
G25  26015914.709   136714512.642       -2992.610          31.000    26015928.394   106530866.217       -2333.279          32.000  
G23  26708713.692                         712.328          23.000                                                                  
G29  23642956.458   124244602.344        1039.673          43.000    23642959.365    96813976.890         809.949          39.000  
> 2025 04 04 11 19 50.0060000  0 10                     
G05  22933004.933   120513795.273       -2247.520          47.000    22933004.941    93906844.083       -1751.203          39.000  
G06  26269959.164   138049573.0082      -3089.098          27.000    26269973.751                       -2405.269          21.000  
G12  26115415.549   137237486.420       -3616.129          34.000    26115411.775                       -2817.731          22.000  
G11  24168460.959   127006119.415       -2262.974          43.000    24168465.473    98965827.532       -1763.498          40.000  
G20  24230406.824   127331631.489       -2923.746          36.000                                                                  
G13  21850496.952   114825126.462        -594.826          44.000                                                                  
G30  26971350.810   141735393.485       -1131.523          31.000    26971361.603                        -882.021          25.000  
G15  22782960.462   119725294.592        1283.136          46.000    22782960.449    93292454.903         999.963          35.000  
G25  26016484.259   136717506.817       -2993.897          32.000    26016498.179   106533199.369       -2333.909          32.000  
G29  23642758.520   124243562.973        1039.080          43.000    23642761.612    96813167.013         809.457          39.000  
> 2025 04 04 11 19 51.0060000  0 10                     
G05  22933432.637   120516042.621       -2247.286          48.000    22933432.554    93908595.255       -1751.510          39.000  
G06  26270550.881   138052662.3572      -3088.826          28.000    26270561.199                       -2406.678          21.000  
G12  26116103.649   137241102.311       -3615.692          35.000    26116099.547                       -2820.624          22.000  
G11  24168891.652   127008382.444       -2263.150          42.000    24168896.139    98967590.918       -1763.156          42.000  
G20  24230963.228   127334555.428       -2924.025          33.000                                                                  
G13  21850610.160   114825721.370        -595.166          43.000                                                                  
G30  26971566.315   141736525.749       -1132.834          30.000    26971576.560                        -883.216          26.000  
G15  22782716.322   119724011.409        1282.971          46.000    22782716.261    93291455.038         999.298          35.000  
G25  26017053.765   136720501.154       -2994.196          31.000    26017068.026   106535532.525       -2332.982          33.000  
G29  23642560.804   124242524.081        1039.072          43.000    23642563.910    96812357.489         809.180          40.000  
> 2025 04 04 11 19 52.0060000  0 10                     
G05  22933860.131   120518289.944       -2247.258          47.000    22933860.194    93910346.447       -1751.071          39.000  
G06  26271142.162   138055751.6492      -3089.102          29.000    26271149.588                       -2407.441          21.000  
G12  26116791.583   137244717.967       -3615.343          35.000    26116786.966                       -2807.417          22.000  
G11  24169322.317   127010645.495       -2263.414          43.000    24169326.811    98969354.333       -1763.180          42.000  
G20  24231519.817   127337479.438       -2923.940          36.000                                                                  
G13  21850723.613   114826316.801        -595.607          44.000                                                                  
G30  26971781.827   141737658.071       -1132.347          31.000    26971790.932                        -881.331          25.000  
G15  22782472.229   119722728.533        1282.672          46.000    22782472.169    93290455.382         999.384          35.000  
G25  26017623.447   136723495.336       -2994.785          32.000    26017637.924   106537865.660       -2332.962          33.000  
G29  23642363.123   124241485.517        1038.491          45.000    23642366.321    96811548.209         809.042          39.000  
> 2025 04 04 11 19 53.0060000  0 10                     
G05  22934287.831   120520537.131       -2246.958          48.000    22934287.864    93912097.526       -1750.915          39.000  
G06  26271730.462   138058840.8802      -3089.072          29.000    26271738.833                       -2412.983          21.000  
G12  26117479.603   137248333.321       -3616.060          35.000    26117475.586                       -2820.194          22.000  
G11  24169752.881   127012908.527       -2263.088          43.000    24169757.509    98971117.727       -1763.067          40.000  
G20  24232076.135   127340403.006       -2923.515          36.000                                                                  
G13  21850837.035   114826912.644        -595.630          44.000                                                                  
G30  26971997.673   141738790.550       -1132.110          31.000    26972007.161                        -882.826          25.000  
G15  22782228.134   119721445.826        1282.574          46.000    22782228.166    93289455.865         999.359          36.000  
G25  26018193.111   136726489.295       -2993.500          32.000    26018207.768   106540198.658       -2332.817          33.000  
G29  23642165.565   124240447.134        1038.390          45.000    23642168.742    96810739.107         809.192          40.000  
> 2025 04 04 11 19 54.0060000  0 10                     
G05  22934715.321   120522783.765       -2246.354          48.000    22934715.381    93913848.167       -1750.459          39.000  
G06  26272317.691   138061929.7382      -3088.752          29.000    26272325.886                       -2401.121          21.000  
G12  26118167.549   137251947.756       -3614.202          36.000    26118162.593                       -2817.424          22.000  
G11  24170183.365   127015171.085       -2262.713          41.000    24170188.018    98972880.794       -1762.664          36.000  
G20  24232632.288   127343325.755       -2922.330          36.000                                                                  
G13  21850950.331   114827508.484        -595.696          44.000                                                                  
G30  26972212.954   141739922.713       -1132.160          31.000    26972222.960                        -881.307          25.000  
G15  22781984.037   119720162.922        1283.167          46.000    22781984.201    93288456.197         999.695          36.000  
G25  26018762.740   136729482.744       -2993.451          32.000    26018777.381   106542531.207       -2332.394          33.000  
G29  23641967.830   124239408.571        1038.632          44.000    23641971.153    96809929.834         809.480          40.000  
> 2025 04 04 11 19 55.0060000  0 10                     
G05  22935142.780   120525030.138       -2246.246          48.000    22935142.847    93915598.589       -1750.775          39.000  
G06  26272906.099   138065018.402       -3089.294          28.000    26272913.601                       -2407.074          21.000  
G12  26118855.427   137255561.724       -3613.532          35.000    26118850.157                       -2819.208          22.000  
G11  24170613.969   127017433.573       -2262.528          41.000    24170618.490    98974643.783       -1762.710          36.000  
G20  24233188.336   127346248.136       -2922.261          35.000                                                                  
G13  21851063.719   114828104.600        -595.998          43.000                                                                  
G30  26972428.572   141741054.753       -1131.646          31.000    26972440.123                        -882.931          25.000  
G15  22781739.910   119718880.064        1282.983          46.000    22781740.141    93287456.603         999.548          36.000  
G25  26019332.250   136732475.824       -2993.153          32.000    26019347.042   106544863.514       -2332.250          33.000  
G29  23641770.177   124238370.069        1038.744          45.000    23641773.574    96809120.595         809.545          40.000  
> 2025 04 04 11 19 56.0060000  0 10                     
G05  22935570.239   120527276.012       -2245.880          48.000    22935570.251    93917348.580       -1749.850          39.000  
G06  26273493.265   138068106.524       -3087.535          29.000    26273501.201                       -2409.868          20.000  
G12  26119542.974   137259174.907       -3612.760          35.000    26119539.200                       -2806.297          23.000  
G11  24171044.356   127019695.703       -2261.702          42.000    24171048.938    98976406.479       -1762.831          40.000  
G20  24233744.293   127349169.755       -2921.155          35.000                                                                  
G13  21851177.179   114828700.834        -596.447          44.000                                                                  
G30  26972643.938   141742186.673       -1131.660          32.000    26972655.509                        -881.531          25.000  
G15  22781495.879   119717597.034        1282.880          46.000    22781496.056    93286456.791         999.530          36.000  
G25  26019901.690   136735468.416       -2992.567          32.000    26019916.438   106547195.370       -2331.940          33.000  
G29  23641572.542   124237331.434        1038.447          44.000    23641575.861    96808311.282         809.241          40.000  
> 2025 04 04 11 19 57.0060000  0 10                     
G05  22935997.639   120529522.017       -2245.852          48.000    22935997.785    93919098.712       -1749.974          39.000  
G06  26274082.430   138071194.852       -3088.979          29.000    26274089.468                       -2410.089          18.000  
G12  26120230.461   137262788.044       -3613.023          35.000    26120227.479                       -2815.398          25.000  
G11  24171474.968   127021957.918       -2261.452          37.000    24171479.423    98978169.356       -1763.550          32.000  
G20  24234300.223   127352091.497       -2921.568          36.000                                                                  
G13  21851290.620   114829297.665        -596.877          45.000                                                                  
G30  26972859.407   141743318.764       -1131.913          33.000    26972870.506   110449394.8321       -882.246          27.000  
G15  22781251.860   119716314.464        1282.501          45.000    22781251.996    93285457.382         999.536          36.000  
G25  26020471.308   136738461.017       -2992.158          32.000    26020485.981   106549527.329       -2332.005          33.000  
G29  23641374.978   124236293.255        1038.169          44.000    23641378.336    96807502.308         809.085          39.000  
> 2025 04 04 11 19 58.0060000  0 10                     
G05  22936425.042   120531767.748       -2245.541          48.000    22936425.108    93920848.644       -1749.886          39.000  
G06  26274671.330   138074283.132       -3087.518          26.000    26274675.848                       -2397.868          19.000  
G12  26120917.972   137266400.591       -3612.380          36.000    26120916.839   106960787.3131      -2814.591          27.000  
G11  24171905.586   127024220.107       -2262.624          31.000    24171910.089    98979932.009       -1761.219          27.000  
G20  24234856.141   127355012.822       -2921.267          36.000                                                                  
G13  21851404.094   114829894.821        -597.052          42.000                                                                  
G30  26973074.555   141744450.846       -1131.573          32.000    26973085.619                        -883.217          25.000  
G15  22781007.846   119715031.938        1282.581          46.000    22781008.004    93284458.016         999.298          36.000  
G25  26021040.952   136741453.373       -2991.795          32.000    26021055.464   106551859.031       -2331.163          33.000  
G29  23641177.490   124235255.141        1037.917          44.000    23641180.825    96806693.404         809.130          40.000  
> 2025 04 04 11 19 59.0060000  0 10                     
G05  22936852.312   120534012.966       -2245.258          48.000    22936852.401    93922598.192       -1749.551          40.000  
G06  26275259.789   138077370.994       -3087.373          26.000    26275264.133                       -2418.683          18.000  
G12  26121605.224   137270012.418       -3611.906          35.000    26121605.891   106963601.737       -2814.472          26.000  
G11  24172336.039   127026481.981       -2262.227          36.000    24172340.704    98981694.516       -1762.589          33.000  
G20  24235411.944   127357933.289       -2920.389          38.000                                                                  
G13  21851517.777   114830492.038        -597.478          42.000                                                                  
G30  26973289.836   141745582.661       -1132.346          31.000    26973299.818                        -883.657          24.000  
G15  22780763.792   119713749.236        1282.422          46.000    22780763.855    93283458.529         999.304          36.000  
G25  26021610.054   136744445.135       -2991.517          33.000    26021624.858   106554190.279       -2331.238          34.000  
G29  23640979.871   124234216.850        1038.042          45.000    23640983.301    96805884.357         809.049          39.000  
> 2025 04 04 11 20 00.0060000  0 10                     
G05  22937279.485   120536258.135       -2244.889          48.000    22937279.498    93924347.670       -1749.170          40.000  
G06  26275847.627   138080458.871       -3088.226          27.000    26275852.418                       -2395.739          17.000  
G12  26122292.450   137273623.922       -3611.400          35.000    26122295.151   106966415.865       -2813.586          26.000  
G11  24172766.671   127028743.833       -2261.847          36.000    24172771.316    98983456.943       -1762.589          34.000  
G20  24235967.606   127360853.560       -2919.975          37.000                                                                  
G13  21851631.582   114831089.708        -597.762          43.000                                                                  
G30  26973505.417   141746714.703       -1132.134          30.000    26973515.240                        -887.739          23.000  
G15  22780519.694   119712466.778        1282.623          46.000    22780519.791    93282459.235         999.261          37.000  
G25  26022179.124   136747436.785       -2990.923          33.000    26022194.183   106556521.408       -2330.508          34.000  
G29  23640782.277   124233178.818        1038.002          45.000    23640785.730    96805075.535         808.994          39.000  
