     3.04           OBSERVATION DATA    M: Mixed            RINEX VERSION / TYPE
RTKCONV demo5 b34i                      20250404 104839 UTC PGM / RUN BY / DATE 
format: u-blox UBX                                          COMMENT             
log: D:\20242\demo5_b34i\data\HoDenLu\rieng\hdl1_0m.ubx     COMMENT             
                                                            MARKER NAME         
                                                            MARKER NUMBER       
                                                            MARKER TYPE         
                                                            OBSERVER / AGENCY   
                                                            REC # / TYPE / VERS 
                                                            ANT # / TYPE        
 -1627737.7400  5730980.2283  2269817.4255                  APPROX POSITION XYZ 
        0.0000        0.0000        0.0000                  ANTENNA: DELTA H/E/N
G    8 C1C L1C D1C S1C C2X L2X D2X S2X                      SYS / # / OBS TYPES 
  2025    04    04    10    33   38.0030000     GPS         TIME OF FIRST OBS   
  2025    04    04    10    48   42.0040000     GPS         TIME OF LAST OBS    
G L1C                                                       SYS / PHASE SHIFT   
G L2X  0.00000                                              SYS / PHASE SHIFT   
  0                                                         GLONASS SLOT / FRQ #
 C1C    0.000 C1P    0.000 C2C    0.000 C2P    0.000        GLONASS COD/PHS/BIS 
                                                            END OF HEADER       
> 2025 04 04 10 33 38.0030000  0 10                     
G05  21886421.589   115013952.4441      -1635.394          44.000    21886422.468    89621249.7191      -1274.616          44.000  
G06  24779709.033   130218254.6901      -2597.302          29.000    24779719.168   101468827.9361      -2023.059          39.000  
G12  24189273.551   127115528.4911      -3546.567          36.000    24189284.004    99051078.8231      -2763.126          37.000  
G11  23123146.926   121512967.7611      -1754.092          45.000    23123149.832    94685433.7131      -1366.418          39.000  
G20  22671553.200   119139830.9771      -2938.738          47.000                                                                  
G13  21993071.342   115574390.3211       1036.084          39.000                                                                  
G30  26583336.377                        -297.276          11.000                                                                  
G15  23733020.856   124717865.6741       2203.443          32.000    23733017.470    97182742.7811       1716.315          32.000  
G25  24567649.950   129103910.0961      -2366.966          36.000    24567667.661   100600493.2261      -1844.511          30.000  
G29  24467661.541                        1964.089          24.000    24467673.195   100191022.1361       1527.557          34.000  
> 2025 04 04 10 33 39.0030000  0 10                     
G05  21886732.870   115015588.287       -1636.513          43.000    21886733.763    89622524.394       -1275.080          44.000  
G06  24780203.019   130220851.489       -2597.198          30.000    24780213.254   101470851.419       -2024.048          40.000  
G12  24189948.366   127119074.897       -3546.937          41.000    24189958.785    99053842.239       -2764.100          40.000  
G11  23123480.866   121514722.323       -1755.252          45.000    23123483.749    94686800.898       -1367.484          39.000  
G20  22672112.543   119142770.150       -2939.643          47.000                                                                  
G13  21992874.323   115573354.766        1035.021          39.000                                                                  
G30  26583392.263                        -310.460          13.000                                                                  
G15  23732601.787   124715662.764        2202.171          32.000    23732598.308    97181026.280        1715.746          32.000  
G25  24568100.450   129106277.325       -2368.016          37.000    24568118.197   100602337.746       -1845.285          29.000  
G29  24467286.269                        1959.694          24.000    24467300.147   100189494.378        1527.831          33.000  
> 2025 04 04 10 33 40.0030000  0 10                     
G05  21887044.305   115017225.061       -1637.297          43.000    21887045.194    89623799.840       -1276.145          44.000  
G06  24780697.353   130223449.090       -2598.389          34.000    24780707.449   101472875.505       -2024.579          39.000  
G12  24190623.466   127122622.214       -3547.401          42.000    24190633.752    99056606.426       -2764.704          42.000  
G11  23123814.866   121516477.601       -1755.805          44.000    23123817.758    94688168.635       -1368.226          40.000  
G20  22672672.022   119145710.007       -2940.260          47.000                                                                  
G13  21992677.524   115572320.383        1033.575          40.000                                                                  
G30  26583451.629                        -310.460          14.000                                                                  
G15  23732182.487   124713460.805        2201.264          35.000    23732179.321    97179310.289        1715.558          31.000  
G25  24568551.132   129108645.548       -2368.259          37.000    24568568.664   100604183.064       -1844.986          29.000  
G29  24466916.722                        1963.691          25.000    24466927.249   100187967.366        1525.859          34.000  
> 2025 04 04 10 33 41.0030000  0 10                     
G05  21887355.902   115018862.859       -1638.305          43.000    21887356.863    89625075.999       -1276.737          44.000  
G06  24781191.859   130226047.411       -2598.291          30.000    24781201.908   101474900.162       -2024.780          39.000  
G12  24191298.719   127126170.313       -3548.424          41.000    24191308.803    99059371.180       -2764.859          41.000  
G11  23124148.979   121518233.667       -1756.364          45.000    23124151.860    94689536.995       -1368.689          40.000  
G20  22673231.557   119148650.548       -2940.927          47.000                                                                  
G13  21992480.998   115571287.073        1032.965          43.000                                                                  
G30  26582896.432                        -310.742          22.000                                                                  
G15  23731763.095   124711259.633        2199.918          32.000    23731760.273    97177595.079        1714.956          35.000  
G25  24569002.007   129111014.798       -2369.645          35.000    24569019.470   100606029.229       -1845.988          28.000  
G29  24466545.824   128572565.8283       1958.887          27.000    24466554.402   100186440.866        1526.659          33.000  
> 2025 04 04 10 33 42.0030000  0  9                     
G05  21887667.760   115020501.303       -1638.797          43.000    21887668.806    89626352.743       -1277.219          44.000  
G06  24781686.618   130228646.345       -2598.621          31.000    24781696.359   101476925.313       -2025.665          39.000  
G12  24191974.072   127129719.031       -3549.096          42.000    24191984.005    99062136.412       -2765.345          39.000  
G11  23124483.330   121519990.291       -1757.070          44.000    23124486.170    94690905.786       -1369.270          39.000  
G20  22673791.299   119151591.572       -2941.316          48.000                                                                  
G13  21992284.395   115570254.453        1031.927          45.000                                                                  
G15  23731344.298   124709058.995        2199.935          27.000    23731341.454    97175880.316        1714.081          32.000  
G25  24569453.233   129113384.846       -2370.512          38.000    24569470.343   100607876.052       -1847.022          28.000  
G29  24466177.903   128570632.5712       1958.504          33.000    24466181.778   100184914.969        1526.814          34.000  
> 2025 04 04 10 33 43.0030000  0  9                     
G05  21887979.748   115022140.822       -1640.050          43.000    21887980.828    89627630.265       -1277.944          44.000  
G06  24782181.271   130231246.128       -2600.500          31.000    24782191.097   101478951.051       -2026.050          39.000  
G12  24192649.669   127133268.655       -3550.004          42.000    24192659.338    99064902.376       -2766.701          39.000  
G11  23124817.717   121521747.717       -1758.179          44.000    23124820.610    94692275.193       -1369.876          41.000  
G20  22674351.094   119154533.364       -2942.370          47.000                                                                  
G13  21992088.162   115569223.157        1030.717          45.000                                                                  
G15  23730925.589   124706859.189        2199.907          29.000    23730922.792    97174166.306        1713.795          32.000  
G25  24569904.583   129115755.950       -2372.040          38.000    24569921.595   100609723.715       -1849.078          29.000  
G29  24465805.402   128568674.1612       1956.932          33.000    24465809.370   100183389.728        1524.271          34.000  
> 2025 04 04 10 33 44.0030000  0  9                     
G05  21888291.904   115023781.094       -1640.397          43.000    21888292.931    89628908.419       -1278.196          44.000  
G06  24782676.334   130233846.463       -2600.391          32.000    24782685.974   101480977.273       -2025.946          39.000  
G12  24193325.394   127136818.930       -3550.379          41.000    24193334.951    99067668.793       -2766.379          39.000  
G11  23125152.391   121523505.761       -1758.132          45.000    23125155.265    94693645.086       -1369.883          41.000  
G20  22674910.908   119157475.655       -2942.271          47.000                                                                  
G13  21991892.050   115568192.820        1030.072          44.000                                                                  
G15  23730507.481   124704660.216        2199.882          30.000    23730504.277    97172452.827        1712.897          32.000  
G25  24570356.042   129118127.875       -2372.070          35.000    24570373.044   100611571.978       -1847.974          30.000  
G29  24465432.547   128566717.3752       1956.512          33.000    24465437.031   100181864.995        1524.386          34.000  
> 2025 04 04 10 33 45.0030000  0 10                     
G05  21888604.068   115025421.891       -1640.952          44.000    21888605.231    89630186.946       -1278.356          44.000  
G06  24783171.323   130236447.088       -2600.873          33.000    24783180.825   101483003.785       -2026.526          39.000  
G12  24194001.204   127140369.571       -3550.718          42.000    24194010.396    99070435.540       -2766.529          39.000  
G11  23125486.965   121525264.103       -1757.855          45.000    23125489.896    94695015.284       -1370.226          41.000  
G20  22675470.921   119160418.203       -2942.026          48.000                                                                  
G13  21991696.035   115567163.314        1029.583          41.000                                                                  
G30  26583096.820                        -306.104          19.000                                                                  
G15  23730088.548   124702461.719        2199.017          33.000    23730085.826    97170739.647        1713.243          33.000  
G25  24570807.620   129120500.373       -2373.065          36.000    24570824.507   100613420.653       -1848.751          31.000  
G29  24465061.322   128564761.1492       1956.413          34.000    24465064.805   100180340.561        1523.803          29.000  
> 2025 04 04 10 33 46.0030000  0 10                     
G05  21888916.251   115027062.976       -1641.414          45.000    21888917.469    89631465.740       -1279.042          44.000  
G06  24783666.477   130239047.785       -2601.074          36.000    24783675.670   101485030.378       -2027.319          39.000  
G12  24194677.013   127143920.416       -3550.780          42.000    24194686.167    99073202.449       -2766.985          41.000  
G11  23125821.683   121527022.628       -1759.017          43.000    23125824.564    94696385.532       -1369.887          40.000  
G20  22676030.942   119163360.798       -2942.816          47.000                                                                  
G13  21991500.127   115566133.974        1028.487          48.000                                                                  
G30  26583158.529                        -306.104          16.000                                                                  
G15  23729669.590   124700263.388        2199.320          30.000    23729667.380    97169026.597        1712.690          31.000  
G25  24571259.375   129122873.197       -2372.908          39.000    24571275.906   100615269.610       -1849.355          30.000  
G29  24464689.647   128562804.8282       1955.576          30.000    24464692.476   100178816.209        1523.871          28.000  
> 2025 04 04 10 33 47.0030000  0 10                     
G05  21889228.621   115028705.066       -1642.738          44.000    21889229.975    89632745.313       -1280.050          43.000  
G06  24784161.499                       -2602.454          35.000    24784170.780   101487057.558       -2026.996          34.000  
G12  24195353.052   127147472.137       -3552.418          42.000    24195361.992    99075969.983       -2767.828          41.000  
G11  23126156.438   121528781.921       -1759.768          38.000    23126159.384    94697756.427       -1371.882          33.000  
G20  22676590.989   119166304.149       -2943.744          48.000                                                                  
G13  21991304.408   115565105.823        1027.859          47.000                                                                  
G30  26583228.948                        -306.104          15.000                                                                  
G15  23729250.774   124698065.807        2197.066          31.000    23729249.226    97167314.205        1711.555          32.000  
G25  24571711.173   129125247.130       -2374.445          38.000    24571727.507   100617119.398       -1850.208          29.000  
G29  24464315.505   128560849.6492       1953.320          25.000    24464320.566   100177292.576        1523.177          34.000  
> 2025 04 04 10 33 48.0030000  0 10                     
G05  21889541.403   115030348.122       -1643.705          43.000    21889542.650    89634025.625       -1280.637          44.000  
G06  24784659.081   130244262.3893      -2601.068          35.000    24784666.039   101489085.450       -2028.223          39.000  
G12  24196029.114   127151024.664       -3552.664          41.000    24196038.003    99078738.171       -2768.360          39.000  
G11  23126491.412   121530541.859       -1760.208          43.000    23126494.281    94699127.755       -1371.506          38.000  
G20  22677151.151   119169248.126       -2944.633          45.000                                                                  
G13  21991108.996   115564078.839        1026.270          46.000                                                                  
G30  26583288.965                        -306.104          15.000                                                                  
G15  23728832.398   124695869.022        2196.766          35.000    23728831.103    97165602.482        1710.976          38.000  
G25  24572163.145   129127622.045       -2375.105          36.000    24572179.258   100618969.978       -1849.987          29.000  
G29  24463943.644   128558895.1252       1953.850          31.000    24463948.552   100175769.608        1522.941          34.000  
> 2025 04 04 10 33 49.0030000  0 11                     
G05  21889854.282   115031992.533       -1644.605          43.000    21889855.642    89635306.938       -1281.315          44.000  
G06  24785154.736   130246867.0192      -2603.333          36.000    24785161.461   101491114.174       -2028.387          39.000  
G12  24196705.450   127154578.375       -3553.444          40.000    24196714.230    99081507.289       -2768.821          40.000  
G11  23126826.625   121532303.088       -1761.222          45.000    23126829.400    94700500.146       -1372.161          38.000  
G19  25180135.632                       -4938.576          24.000                                                                  
G20  22677711.561   119172193.252       -2944.473          43.000                                                                  
G13  21990913.863   115563053.385        1024.197          41.000                                                                  
G30  26583336.269                        -306.104          13.000                                                                  
G15  23728414.365   124693673.505        2196.413          34.000    23728413.177    97163891.715        1710.491          38.000  
G25  24572615.408   129129998.315       -2376.060          36.000    24572631.493   100620821.737       -1852.848          30.000  
G29  24463572.047   128556941.875        1952.097          32.000    24463576.918   100174247.613        1522.146          35.000  
> 2025 04 04 10 33 50.0030000  0 10                     
G05  21890167.315   115033637.461       -1644.948          44.000    21890168.560    89636588.696       -1281.859          44.000  
G06  24785653.836   130249470.9372      -2604.181          34.000    24785656.966   101493143.166       -2029.272          39.000  
G12  24197381.768   127158132.432       -3554.277          41.000    24197390.497    99084276.694       -2769.209          42.000  
G11  23127161.827   121534064.599       -1761.797          44.000    23127164.602    94701872.750       -1372.293          40.000  
G20  22678272.107   119175138.567       -2945.439          47.000                                                                  
G13  21990718.881   115562028.514        1024.532          43.000                                                                  
G30  26583398.717                        -306.104          13.000                                                                  
G15  23727996.688   124691478.487        2194.564          33.000    23727995.380    97162181.297        1710.487          36.000  
G25  24573067.691   129132375.145       -2377.154          33.000    24573083.731   100622673.657       -1851.941          28.000  
G29  24463200.644   128554989.022        1951.941          31.000    24463205.316   100172725.967        1521.540          32.000  
> 2025 04 04 10 33 51.0030000  0 10                     
G05  21890480.323   115035282.593       -1645.646          44.000    21890481.785    89637870.646       -1282.395          44.000  
G06  24786148.696   130252074.8872      -2604.517          34.000    24786152.429   101495172.203       -2029.407          40.000  
G12  24198058.102   127161686.657       -3554.677          40.000    24198066.751    99087046.209       -2769.712          40.000  
G11  23127497.049   121535826.163       -1761.825          46.000    23127499.882    94703245.445       -1372.767          40.000  
G20  22678832.656   119178083.932       -2945.670          48.000                                                                  
G13  21990524.015   115561004.058        1024.050          38.000                                                                  
G30  26583455.333                        -306.104          13.000                                                                  
G15  23727578.612   124689283.562        2194.476          36.000    23727577.477    97160470.911        1710.470          37.000  
G25  24573520.014   129134752.268       -2378.101          34.000    24573535.952   100624525.979       -1853.188          28.000  
G29  24462829.206   128553036.282        1952.702          35.000    24462833.694   100171204.260        1520.953          34.000  
> 2025 04 04 10 33 52.0030000  0 10                     
G05  21890793.595   115036928.384       -1646.160          43.000    21890794.996    89639153.099       -1282.712          44.000  
G06  24786643.608   130254679.2592      -2604.126          33.000    24786647.936   101497201.593       -2029.419          38.000  
G12  24198734.438   127165241.371       -3555.001          41.000    24198743.086    99089816.112       -2770.229          40.000  
G11  23127832.318   121537588.189       -1762.216          46.000    23127835.070    94704618.444       -1373.176          40.000  
G20  22679393.181   119181029.653       -2945.878          47.000                                                                  
G13  21990329.179   115559980.416        1023.431          44.000                                                                  
G30  26583517.464                        -306.104          16.000                                                                  
G15  23727160.750   124687089.048        2194.364          33.000    23727159.814    97158761.044        1710.205          36.000  
G25  24573972.482   129137130.126       -2378.131          37.000    24573988.396   100626378.889       -1853.606          30.000  
G29  24462457.590   128551081.9113       1951.657          31.000    24462462.202   100169682.955        1522.059          31.000  
> 2025 04 04 10 33 53.0030000  0 10                     
G05  21891106.973   115038574.980       -1647.240          43.000    21891108.342    89640436.150       -1283.557          44.000  
G06  24787137.332   130257284.3242      -2605.048          33.000    24787143.700   101499231.488       -2030.518          40.000  
G12  24199411.046   127168796.739       -3556.064          41.000    24199419.624    99092586.522       -2770.854          40.000  
G11  23128167.759   121539350.820       -1763.142          45.000    23128170.520    94705991.880       -1373.406          40.000  
G20  22679953.708   119183975.906       -2946.733          48.000                                                                  
G13  21990134.592   115558957.743        1021.899          41.000                                                                  
G30  26583576.725                        -306.104          16.000                                                                  
G15  23726743.014   124684895.462        2193.958          33.000    23726742.260    97157051.653        1709.032          36.000  
G25  24574425.161   129139508.762       -2378.977          39.000    24574441.030   100628232.386       -1853.786          31.000  
G29  24462086.083   128549130.5072       1950.452          25.000    24462090.799   100168162.402        1519.923          31.000  
> 2025 04 04 10 33 54.0030000  0 10                     
G05  21891420.435   115040222.593       -1647.795          43.000    21891421.813    89641719.989       -1283.902          44.000  
G06  24787633.127   130259890.1882      -2606.024          33.000    24787639.590   101501262.059       -2030.872          40.000  
G12  24200087.768   127172352.986       -3556.416          41.000    24200096.344    99095357.638       -2771.595          39.000  
G11  23128503.326   121541114.279       -1763.755          45.000    23128506.104    94707366.033       -1374.219          40.000  
G20  22680514.411   119186922.924       -2947.152          47.000                                                                  
G13  21989940.163   115557936.203        1020.925          39.000                                                                  
G30  26583637.938                        -306.104          14.000                                                                  
G15  23726325.359   124682702.652        2192.344          35.000    23726324.785    97155342.980        1708.550          37.000  
G25  24574877.977   129141888.505       -2380.078          38.000    24574893.794   100630086.765       -1855.214          31.000  
G29  24461714.458   128547179.8722       1950.151          26.000    24461719.508   100166642.423        1519.552          32.000  
> 2025 04 04 10 33 55.0030000  0  9                     
G05  21891734.198   115041871.160       -1648.796          43.000    21891735.459    89643004.587       -1284.656          44.000  
G06  24788129.159   130262496.3661      -2607.214          33.000    24788135.589   101503293.212       -2031.403          40.000  
G12  24200764.629   127175910.065       -3557.536          41.000    24200773.176    99098129.387       -2772.022          39.000  
G11  23128839.074   121542878.494       -1764.321          45.000    23128841.811    94708740.767       -1375.029          39.000  
G20  22681075.309   119189870.633       -2947.906          48.000                                                                  
G13  21989746.036   115556915.778        1019.979          40.000                                                                  
G15  23725907.836   124680510.714        2191.591          35.000    23725907.504    97153634.957        1708.333          37.000  
G25  24575330.983   129144269.293       -2381.171          38.000    24575346.808   100631941.876       -1855.291          31.000  
G29  24461341.921                        1951.228          26.000    24461348.349   100165123.130        1518.758          32.000  
> 2025 04 04 10 33 56.0030000  0  9                     
G05  21892048.037   115043520.528       -1649.886          42.000    21892049.193    89644289.822       -1285.669          44.000  
G06  24788625.035   130265103.603       -2607.440          33.000    24788631.745   101505324.840       -2032.043          41.000  
G12  24201441.656   127179467.793       -3558.361          41.000    24201450.217    99100901.627       -2772.453          40.000  
G11  23129174.981   121544643.338       -1765.247          45.000    23129177.621    94710115.950       -1375.774          39.000  
G20  22681636.331   119192818.880       -2948.736          48.000                                                                  
G13  21989552.097   115555896.307        1018.797          41.000                                                                  
G15  23725490.455   124678319.413        2191.312          35.000    23725490.477    97151927.507        1707.030          37.000  
G25  24575784.179   129146650.871       -2382.107          38.000    24575800.103   100633797.697       -1856.004          31.000  
G29  24460971.107                        1946.774          24.000    24460977.370   100163604.303        1518.946          30.000  
> 2025 04 04 10 33 57.0030000  0  9                     
G05  21892362.015   115045170.467       -1649.977          42.000    21892363.246    89645575.497       -1285.797          44.000  
G06  24789121.168   130267711.247       -2607.751          33.000    24789128.048   101507356.761       -2032.031          41.000  
G12  24202118.707   127183025.918       -3558.119          41.000    24202127.367    99103674.228       -2773.049          40.000  
G11  23129510.906   121546408.520       -1765.235          45.000    23129513.483    94711491.428       -1375.633          40.000  
G20  22682197.396   119195767.408       -2948.625          48.000                                                                  
G13  21989358.175   115554877.575        1018.514          40.000                                                                  
G15  23725073.271   124676128.629        2191.119          35.000    23725073.440    97150220.346        1707.723          36.000  
G25  24576237.538   129149033.072       -2382.257          38.000    24576253.389   100635653.966       -1856.995          32.000  
G29  24460599.460                        1949.810          24.000    24460606.491   100162085.860        1518.480          33.000  
> 2025 04 04 10 33 58.0030000  0  9                     
G05  21892676.171   115046820.969       -1651.002          42.000    21892677.303    89646861.618       -1286.815          45.000  
G06  24789617.281   130270319.245       -2608.002          33.000    24789624.347   101509388.983       -2032.410          41.000  
G12  24202795.851   127186584.536       -3559.192          41.000    24202804.583    99106447.159       -2773.450          40.000  
G11  23129846.749   121548174.115       -1765.840          46.000    23129849.414    94712867.170       -1375.666          40.000  
G20  22682758.522   119198716.263       -2949.244          48.000                                                                  
G13  21989164.497   115553859.552        1017.020          39.000                                                                  
G15  23724656.121   124673938.258        2190.417          34.000    23724656.664    97148513.600        1706.549          36.000  
G25  24576690.975   129151415.905       -2383.075          39.000    24576706.749   100637510.684       -1857.125          32.000  
G29  24460236.515                        1945.701          22.000    24460235.775   100160567.773        1518.025          32.000  
> 2025 04 04 10 33 59.0030000  0  9                     
G05  21892990.398   115048472.344       -1651.843          42.000    21892991.447    89648148.387       -1286.956          45.000  
G06  24790113.792   130272927.950       -2608.350          34.000    24790120.876   101511421.773       -2033.136          40.000  
G12  24203473.259   127190143.843       -3559.752          41.000    24203481.956    99109220.641       -2773.844          40.000  
G11  23130182.847   121549940.393       -1766.518          45.000    23130185.545    94714243.526       -1376.993          40.000  
G20  22683319.796   119201665.736       -2949.833          48.000                                                                  
G13  21988970.911   115552842.531        1016.543          40.000                                                                  
G15  23724239.116   124671748.669        2189.722          34.000    23724239.833    97146807.485        1705.599          36.000  
G25  24577144.619   129153799.652       -2384.153          39.000    24577160.283   100639368.153       -1857.528          31.000  
G29  24459866.178                        1944.544          28.000    24459865.275   100159050.287        1516.067          32.000  
> 2025 04 04 10 34 00.0030000  0  9                     
G05  21893304.810   115050124.692       -1652.830          43.000    21893305.919    89649435.943       -1288.056          44.000  
G06  24790610.060   130275537.524       -2610.211          36.000    24790617.419   101513455.103       -2033.569          39.000  
G12  24204150.745   127193703.981       -3560.592          39.000    24204159.441    99111994.772       -2774.174          39.000  
G11  23130519.058   121551707.413       -1767.319          45.000    23130521.870    94715620.414       -1377.367          41.000  
G20  22683881.196   119204615.885       -2950.431          48.000                                                                  
G13  21988777.541   115551826.624        1015.482          42.000                                                                  
G15  23723822.355   124669559.922        2188.486          34.000    23723823.194    97145101.944        1705.531          36.000  
G25  24577598.385   129156184.466       -2385.351          36.000    24577614.046   100641226.380       -1858.085          31.000  
G29  24459492.683   128535500.8513       1944.988          29.000    24459494.823   100157533.405        1516.449          31.000  
> 2025 04 04 10 34 01.0030000  0  9                     
G05  21893619.483   115051777.983       -1653.989          43.000    21893620.385    89650724.217       -1288.751          44.000  
G06  24791106.420   130278147.781       -2612.421          35.000    24791114.085   101515489.101       -2034.277          39.000  
G12  24204828.330   127197264.976       -3561.726          40.000    24204837.074    99114769.568       -2775.308          39.000  
G11  23130855.490   121553475.229       -1768.464          45.000    23130858.304    94716997.932       -1378.011          41.000  
G20  22684442.750   119207566.748       -2951.761          48.000                                                                  
G13  21988584.404   115550811.887        1013.747          46.000                                                                  
G15  23723405.890   124667371.951        2188.688          34.000    23723406.835    97143397.078        1704.409          36.000  
G25  24578052.377   129158570.159       -2386.752          37.000    24578067.963   100643085.409       -1860.002          31.000  
G29  24459118.815   128533536.0282       1945.509          29.000    24459124.597   100156017.228        1515.563          32.000  
> 2025 04 04 10 34 02.0030000  0  9                     
G05  21893934.358   115053432.513       -1655.148          43.000    21893935.235    89652013.474       -1289.729          44.000  
G06  24791603.249   130280759.131       -2612.610          32.000    24791611.009   101517523.922       -2035.687          39.000  
G12  24205506.168   127200827.011       -3562.906          41.000    24205514.852    99117545.232       -2776.374          39.000  
G11  23131192.147   121555244.067       -1769.524          46.000    23131194.940    94718376.291       -1379.830          39.000  
G20  22685004.473   119210518.589       -2952.437          48.000                                                                  
G13  21988391.375   115549798.543        1012.583          45.000                                                                  
G15  23722989.585   124665185.210        2185.759          36.000    23722990.708    97141693.099        1702.544          35.000  
G25  24578506.612   129160957.251       -2387.914          37.000    24578522.338   100644945.338       -1859.711          31.000  
G29  24458746.655   128531591.5372       1943.706          30.000    24458754.606   100154501.982        1514.204          33.000  
> 2025 04 04 10 34 03.0030000  0  9                     
G05  21894249.455   115055088.132       -1655.954          43.000    21894250.293    89653303.563       -1290.262          44.000  
G06  24792100.319   130283371.376       -2612.561          38.000    24792108.130   101519559.400       -2036.053          39.000  
G12  24206184.142   127204390.002       -3562.931          41.000    24206192.834    99120321.584       -2776.216          38.000  
G11  23131528.896   121557013.880       -1769.573          42.000    23131531.736    94719755.333       -1378.970          37.000  
G20  22685566.480   119213471.239       -2953.055          48.000                                                                  
G13  21988198.671   115548786.399        1011.009          46.000                                                                  
G15  23722573.569   124662999.518        2185.834          33.000    23722574.529    97139989.888        1703.325          36.000  
G25  24578961.010   129163345.386       -2388.386          37.000    24578976.791   100646806.378       -1860.727          33.000  
G29  24458378.021   128529647.9522       1941.476          34.000    24458384.853   100152987.354        1515.093          33.000  
> 2025 04 04 10 34 04.0030000  0  9                     
G05  21894564.587   115056744.276       -1656.648          45.000    21894565.459    89654594.077       -1290.797          44.000  
G06  24792597.399   130285984.038       -2612.823          38.000    24792605.336   101521595.223       -2036.127          38.000  
G12  24206862.292   127207953.506       -3563.920          41.000    24206870.986    99123098.268       -2776.932          39.000  
G11  23131865.692   121558783.908       -1769.971          46.000    23131868.653    94721134.610       -1379.834          40.000  
G20  22686128.441   119216424.183       -2953.200          49.000                                                                  
G13  21988006.150   115547774.936        1010.332          46.000                                                                  
G15  23722157.622   124660813.997        2184.144          33.000    23722158.615    97138287.052        1702.791          37.000  
G25  24579415.532   129165734.124       -2387.800          37.000    24579431.427   100648667.809       -1862.007          32.000  
G29  24458005.658                        1941.370          30.000    24458015.108   100151473.146        1515.032          32.000  
> 2025 04 04 10 34 05.0030000  0  9                     
G05  21894879.875   115058401.215       -1657.708          44.000    21894880.768    89655885.193       -1291.505          44.000  
G12  24207540.620   127211517.624       -3564.740          41.000    24207549.199    99125875.527       -2777.809          39.000  
G11  23132202.646   121560554.708       -1771.165          44.000    23132205.597    94722514.371       -1379.988          42.000  
G20  22686690.416   119219377.669       -2953.630          48.000                                                                  
G13  21987813.859   115546764.516        1009.610          32.000                                                                  
G15  23721741.670   124658629.381        2185.277          29.000    23721742.771    97136584.756        1701.569          38.000  
G25  24579870.202   129168123.861       -2390.492          37.000    24579886.083   100650529.813       -1862.906          32.000  
G29  24457630.609                        1945.536          29.000    24457645.360   100149959.418        1514.562          31.000  
G06                                                                  24793102.626   101523631.518       -2036.987          30.000  
> 2025 04 04 10 34 06.0030000  0  8                     
G05  21895195.442   115060058.963       -1658.814          43.000    21895196.225    89657176.921       -1292.650          44.000  
G06  24793588.899   130291188.0893      -2615.381          38.000    24793600.041   101525668.273       -2038.153          41.000  
G12  24208218.978   127215082.391       -3566.392          37.000    24208227.569    99128653.197       -2778.590          39.000  
G11  23132539.756   121562326.051       -1772.469          45.000    23132542.760    94723894.634       -1380.644          41.000  
G20  22687252.646   119222331.647       -2954.885          49.000                                                                  
G15  23721325.843   124656445.486        2183.320          36.000    23721327.006    97134882.943        1700.479          39.000  
G25  24580325.107   129170514.249       -2391.405          37.000    24580340.992   100652392.496       -1863.768          32.000  
G29  24457258.850                        1939.975          31.000    24457275.751   100148446.199        1512.593          31.000  
> 2025 04 04 10 34 07.0030000  0  9                     
G05  21895511.057   115061717.400       -1659.704          44.000    21895511.888    89658469.248       -1293.500          44.000  
G06  24794088.769   130293815.4542      -2614.410          37.000    24794097.567   101527705.430       -2038.391          39.000  
G12  24208897.431   127218647.615       -3565.928          36.000    24208906.071    99131431.381       -2779.122          39.000  
G11  23132876.921   121564097.882       -1772.505          45.000    23132879.777    94725275.305       -1381.239          42.000  
G20  22687814.830   119225286.106       -2955.622          49.000                                                                  
G13  21987429.906   115544723.4301       1007.815          32.000                                                                  
G15  23720909.922   124654262.101        2182.715          36.000    23720911.464    97133181.591        1700.857          38.000  
G25  24580780.103   129172905.443       -2391.800          37.000    24580795.922   100654255.743       -1863.431          31.000  
G29  24456900.964   128521881.7343       1940.334          36.000    24456906.335   100146933.545        1512.023          33.000  
> 2025 04 04 10 34 08.0030000  0  9                     
G05  21895826.453   115063374.862       -1658.406          44.000    21895827.309    89659760.778       -1292.730          43.000  
G06  24794585.736   130296428.7162      -2613.971          37.000    24794594.837   101529741.715       -2037.183          39.000  
G12  24209575.636   127222211.865       -3565.026          37.000    24209584.361    99134208.668       -2777.634          39.000  
G11  23133213.893   121565868.556       -1771.516          44.000    23133216.734    94726655.073       -1380.635          42.000  
G20  22688376.934   119228239.330       -2954.334          49.000                                                                  
G13  21987237.854   115543714.019        1006.896          31.000                                                                  
G15  23720493.914   124652077.655        2183.879          36.000    23720495.626    97131479.443        1701.070          38.000  
G25  24581234.940   129175295.733       -2391.021          37.000    24581250.816   100656118.301       -1863.559          31.000  
G29  24456531.907   128519939.3052       1942.161          35.000    24456536.774   100145419.990        1511.852          33.000  
> 2025 04 04 10 34 09.0030000  0  9                     
G05  21896141.545   115065030.888       -1655.499          44.000    21896142.390    89661051.157       -1289.833          43.000  
G06  24795080.446   130299040.3642      -2611.444          37.000    24795091.795   101531776.736       -2034.302          39.000  
G12  24210253.598   127225774.512       -3562.187          37.000    24210262.328    99136984.754       -2775.328          39.000  
G11  23133550.515   121567637.630       -1768.446          45.000    23133553.347    94728033.558       -1377.905          41.000  
G20  22688938.585   119231190.855       -2950.752          49.000                                                                  
G13  21987045.643   115542703.147        1011.610          32.000                                                                  
G15  23720077.685   124649891.665        2186.963          37.000    23720079.471    97129776.051        1703.896          38.000  
G25  24581689.556   129177684.663       -2388.217          37.000    24581705.371   100657979.789       -1861.009          32.000  
G29  24456163.309   128517995.3612       1944.755          33.000    24456166.958   100143905.180        1515.336          32.000  
> 2025 04 04 10 34 10.0030000  0  9                     
G05  21896456.436   115066685.534       -1654.456          44.000    21896457.187    89662340.541       -1289.195          43.000  
G06  24795577.874   130301650.5712      -2609.662          35.000    24795588.465   101533810.651       -2033.929          37.000  
G12  24210931.271   127229335.687       -3560.682          37.000    24210940.042    99139759.712       -2774.365          39.000  
G11  23133886.990   121569405.188       -1767.557          46.000    23133889.677    94729410.860       -1376.706          42.000  
G20  22689500.057   119234140.776       -2949.558          49.000                                                                  
G13  21986853.202   115541691.230        1011.627          27.000                                                                  
G15  23719661.205   124647704.212        2187.146          36.000    23719663.119    97128071.532        1704.869          38.000  
G25  24582144.002   129180072.300       -2387.632          38.000    24582159.784   100659840.245       -1859.695          31.000  
G29  24455792.232   128516049.8892       1945.952          36.000    24455796.822   100142389.313        1515.615          33.000  
> 2025 04 04 10 34 11.0030000  0 10                     
G05  21896771.293   115068340.055       -1654.056          44.000    21896771.962    89663629.780       -1289.019          43.000  
G06  24796074.260   130304260.0902      -2609.369          34.000    24796085.070   101535844.220       -2033.466          38.000  
G12  24211608.856   127232896.574       -3560.876          38.000    24211617.615    99142534.444       -2774.066          39.000  
G11  23134223.261   121571172.380       -1766.723          47.000    23134225.962    94730787.911       -1376.624          43.000  
G20  22690061.383   119237090.311       -2949.022          48.000                                                                  
G13  21986660.422   115540679.097        1012.908          31.000                                                                  
G30  26586417.246                        -238.696          16.000                                                                  
G15  23719244.777   124645516.524        2188.623          36.000    23719246.666    97126366.848        1705.532          37.000  
G25  24582598.455   129182459.800       -2386.950          39.000    24582614.200   100661700.706       -1859.976          32.000  
G29  24455422.396   128514111.1743       1946.687          30.000    24455426.543   100140873.163        1515.970          33.000  
> 2025 04 04 10 34 12.0030000  0 10                     
G05  21897086.087   115069994.486       -1654.633          43.000    21897086.746    89664918.920       -1289.065          44.000  
G06  24796570.084   130306869.6742      -2609.021          33.000    24796581.756   101537877.578       -2033.521          39.000  
G12  24212286.417   127236457.137       -3560.855          38.000    24212295.171    99145308.977       -2774.531          40.000  
G11  23134559.493   121572939.288       -1766.797          45.000    23134562.264    94732164.728       -1376.952          42.000  
G20  22690622.669   119240039.439       -2948.741          49.000                                                                  
G13  21986467.544   115539666.978        1012.031          38.000                                                                  
G30  26586466.147                        -238.696          17.000                                                                  
G15  23718828.274   124643328.559        2187.695          35.000    23718830.231    97124661.976        1704.973          36.000  
G25  24583052.793   129184847.226       -2387.569          39.000    24583068.422   100663561.052       -1860.696          31.000  
G29  24455048.265                        1946.554          28.000    24455056.155   100139356.822        1516.644          33.000  
> 2025 04 04 10 34 13.0030000  0 10                     
G05  21897400.981   115071649.078       -1654.259          43.000    21897401.654    89666208.241       -1289.065          43.000  
G06  24797066.424   130309479.195       -2609.393          35.000    24797078.289   101539910.954       -2033.124          38.000  
G12  24212964.047   127240017.868       -3559.978          38.000    24212972.742    99148083.516       -2774.422          40.000  
G11  23134895.630   121574706.189       -1766.816          47.000    23134898.446    94733541.526       -1376.735          44.000  
G20  22691183.968   119242988.519       -2948.719          48.000                                                                  
G13  21986274.952   115538655.641        1012.167          31.000                                                                  
G30  26586510.546                        -238.696          15.000                                                                  
G15  23718411.877   124641140.715        2187.880          38.000    23718413.745    97122957.183        1704.964          37.000  
G25  24583507.197   129187234.927       -2387.598          39.000    24583522.824   100665421.604       -1860.803          32.000  
G29  24454676.861   128510193.4173       1945.861          34.000    24454685.927   100137840.649        1516.049          33.000  
> 2025 04 04 10 34 14.0030000  0 10                     
G05  21897716.137   115073304.507       -1656.078          43.000    21897716.611    89667498.178       -1290.405          43.000  
G06  24797563.195   130312089.391       -2610.663          36.000    24797575.025   101541944.807       -2034.216          39.000  
G12  24213641.784   127243579.258       -3561.965          38.000    24213650.346    99150858.599       -2775.398          39.000  
G11  23135232.040   121576473.735       -1767.941          46.000    23135234.909    94734918.826       -1377.718          42.000  
G20  22691745.291   119245938.150       -2950.182          49.000                                                                  
G13  21986082.482   115537645.041        1009.987          33.000                                                                  
G30  26586558.185                        -248.950          15.000                                                                  
G15  23717995.543   124638953.629        2186.876          37.000    23717997.459    97121252.911        1703.930          37.000  
G25  24583961.719   129189623.492       -2388.989          38.000    24583977.371   100667282.778       -1861.072          32.000  
G29  24454310.102   128508248.3072       1944.489          34.000    24454315.740   100136324.975        1515.408          32.000  
> 2025 04 04 10 34 15.0030000  0 10                     
G05  21898030.940   115074958.417       -1654.036          44.000    21898031.357    89668786.936       -1288.849          44.000  
G06  24798059.591   130314697.855       -2608.392          37.000    24798071.423   101543977.367       -2032.770          39.000  
G12  24214319.173   127247138.978       -3559.381          37.000    24214327.689    99153632.416       -2773.787          39.000  
G11  23135568.086   121578239.554       -1765.705          46.000    23135570.846    94736294.798       -1375.920          42.000  
G20  22692306.140   119248885.985       -2947.836          49.000                                                                  
G13  21985889.753   115536633.048        1012.871          33.000                                                                  
G30  26586607.222                        -236.743          18.000                                                                  
G15  23717578.914   124636764.885        2188.584          36.000    23717580.914    97119547.414        1705.410          37.000  
G25  24584415.964   129192010.609       -2387.402          38.000    24584431.557   100669136.8351      -1859.699          32.000  
G29  24453939.997   128506301.4992       1946.828          34.000    24453945.221   100134808.001        1516.383          32.000  
> 2025 04 04 10 34 16.0030000  0 10                     
G05  21898345.186   115076610.319       -1652.103          43.000    21898345.755    89670074.134       -1287.306          43.000  
G06  24798555.397   130317304.115       -2606.628          36.000    24798567.387   101546008.230       -2030.737          39.000  
G12  24214996.207   127250696.579       -3557.697          37.000    24215004.615    99156404.579       -2772.320          39.000  
G11  23135903.649   121580003.230       -1763.772          46.000    23135906.436    94737669.082       -1374.255          42.000  
G20  22692866.687   119251831.586       -2945.543          49.000                                                                  
G13  21985696.685   115535619.312        1013.591          33.000                                                                  
G30  26586655.618                        -236.743          17.000                                                                  
G15  23717161.875   124634574.029        2191.187          36.000    23717164.072    97117840.282        1706.963          37.000  
G25  24584869.957   129194395.750       -2385.052          38.000    24584885.459   100670995.425       -1858.325          33.000  
G29  24453568.026   128504352.6132       1949.119          35.000    24453574.297   100133289.351        1519.059          32.000  
> 2025 04 04 10 34 17.0030000  0 10                     
G05  21898659.624   115078262.702       -1652.346          44.000    21898660.139    89671361.707       -1287.788          43.000  
G06  24799051.264   130319910.642       -2606.842          36.000    24799063.515   101548039.370       -2031.427          38.000  
G12  24215673.298   127254254.498       -3558.375          38.000    24215681.687    99159176.993       -2772.801          39.000  
G11  23136239.295   121581767.181       -1764.111          47.000    23136242.004    94739043.578       -1374.719          43.000  
G20  22693427.274   119254777.402       -2945.930          49.000                                                                  
G13  21985503.606   115534606.056        1011.854          31.000                                                                  
G30  26586699.401                        -236.743          16.000                                                                  
G15  23716745.005   124632383.567        2189.955          39.000    23716747.234    97116133.424        1706.500          38.000  
G25  24585323.884   129196781.420       -2385.730          38.000    24585339.454   100672854.409       -1858.722          35.000  
G29  24453198.292   128502404.3692       1947.685          34.000    24453203.503   100131771.090        1517.959          32.000  
> 2025 04 04 10 34 18.0030000  0 10                     
G05  21898974.275   115079915.857       -1653.344          44.000    21898974.681    89672649.891       -1288.497          44.000  
G06  24799547.031   130322517.870       -2607.971          38.000    24799559.774   101550070.931       -2031.830          38.000  
G12  24216350.584   127257813.143       -3558.813          39.000    24216358.945    99161949.925       -2773.144          40.000  
G11  23136575.005   121583531.687       -1764.639          44.000    23136577.769    94740418.546       -1375.158          39.000  
G20  22693987.920   119257723.761       -2946.517          49.000                                                                  
G13  21985310.979   115533593.919        1011.102          35.000                                                                  
G30  26586743.965                        -236.743          16.000                                                                  
G15  23716328.064   124630193.771        2189.795          34.000    23716330.535    97114427.096        1705.911          38.000  
G25  24585778.008   129199167.913       -2386.627          38.000    24585793.708   100674714.059       -1860.144          33.000  
G29  24452828.800   128500456.4762       1948.243          26.000    24452832.579   100130253.210        1516.722          31.000  
> 2025 04 04 10 34 19.0030000  0 10                     
G05  21899289.036   115081569.902       -1654.307          44.000    21899289.479    89673938.770       -1289.006          44.000  
G06  24800043.351   130325125.817       -2607.574          37.000    24800056.035   101552103.084       -2032.007          40.000  
G12  24217027.938   127261372.506       -3559.248          37.000    24217036.178    99164723.458       -2773.909          40.000  
G11  23136910.957   121585296.921       -1765.339          45.000    23136913.682    94741794.107       -1375.867          39.000  
G20  22694548.751   119260670.721       -2947.001          49.000                                                                  
G13  21985118.559   115532582.705        1011.540          35.000                                                                  
G30  26586789.835                        -236.743          18.000                                                                  
G15  23715911.240   124628004.759        2189.102          32.000    23715913.958    97112721.408        1705.149          38.000  
G25  24586232.322   129201555.387       -2387.494          38.000    24586247.995   100676574.395       -1860.693          31.000  
G29  24452456.116                        1948.080          23.000    24452462.120   100128736.027        1517.251          32.000  
> 2025 04 04 10 34 20.0030000  0 10                     
G05  21899603.847   115083224.651       -1655.169          44.000    21899604.281    89675228.178       -1289.739          44.000  
G06  24800539.867   130327734.252       -2608.313          39.000    24800552.406   101554135.603       -2032.935          40.000  
G12  24217705.311   127264932.356       -3559.896          39.000    24217713.608    99167497.366       -2774.324          40.000  
G11  23137246.950   121587062.729       -1766.264          44.000    23137249.707    94743170.034       -1376.255          42.000  
G20  22695109.561   119263618.097       -2947.886          49.000                                                                  
G13  21984926.404   115531572.334        1009.994          37.000                                                                  
G30  26586834.011                        -236.743          15.000                                                                  
G15  23715494.560   124625816.296        2188.454          32.000    23715497.442    97111016.106        1705.071          37.000  
G25  24586686.735   129203943.557       -2388.617          39.000    24586702.503   100678435.353       -1860.907          32.000  
G29  24452086.060   128496579.3663       1946.352          30.000    24452091.806   100127219.336        1515.761          29.000  
> 2025 04 04 10 34 21.0030000  0 10                     
G05  21899918.838   115084880.199       -1655.336          43.000    21899919.307    89676518.224       -1290.093          43.000  
G06  24801036.273   130330343.283       -2609.802          36.000    24801048.755   101556168.659       -2033.844          38.000  
G12  24218382.874   127268492.889       -3560.467          38.000    24218391.210    99170271.834       -2774.432          39.000  
G11  23137582.999   121588829.089       -1766.618          43.000    23137585.771    94744546.384       -1376.374          40.000  
G20  22695670.641   119266566.047       -2948.153          49.000                                                                  
G13  21984734.342   115530563.057        1009.185          31.000                                                                  
G30  26586878.416                        -236.743          14.000                                                                  
G15  23715077.869   124623628.540        2188.262          33.000    23715081.008    97109311.397        1704.445          38.000  
G25  24587141.308   129206332.596       -2389.124          39.000    24587157.236   100680296.896       -1861.908          33.000  
G29  24451709.420   128494599.5332       1946.376          30.000    24451721.497   100125703.026        1515.897          29.000  
> 2025 04 04 10 34 22.0030000  0 10                     
G05  21900233.938   115086536.263       -1655.899          43.000    21900234.444    89677808.668       -1290.477          44.000  
G06  24801533.150   130332952.606       -2610.925          36.000    24801545.329   101558201.924       -2033.221          39.000  
G12  24219060.532   127272053.913       -3561.392          38.000    24219068.839    99173046.597       -2774.518          39.000  
G11  23137919.155   121590595.803       -1766.560          43.000    23137921.946    94745923.021       -1376.670          39.000  
G20  22696231.711   119269514.241       -2948.038          50.000                                                                  
G13  21984542.631   115529554.383        1008.952          31.000                                                                  
G30  26586924.867                        -236.743          13.000                                                                  
G15  23714661.388   124621441.263        2187.014          36.000    23714664.680    97107606.984        1704.660          38.000  
G25  24587596.058   129208722.211       -2389.594          40.000    24587612.132   100682158.908       -1861.621          33.000  
G29  24451346.190   128492691.1902       1944.756          31.000    24451351.481   100124187.130        1515.949          28.000  
> 2025 04 04 10 34 23.0030000  0 10                     
G05  21900549.107   115088192.761       -1657.554          43.000    21900549.577    89679099.454       -1291.768          44.000  
G06  24802029.577   130335562.346       -2611.340          36.000    24802041.967   101560235.444       -2034.357          41.000  
G12  24219738.298   127275615.144       -3562.626          37.000    24219746.511    99175821.603       -2775.895          39.000  
G11  23138255.380   121592362.723       -1768.043          44.000    23138258.159    94747299.866       -1377.717          39.000  
G20  22696792.768   119272462.613       -2949.336          49.000                                                                  
G13  21984351.062   115528546.225        1006.881          30.000                                                                  
G30  26586969.175                        -236.743          15.000                                                                  
G15  23714244.954   124619254.252        2186.301          35.000    23714248.463    97105902.868        1703.186          38.000  
G25  24588050.758   129211112.276       -2391.333          39.000    24588067.054   100684021.316       -1863.293          33.000  
G29  24450974.445   128490737.0593       1943.638          30.000    24450981.153   100122671.404        1515.294          29.000  
> 2025 04 04 10 34 24.0030000  0 10                     
G05  21900864.397   115089849.897       -1656.860          43.000    21900864.905    89680390.723       -1291.050          44.000  
G06  24802526.109   130338172.483       -2610.156          36.000    24802538.802   101562269.309       -2033.740          41.000  
G12  24220415.987   127279176.910       -3561.260          38.000    24220424.224    99178597.001       -2775.157          39.000  
G11  23138591.696   121594130.154       -1767.181          43.000    23138594.439    94748677.061       -1376.658          38.000  
G20  22697353.841   119275411.374       -2948.447          49.000                                                                  
G13  21984159.559   115527538.883        1007.752          29.000                                                                  
G30  26587014.559                        -236.743          15.000                                                                  
G15  23713828.800   124617067.837        2186.698          35.000    23713832.259    97104199.143        1703.751          38.000  
G25  24588505.663   129213503.082       -2390.765          39.000    24588522.018   100685884.287       -1862.940          33.000  
G29  24450601.287   128488776.5412       1944.149          29.000    24450611.254   100121156.229        1515.098          29.000  
> 2025 04 04 10 34 25.0030000  0 11                     
G05  21901179.659   115091506.487       -1656.172          43.000    21901180.157    89681681.584       -1290.650          44.000  
G06  24803022.632   130340781.905       -2608.990          35.000    24803035.435   101564302.616       -2033.051          42.000  
G12  24221093.703   127282737.993       -3560.937          37.000    24221101.884    99181371.867       -2774.847          39.000  
G11  23138927.803   121595896.842       -1766.301          43.000    23138930.683    94750053.724       -1376.413          38.000  
G19  25214051.186                       -4950.602          28.000                                                                  
G20  22697914.705   119278359.329       -2947.551          49.000                                                                  
G13  21983967.909   115526531.311        1006.771          33.000                                                                  
G30  26587059.483                        -236.743          16.000                                                                  
G15  23713412.401   124614880.751        2187.218          35.000    23713416.099    97102494.923        1704.642          38.000  
G25  24588960.500   129215893.367       -2389.990          39.000    24588977.098   100687746.834       -1862.250          34.000  
G29  24450230.043   128486825.2662       1945.837          28.000    24450241.002   100119640.418        1517.159          30.000  
> 2025 04 04 10 34 26.0030000  0  9                     
G05  21901494.785   115093162.505       -1656.230          44.000    21901495.255    89682971.978       -1290.754          43.000  
G06  24803518.905   130343390.418       -2608.020          37.000    24803531.819   101566335.330       -2033.514          39.000  
G12  24221771.246   127286298.319       -3560.381          38.000    24221779.371    99184146.161       -2774.365          39.000  
G11  23139263.936   121597662.811       -1766.065          45.000    23139266.680    94751429.794       -1376.231          41.000  
G20  22698475.532   119281306.427       -2947.190          49.000                                                                  
G13  21983776.185   115525523.082        1007.733          36.000                                                                  
G15  23712996.129   124612692.979        2187.501          37.000    23712999.795    97100790.178        1704.756          38.000  
G25  24589415.245   129218283.124       -2389.746          39.000    24589431.972   100689609.009       -1862.848          33.000  
G29  24449861.749   128484879.3492       1946.066          30.000    24449870.770   100118124.241        1516.623          31.000  
> 2025 04 04 10 34 27.0030000  0  9                     
G05  21901809.945   115094819.131       -1657.047          44.000    21901810.497    89684262.863       -1291.587          43.000  
G06  24804015.319   130345999.628       -2609.497          37.000    24804028.311   101568368.374       -2033.325          39.000  
G12  24222448.926   127289859.067       -3561.074          40.000    24222456.945    99186920.804       -2775.018          41.000  
G11  23139600.094   121599429.102       -1766.593          43.000    23139602.807    94752806.133       -1376.284          40.000  
G20  22699036.466   119284253.912       -2947.998          49.000                                                                  
G13  21983584.456   115524516.005        1007.431          36.000                                                                  
G15  23712579.919   124610505.815        2186.730          34.000    23712583.541    97099085.841        1704.018          35.000  
G25  24589870.102   129220673.503       -2391.077          39.000    24589887.035   100691471.635       -1862.097          31.000  
G29  24449496.216   128482933.9832       1945.718          29.000    24449500.474   100116608.238        1518.075          31.000  
> 2025 04 04 10 34 28.0030000  0  9                     
G05  21902124.781   115096473.992       -1654.450          42.000    21902125.352    89685552.379       -1289.432          44.000  
G06  24804511.762   130348606.787       -2605.896          33.000    24804524.434   101570399.874       -2031.049          39.000  
G12  24223126.217   127293417.984       -3558.443          43.000    24223134.180    99189694.014       -2772.994          41.000  
G11  23139935.840   121601193.485       -1763.188          44.000    23139938.521    94754180.943       -1373.744          41.000  
G20  22699596.939   119287199.344       -2944.872          49.000                                                                  
G13  21983392.443   115523507.046        1009.316          43.000                                                                  
G25  24590324.560   129223062.221       -2388.196          40.000    24590341.658   100693332.954       -1860.565          30.000  
G29  24449124.338   128481015.0783       1947.725          28.000    24449129.962   100115091.026        1516.806          32.000  
G15                                                                  23712166.866    97097379.927        1706.090          36.000  
> 2025 04 04 10 34 29.0030000  0  9                     
G05  21902439.709   115098129.141       -1652.698          43.000    21902440.359    89686842.132       -1288.212          44.000  
G06  24805008.018   130351214.063       -2605.664          32.000    24805020.723   101572431.573       -2030.585          40.000  
G12  24223803.483   127296977.130       -3556.747          42.000    24223811.498    99192467.380       -2771.828          41.000  
G11  23140271.603   121602958.069       -1762.295          44.000    23140274.247    94755555.994       -1373.677          40.000  
G20  22700157.513   119290144.834       -2943.759          49.000                                                                  
G13  21983200.490   115522498.550        1010.437          44.000                                                                  
G15  23711750.784                        2180.475          31.000    23711750.293    97095674.356        1706.756          36.000  
G25  24590779.125   129225451.301       -2387.091          39.000    24590796.321   100695194.570       -1860.492          30.000  
G29  24448753.139   128479064.0792       1946.704          29.000    24448759.489   100113573.765        1518.727          32.000  
> 2025 04 04 10 34 30.0030000  0  9                     
G05  21902754.753   115099784.472       -1655.771          43.000    21902755.271    89688131.991       -1290.024          43.000  
G06  24805504.587   130353821.313       -2607.025          35.000    24805516.905   101574463.184       -2031.683          40.000  
G12  24224480.775   127300536.244       -3559.404          41.000    24224488.791    99195240.667       -2773.140          40.000  
G11  23140607.337   121604722.549       -1764.906          43.000    23140609.913    94756930.898       -1374.887          40.000  
G20  22700717.941   119293090.205       -2945.458          49.000                                                                  
G13  21983008.611   115521490.545        1007.603          36.000                                                                  
G15  23711332.322   124603892.2853       2189.071          37.000    23711333.767    97093968.744        1705.628          38.000  
G25  24591233.839   129227840.546       -2389.001          38.000    24591251.078   100697056.321       -1862.433          32.000  
G29  24448384.184   128477116.9582       1946.555          30.000    24448388.973   100112056.625        1516.980          33.000  
> 2025 04 04 10 34 31.0030000  0  9                     
G05  21903069.564   115101438.719       -1652.039          42.000    21903070.004    89689421.003       -1287.313          44.000  
G06  24806000.833   130356427.313       -2603.693          36.000    24806012.814   101576493.831       -2028.888          40.000  
G12  24225157.725   127304094.176       -3556.135          40.000    24225165.831    99198013.101       -2770.740          40.000  
G11  23140942.988   121606485.829       -1761.563          44.000    23140945.460    94758304.867       -1372.194          39.000  
G20  22701278.148   119296034.258       -2941.945          49.000                                                                  
G13  21982816.429   115520479.2943       1012.006          38.000                                                                  
G15  23710915.958   124601704.2382       2192.153          34.000    23710916.952    97092262.239        1707.909          38.000  
G25  24591688.260   129230228.812       -2386.261          35.000    24591705.531   100698917.312       -1859.735          32.000  
G29  24448013.069   128475175.1983       1951.274          31.000    24448018.294   100110538.488        1519.771          33.000  
> 2025 04 04 10 34 32.0030000  0  9                     
G05  21903384.182   115103091.858       -1653.100          43.000    21903384.502    89690709.178       -1288.674          43.000  
G06  24806496.399   130359032.030       -2605.017          38.000    24806508.531   101578523.465       -2029.187          40.000  
G12  24225834.542   127307650.899       -3557.186          40.000    24225842.649    99200784.541       -2771.823          40.000  
G11  23141278.325   121608247.773       -1762.391          44.000    23141280.766    94759677.816       -1373.521          40.000  
G20  22701838.097   119298976.966       -2942.588          46.000                                                                  
G13  21982624.225   115519469.2972       1009.568          44.000                                                                  
G15  23710500.078   124599512.9702       2190.385          37.000    23710499.983    97090554.748        1707.153          38.000  
G25  24592142.456   129232615.990       -2387.488          38.000    24592159.927   100700777.391       -1859.509          31.000  
G29  24447637.532                        1956.679          26.000    24447647.396   100109019.433        1518.426          33.000  
> 2025 04 04 10 34 33.0030000  0  9                     
G05  21903698.687   115104744.678       -1653.639          44.000    21903699.063    89691997.080       -1288.433          44.000  
G06  24806992.486                       -2605.432          31.000    24807004.173   101580552.741       -2030.109          41.000  
G12  24226511.396   127311207.100       -3556.928          40.000    24226519.317    99203555.646       -2771.561          40.000  
G11  23141613.588   121610009.228       -1761.812          44.000    23141615.934    94761050.417       -1373.379          41.000  
G20  22702398.000   119301919.067       -2942.767          49.000                                                                  
G13  21982432.059   115518459.3712       1009.629          41.000                                                                  
G15  23710080.732   124597321.3652       2190.923          34.000    23710082.890    97088846.986        1707.228          38.000  
G25  24592596.569   129235002.924       -2387.256          36.000    24592614.263   100702637.402       -1860.388          31.000  
G29  24447273.587   128471289.1903       1950.024          35.000    24447276.394   100107500.275        1517.521          33.000  
> 2025 04 04 10 34 34.0030000  0  9                     
G05  21904013.205   115106397.836       -1650.619          44.000    21904013.668    89693285.272       -1286.352          43.000  
G06  24807491.545   130364229.2863      -2601.837          31.000    24807499.836   101582582.175       -2027.576          41.000  
G12  24227188.314   127314763.515       -3554.459          40.000    24227196.097    99206326.882       -2769.660          38.000  
G11  23141948.874   121611770.846       -1758.990          45.000    23141951.118    94762423.033       -1370.394          39.000  
G20  22702957.843   119304861.248       -2939.640          49.000                                                                  
G13  21982239.818   115517449.4472       1012.147          33.000                                                                  
G15  23709665.716   124595129.8102       2193.962          38.000    23709665.851    97087139.335        1709.559          39.000  
G25  24593050.856   129237390.249       -2385.089          37.000    24593068.513   100704497.600       -1858.380          31.000  
G29  24446903.254   128469342.9493       1950.902          27.000    24446905.412   100105980.958        1520.912          34.000  
> 2025 04 04 10 34 35.0030000  0  9                     
G05  21904327.626   115108049.746       -1652.083          45.000    21904328.011    89694572.463       -1287.260          44.000  
G06  24807987.740   130366832.1652      -2602.655          33.000    24807995.238   101584610.453       -2028.552          39.000  
G12  24227864.785   127318318.582       -3555.406          41.000    24227872.543    99209097.027       -2770.051          39.000  
G11  23142283.871   121613531.004       -1760.229          45.000    23142286.013    94763794.555       -1371.313          39.000  
G20  22703517.393   119307801.897       -2940.586          49.000                                                                  
G13  21982047.439   115516438.6892       1010.727          44.000                                                                  
G15  23709247.561   124592936.9822       2192.685          33.000    23709248.533    97085430.651        1708.423          38.000  
G25  24593504.985   129239776.312       -2385.889          37.000    24593522.679   100706356.887       -1858.588          32.000  
G29  24446533.203   128467398.9282       1951.035          30.000    24446534.177   100104460.680        1520.317          34.000  
> 2025 04 04 10 34 36.0030000  0  9                     
G05  21904642.054   115109702.047       -1652.737          45.000    21904642.506    89695859.979       -1287.845          43.000  
G06  24808484.782   130369435.4082      -2603.442          35.000    24808490.657   101586638.934       -2029.010          40.000  
G12  24228541.446   127321873.862       -3555.668          40.000    24228549.102    99211867.419       -2770.660          39.000  
G11  23142618.843   121615291.416       -1760.630          45.000    23142620.995    94765166.327       -1372.025          40.000  
G20  22704077.065   119310742.738       -2941.000          50.000                                                                  
G13  21981855.065   115515428.4812       1010.366          34.000                                                                  
G15  23708830.015   124590744.5002       2192.394          36.000    23708831.399    97083722.208        1708.129          38.000  
G25  24593959.066   129242162.859       -2386.462          37.000    24593976.964   100708216.622       -1860.156          31.000  
G29  24446163.849   128465457.4282       1950.638          29.000    24446163.138   100102940.744        1519.393          34.000  
> 2025 04 04 10 34 37.0030000  0  9                     
G05  21904956.735   115111355.051       -1653.417          43.000    21904957.136    89697148.038       -1288.339          42.000  
G06  24808978.544   130372038.6521      -2603.503          33.000    24808986.133   101588667.813       -2028.949          40.000  
G12  24229218.284   127325429.763       -3556.135          41.000    24229225.607    99214638.221       -2770.820          40.000  
G11  23142953.883   121617052.325       -1761.120          45.000    23142956.031    94766538.480       -1372.301          40.000  
G20  22704636.729   119313684.014       -2941.528          49.000                                                                  
G13  21981662.959   115514418.6121       1009.040          40.000                                                                  
G15  23708412.623   124588552.0821       2191.954          36.000    23708414.351    97082014.239        1707.565          38.000  
G25  24594413.337   129244550.165       -2387.469          37.000    24594431.341   100710076.814       -1860.376          32.000  
G29  24445794.794                        1950.880          28.000    24445792.154   100101421.103        1519.597          32.000  
> 2025 04 04 10 34 38.0030000  0  9                     
G05  21905271.506   115113008.852       -1654.329          42.000    21905271.839    89698436.691       -1288.764          43.000  
G06  24809473.985   130374643.013       -2604.211          36.000    24809481.684   101590697.147       -2029.212          40.000  
G12  24229895.086   127328986.242       -3556.962          41.000    24229902.419    99217409.507       -2771.453          39.000  
G11  23143289.096   121618813.831       -1761.679          44.000    23143291.229    94767911.061       -1372.857          39.000  
G20  22705196.417   119316625.782       -2942.187          49.000                                                                  
G13  21981470.999   115513410.465        1007.461          34.000                                                                  
G15  23707995.394   124586360.910        2190.827          33.000    23707997.334    97080306.812        1706.969          38.000  
G25  24594867.919   129246938.331       -2388.458          36.000    24594885.631   100711937.742       -1861.475          34.000  
G29  24445423.069   128461564.7053       1949.324          35.000    24445421.224   100099902.077        1518.648          34.000  
> 2025 04 04 10 34 39.0030000  0  9                     
G05  21905586.280   115114662.848       -1654.041          45.000    21905586.620    89699725.493       -1288.582          43.000  
G06  24809968.956   130377247.354       -2605.048          29.000    24809977.332   101592726.503       -2029.089          39.000  
G12  24230571.966   127332542.805       -3556.609          42.000    24230579.200    99220180.868       -2771.412          39.000  
G11  23143624.253   121620575.325       -1761.268          45.000    23143626.482    94769283.673       -1372.651          40.000  
G20  22705756.274   119319567.484       -2941.552          49.000                                                                  
G13  21981278.976   115512402.413        1007.874          37.000                                                                  
G15  23707578.307   124584169.754        2191.086          37.000    23707580.319    97078599.390        1707.394          39.000  
G25  24595322.373   129249326.711       -2388.403          39.000    24595340.030   100713798.755       -1860.553          33.000  
G29  24445053.080   128459620.4602       1948.739          33.000    24445050.199   100098383.038        1519.909          33.000  
> 2025 04 04 10 34 40.0030000  0  9                     
G05  21905901.126   115116316.820       -1656.325          43.000    21905901.271    89701014.334       -1290.549          43.000  
G06  24810463.284   130379851.443       -2605.530          28.000    24810472.921   101594755.774       -2030.402          39.000  
G12  24231248.852   127336099.266       -3558.256          42.000    24231256.046    99222952.102       -2772.856          40.000  
G11  23143959.470   121622336.657       -1763.381          45.000    23143961.620    94770656.142       -1374.164          40.000  
G20  22706316.055   119322508.942       -2943.691          48.000                                                                  
G13  21981087.113   115511394.303        1005.143          43.000                                                                  
G15  23707161.320   124581978.457        2189.135          37.000    23707163.335    97076891.929        1705.998          39.000  
G25  24595776.866   129251715.151       -2390.643          37.000    24595794.543   100715659.916       -1862.598          33.000  
G29  24444678.873   128457653.6713       1946.877          38.000    24444679.173   100096863.862        1517.252          36.000  
> 2025 04 04 10 34 41.0030000  0  9                     
G05  21906215.802   115117970.683       -1649.822          43.000    21906215.967    89702303.085       -1285.697          42.000  
G06  24810956.606                       -2603.312          28.000    24810968.459   101596784.809       -2026.379          39.000  
G12  24231925.585   127339655.460       -3553.026          41.000    24231932.696    99225723.196       -2768.373          40.000  
G11  23144294.585   121624097.690       -1757.190          44.000    23144296.635    94772028.349       -1369.093          40.000  
G20  22706875.791   119325450.043       -2936.946          48.000                                                                  
G13  21980895.390   115510384.0523       1011.549          41.000                                                                  
G15  23706744.247   124579781.5853       2194.902          36.000    23706746.292    97075184.337        1710.099          38.000  
G25  24596231.356   129254103.512       -2384.961          39.000    24596249.114   100717521.088       -1859.686          32.000  
G29  24444304.762                        1951.326          26.000    24444308.084   100095344.719        1521.442          33.000  
> 2025 04 04 10 34 42.0030000  0  9                     
G05  21906530.066   115119621.327       -1648.705          43.000    21906530.208    89703589.296       -1284.667          42.000  
G06  24811452.790   130385064.0003      -2598.584          29.000    24811463.390   101598811.140       -2024.860          40.000  
G12  24232601.656   127343208.302       -3551.201          41.000    24232608.605    99228491.618       -2767.402          39.000  
G11  23144628.948   121625855.318       -1755.463          45.000    23144631.077    94773397.985       -1368.517          40.000  
G20  22707434.836   119328387.625       -2935.564          47.000                                                                  
G13  21980702.990   115509373.1162       1012.666          42.000                                                                  
G15  23706326.622   124577586.7672       2196.660          37.000    23706328.727    97073474.104        1711.503          38.000  
G25  24596685.201   129256488.669       -2383.398          40.000    24596703.048   100719379.579       -1857.080          32.000  
G29  24443939.181   128453766.4243       1954.199          37.000    24443936.476   100093822.847        1524.143          31.000  
> 2025 04 04 10 34 43.0030000  0  9                     
G05  21906844.018   115121270.706       -1648.823          45.000    21906844.136    89704874.514       -1284.937          43.000  
G06  24811947.001   130387660.6333      -2602.222          28.000    24811958.057   101600836.349       -2024.634          39.000  
G12  24233277.508   127346759.647       -3550.471          39.000    24233284.372    99231258.894       -2766.637          39.000  
G11  23144963.133   121627611.448       -1755.260          44.000    23144965.328    94774766.354       -1368.006          40.000  
G20  22707993.628   119331323.636       -2935.466          48.000                                                                  
G13  21980510.458   115508360.6311       1012.438          42.000                                                                  
G15  23705908.699   124575390.1051       2196.515          36.000    23705910.750    97071762.755        1712.001          38.000  
G25  24597138.862   129258872.636       -2383.569          37.000    24597156.648   100721237.168       -1857.086          33.000  
G29  24443566.649   128451809.0662       1954.342          29.000    24443564.684   100092299.876        1522.629          30.000  
> 2025 04 04 10 34 44.0030000  0 10                     
G05  21907157.915   115122920.181       -1649.635          44.000    21907157.953    89706159.852       -1285.557          43.000  
G06  24812444.155                       -2595.609          30.000    24812452.557   101602861.546       -2025.085          39.000  
G12  24233953.365   127350310.966       -3551.368          40.000    24233960.086    99234026.195       -2767.362          39.000  
G11  23145297.355   121629367.560       -1755.979          45.000    23145299.533    94776134.760       -1368.721          39.000  
G19  25231927.917                       -4938.762          28.000                                                                  
G20  22708552.318   119334259.564       -2935.903          48.000                                                                  
G13  21980318.005   115507348.740        1011.471          44.000                                                                  
G15  23705490.768   124573193.855        2196.193          38.000    23705492.754    97070051.430        1711.172          37.000  
G25  24597592.498   129261256.715       -2383.600          37.000    24597610.279   100723094.921       -1857.520          34.000  
G29  24443189.726   128449828.9673       1954.090          43.000    24443192.814   100090776.821        1523.001          34.000  
> 2025 04 04 10 34 45.0030000  0 10                     
G05  21907471.600   115124568.435       -1648.398          44.000    21907471.662    89707444.208       -1284.565          43.000  
G12  24234628.969   127353861.131       -3550.245          43.000    24234635.669    99236792.546       -2766.740          41.000  
G11  23145631.253   121631122.249       -1754.702          44.000    23145633.416    94777502.070       -1367.431          39.000  
G19  25232869.439                       -4938.249          28.000                                                                  
G20  22709110.605   119337193.978       -2934.647          47.000                                                                  
G13  21980125.195   115506335.964        1012.572          45.000                                                                  
G15  23705072.664   124570996.239        2196.911          30.000    23705074.639    97068339.197        1711.719          34.000  
G25  24598045.879   129263639.796       -2383.264          36.000    24598063.682   100724951.785       -1856.891          36.000  
G29  24442817.180   128447873.1952       1955.651          42.000    24442820.591   100089252.911        1523.471          37.000  
G06                                                                  24812946.754   101604885.667       -2024.121          39.000  
> 2025 04 04 10 34 46.0030000  0 10                     
G05  21907785.433   115126217.403       -1649.283          43.000    21907785.485    89708729.111       -1285.122          42.000  
G06  24813432.505   130395467.0533      -2597.675          27.000    24813441.153   101606910.174       -2024.927          39.000  
G12  24235304.745   127357411.609       -3550.584          39.000    24235311.375    99239559.202       -2766.718          40.000  
G11  23145965.216   121632877.479       -1755.315          44.000    23145967.360    94778869.746       -1367.790          40.000  
G19  25233804.641   132604537.9073      -4936.379          27.000                                                                  
G20  22709669.068   119340128.851       -2935.235          45.000                                                                  
G13  21979932.710   115505324.011        1011.425          46.000                                                                  
G15  23704654.924   124568799.566        2195.745          30.000    23704656.528    97066627.257        1711.925          32.000  
G25  24598499.425   129266023.332       -2383.136          34.000    24598517.324   100726809.226       -1857.880          32.000  
G29  24442445.398   128445918.0452       1955.079          41.000    24442448.457   100087729.306        1523.330          34.000  
> 2025 04 04 10 34 47.0030000  0 10                     
G05  21908099.335   115127866.915       -1650.241          44.000    21908099.415    89710014.440       -1285.928          43.000  
G06  24813922.934                       -2598.730          28.000    24813935.537   101608934.945       -2025.427          38.000  
G12  24235980.548   127360962.698       -3551.993          37.000    24235987.071    99242326.204       -2767.000          38.000  
G11  23146299.391   121634633.044       -1756.194          45.000    23146301.481    94780237.716       -1368.559          40.000  
G19  25234749.077   132609475.5252      -4938.497          26.000                                                                  
G20  22710227.596   119343063.984       -2935.803          47.000                                                                  
G13  21979740.304   115504312.811        1010.306          46.000                                                                  
G15  23704237.948   124566603.122        2196.931          31.000    23704238.534    97064915.824        1711.174          33.000  
G25  24598953.160   129268407.659       -2384.027          35.000    24598970.935   100728667.074       -1858.118          32.000  
G29  24442072.521   128443963.3012       1954.064          37.000    24442076.456   100086206.128        1522.976          34.000  
> 2025 04 04 10 34 48.0030000  0  9                     
G05  21908413.330   115129517.135       -1650.138          44.000    21908413.417    89711300.340       -1285.966          43.000  
G06  24814419.732   130400655.6833      -2600.153          32.000    24814430.085   101610960.171       -2025.177          40.000  
G12  24236656.376   127364514.303       -3551.331          38.000    24236662.902    99245093.720       -2767.626          38.000  
G11  23146633.565   121636389.289       -1756.280          41.000    23146635.691    94781606.216       -1368.468          38.000  
G20  22710786.235   119345999.658       -2935.729          48.000                                                                  
G13  21979548.170   115503302.474        1009.734          46.000                                                                  
G15  23703820.189   124564407.345        2195.053          35.000    23703820.613    97063204.804        1711.216          37.000  
G25  24599406.953   129270792.781       -2385.938          34.000    24599424.835   100730525.658       -1859.338          31.000  
G29  24441700.108   128442009.2562       1953.976          35.000    24441704.747   100084683.566        1521.992          37.000  
> 2025 04 04 10 34 49.0030000  0 10                     
G05  21908727.388   115131167.904       -1651.133          44.000    21908727.545    89712586.647       -1286.487          42.000  
G06  24814915.431   130403254.8682      -2600.134          32.000    24814924.806   101612985.815       -2025.165          36.000  
G12  24237332.308   127368066.312       -3552.163          36.000    24237338.747    99247861.486       -2767.549          37.000  
G11  23146967.777   121638145.697       -1756.784          46.000    23146969.958    94782974.855       -1368.945          41.000  
G19  25236617.642   132619320.0891      -4938.550          28.000                                                                  
G20  22711344.937   119348935.564       -2936.240          47.000                                                                  
G13  21979355.993   115502292.859        1009.087          46.000                                                                  
G15  23703402.413   124562212.034        2194.232          35.000    23703402.823    97061494.149        1710.138          35.000  
G25  24599861.050   129273178.357       -2385.974          36.000    24599878.733   100732384.644       -1859.717          32.000  
G29  24441328.800   128440055.556        1953.799          41.000    24441332.834   100083161.165        1522.318          36.000  
> 2025 04 04 10 34 50.0030000  0  9                     
G05  21909041.753   115132819.756       -1649.612          44.000    21909041.730    89713873.799       -1285.276          42.000  
G06  24815407.243                       -2594.508          27.000    24815419.594   101615012.001       -2024.414          39.000  
G12  24238008.412   127371619.278       -3550.268          36.000    24238014.853    99250630.065       -2767.229          38.000  
G11  23147302.218   121639903.069       -1754.935          43.000    23147304.395    94784344.257       -1367.294          40.000  
G20  22711903.729   119351872.306       -2934.240          49.000                                                                  
G13  21979164.212   115501284.484        1010.562          46.000                                                                  
G15  23702984.844   124560017.542        2197.465          34.000    23702985.134    97059784.174        1712.674          34.000  
G25  24600315.264   129275565.176       -2384.149          36.000    24600332.937   100734244.435       -1858.179          31.000  
G29  24440957.165   128438103.007        1954.955          39.000    24440961.235   100081639.710        1523.098          33.000  
> 2025 04 04 10 34 51.0030000  0 10                     
G05  21909356.322   115134472.236       -1666.080          44.000    21909356.179    89715161.434       -1297.873          42.000  
G06  24815902.794                       -2611.224          27.000    24815914.572   101617038.693       -2037.000          34.000  
G12  24238684.680   127375172.784       -3566.430          36.000    24238691.085    99253398.971       -2778.750          38.000  
G11  23147636.724   121641660.902       -1770.867          43.000    23147638.949    94785713.986       -1379.801          39.000  
G20  22712462.688   119354809.408       -2949.867          47.000                                                                  
G13  21978972.629   115500276.897         993.926          46.000                                                                  
G30  26590163.862                        -320.817          26.000                                                                  
G15  23702567.394   124557823.770        2181.785          33.000    23702567.650    97058074.730        1699.240          33.000  
G25  24600769.622   129277952.674       -2400.238          36.000    24600787.244   100736104.813       -1870.422          31.000  
G29  24440585.756   128436150.846        1939.477          34.000    24440589.793   100080118.567        1510.159          31.000  
> 2025 04 04 10 34 52.0030000  0 11                     
G05  21909670.492   115136123.545       -1650.759          46.000    21909670.320    89716448.150       -1285.979          43.000  
G06  24816399.576   130411059.1413      -2599.255          36.000    24816409.118   101619064.117       -2025.623          37.000  
G12  24239360.635   127378724.950       -3551.455          38.000    24239367.019    99256166.866       -2767.375          38.000  
G11  23147970.815   121643417.350       -1755.297          45.000    23147973.130    94787082.594       -1367.477          42.000  
G19  25239431.615   132634107.9343      -4937.206          27.000                                                                  
G20  22713021.227   119357745.162       -2934.410          42.000                                                                  
G13  21978780.746   115499268.261        1009.089          46.000                                                                  
G30  26590218.949                        -303.117          22.000                                                                  
G15  23702149.779   124555637.0833       2196.331          31.000    23702149.912    97056364.252        1710.647          33.000  
G25  24601223.800   129280338.981       -2385.907          38.000    24601241.353   100737964.276       -1858.325          32.000  
G29  24440213.897   128434190.2073       1953.225          43.000    24440219.399   100078612.1861       1523.790          35.000  
> 2025 04 04 10 34 53.0030000  0  9                     
G05  21909984.918   115137775.273       -1651.338          44.000    21909984.603    89717735.277       -1287.467          42.000  
G06  24816892.886   130413652.1412      -2603.174          27.000    24816903.739   101621089.885       -2025.861          36.000  
G12  24240036.679   127382277.342       -3552.882          37.000    24240042.961    99258935.038       -2768.324          38.000  
G11  23148305.160   121645174.217       -1757.138          45.000    23148307.510    94788451.672       -1370.160          41.000  
G20  22713579.843   119360680.957       -2936.309          48.000                                                                  
G13  21978588.957   115498260.275        1007.488          47.000                                                                  
G15  23701732.438   124553442.4172       2194.545          34.000    23701732.249    97054654.074        1709.572          33.000  
G25  24601678.054   129282725.859       -2387.097          35.000    24601695.641   100739824.191       -1860.449          31.000  
G29  24439842.225   128432237.1332       1952.307          39.000    24439846.730   100077090.380        1521.219          35.000  
> 2025 04 04 10 34 54.0030000  0  9                     
G05  21910299.345   115139427.478       -1652.450          43.000    21910299.004    89719022.684       -1287.557          42.000  
G06  24817384.327   130416233.9733      -2599.823          27.000    24817398.536   101623115.885       -2026.135          39.000  
G12  24240712.780   127385830.083       -3552.707          38.000    24240719.046    99261703.415       -2768.575          39.000  
G11  23148639.451   121646931.186       -1756.967          44.000    23148641.802    94789820.698       -1369.177          40.000  
G20  22714138.589   119363616.991       -2935.992          48.000                                                                  
G13  21978397.333   115497252.902        1007.034          47.000                                                                  
G15  23701315.135   124551248.0702       2193.790          33.000    23701314.668    97052944.170        1709.450          33.000  
G25  24602132.337   129285113.253       -2387.988          35.000    24602149.986   100741684.380       -1859.735          31.000  
G29  24439470.683   128430284.3542       1952.431          38.000    24439474.358   100075568.708        1521.687          35.000  
> 2025 04 04 10 34 55.0030000  0 10                     
G05  21910613.773   115141079.999       -1652.851          44.000    21910613.451    89720310.380       -1288.006          42.000  
G06  24817878.605   130418834.1692      -2600.610          28.000    24817893.254   101625141.984       -2026.147          40.000  
G12  24241388.953   127389383.048       -3552.972          37.000    24241395.178    99264471.972       -2768.830          40.000  
G11  23148973.830   121648688.358       -1757.347          44.000    23148976.134    94791189.936       -1369.524          41.000  
G20  22714697.320   119366553.122       -2936.571          48.000                                                                  
G13  21978205.740   115496245.980        1006.601          46.000                                                                  
G30  26590361.651                        -303.117          15.000                                                                  
G15  23700897.689   124549053.4191       2193.507          35.000    23700897.171    97051234.405        1710.067          33.000  
G25  24602586.677   129287500.916       -2387.036          34.000    24602604.314   100743545.105       -1860.571          24.000  
G29  24439099.167   128428331.763        1952.238          38.000    24439104.416   100074047.249        1521.094          35.000  
> 2025 04 04 10 34 56.0030000  0 10                     
G05  21910928.388   115142733.111       -1653.934          43.000    21910928.005    89721598.490       -1288.433          42.000  
G06  24818372.065   130421434.6742      -2600.287          29.000    24818388.068   101627168.394       -2026.654          39.000  
G12  24242065.092   127392936.478       -3553.667          36.000    24242071.395    99267240.825       -2769.164          38.000  
G11  23149308.304   121650445.922       -1758.202          44.000    23149310.690    94792559.429       -1369.876          40.000  
G20  22715256.106   119369489.553       -2936.936          47.000                                                                  
G13  21978014.392   115495239.971        1005.507          35.000                                                                  
G30  26590417.958                        -303.117          14.000                                                                  
G15  23700480.095   124546859.541        2193.365          38.000    23700479.647    97049524.996        1709.119          37.000  
G25  24603041.250   129289889.316       -2388.959          35.000    24603058.762   100745406.024       -1861.835          27.000  
G29  24438727.686   128426379.685        1951.496          37.000    24438733.630   100072526.135        1520.745          35.000  
> 2025 04 04 10 34 57.0030000  0  9                     
G05  21911243.110   115144387.101       -1654.516          43.000    21911242.751    89722887.349       -1289.423          42.000  
G06  24818862.217   130424035.9962      -2600.775          29.000    24818883.011   101629195.406       -2027.356          39.000  
G12  24242741.345   127396490.694       -3555.130          34.000    24242747.710    99270010.299       -2769.232          38.000  
G11  23149642.865   121652204.200       -1758.523          45.000    23149645.276    94793929.562       -1370.597          39.000  
G20  22715815.023   119372426.655       -2937.336          48.000                                                                  
G13  21977823.337   115494234.778        1004.720          43.000                                                                  
G15  23700062.620   124544666.610        2193.008          36.000    23700062.364    97047816.245        1708.902          37.000  
G25  24603495.942   129292278.585       -2388.922          35.000    24603513.358   100747267.822       -1862.396          27.000  
G29  24438356.369   128424428.374        1951.684          37.000    24438361.973   100071005.652        1520.446          36.000  
> 2025 04 04 10 34 58.0030000  0  9                     
G05  21911557.884   115146041.726       -1654.483          44.000    21911557.534    89724176.623       -1289.173          43.000  
G06  24819356.410   130426637.7542      -2601.331          28.000    24819378.058   101631222.740       -2027.234          40.000  
G12  24243417.693   127400045.247       -3554.527          37.000    24243424.142    99272780.141       -2770.238          38.000  
G11  23149977.571   121653962.941       -1758.543          45.000    23149979.948    94795300.024       -1370.687          41.000  
G20  22716373.829   119375364.092       -2937.198          47.000                                                                  
G13  21977632.147   115493230.488        1004.181          46.000                                                                  
G15  23699645.291   124542474.211        2192.257          37.000    23699645.189    97046107.907        1708.402          37.000  
G25  24603950.875   129294668.547       -2390.186          35.000    24603968.273   100749130.168       -1862.732          29.000  
G29  24437985.124   128422477.564        1950.800          40.000    24437990.304   100069485.599        1519.876          32.000  
> 2025 04 04 10 34 59.0030000  0 10                     
G05  21911872.823   115147696.594       -1655.581          44.000    21911872.418    89725466.152       -1289.865          42.000  
G06  24819851.859   130429239.6322      -2601.929          27.000    24819873.200   101633250.134       -2027.423          39.000  
G12  24244093.964   127403600.078       -3555.331          35.000    24244100.628    99275550.164       -2770.615          38.000  
G11  23150312.263   121655721.739       -1759.139          45.000    23150314.594    94796670.455       -1370.401          39.000  
G20  22716932.852   119378301.529       -2937.576          48.000                                                                  
G13  21977441.162   115492226.615        1003.221          46.000                                                                  
G30  26589745.808                        -217.114          20.000                                                                  
G15  23699228.099   124540282.029        2192.417          35.000    23699227.991    97044399.652        1708.375          37.000  
G25  24604405.876   129297058.873       -2390.192          35.000    24604423.162   100750992.684       -1862.476          30.000  
G29  24437613.940   128420526.952        1950.277          38.000    24437618.953   100067965.585        1520.858          35.000  
> 2025 04 04 10 35 00.0030000  0  9                     
G05  21912187.873   115149352.283       -1656.064          43.000    21912187.478    89726756.323       -1290.907          42.000  
G06  24820350.960   130431842.0172      -2602.936          29.000    24820368.395   101635278.042       -2028.046          39.000  
G12  24244770.387   127407155.495       -3555.938          37.000    24244777.317    99278320.625       -2770.639          38.000  
G11  23150647.039   121657481.181       -1759.511          45.000    23150649.449    94798041.494       -1371.404          40.000  
G20  22717491.939   119381239.540       -2938.179          48.000                                                                  
G13  21977250.225   115491223.747        1002.395          47.000                                                                  
G15  23698811.000   124538090.482        2190.871          35.000    23698810.966    97042692.022        1707.424          35.000  
G25  24604861.029   129299450.053       -2391.626          37.000    24604878.327   100752855.917       -1863.287          31.000  
G29  24437242.809   128418577.039        1949.611          39.000    24437247.852   100066446.159        1519.797          32.000  
> 2025 04 04 10 35 01.0030000  0 10                     
G05  21912503.086   115151008.622       -1655.921          44.000    21912502.625    89728046.947       -1290.207          42.000  
G06  24820848.590   130434445.0182      -2604.242          33.000    24820863.693   101637306.315       -2027.667          40.000  
G12  24245447.070   127410711.437       -3555.280          39.000    24245453.987    99281091.484       -2770.805          40.000  
G11  23150981.914   121659241.094       -1759.660          45.000    23150984.312    94799412.799       -1370.812          39.000  
G20  22718051.129   119384177.919       -2937.686          48.000                                                                  
G13  21977059.621   115490221.661        1002.325          48.000                                                                  
G30  26589860.342                        -217.114          18.000                                                                  
G15  23698393.952   124535899.517        2191.079          34.000    23698393.998    97040984.762        1707.145          37.000  
G25  24605316.212   129301841.845       -2391.309          38.000    24605333.532   100754719.672       -1863.477          31.000  
G29  24436871.865   128416627.615        1950.346          40.000    24436876.818   100064927.188        1518.293          33.000  
> 2025 04 04 10 35 02.0030000  0 10                     
G05  21912818.367   115152664.957       -1654.005          43.000    21912817.904    89729337.630       -1288.548          41.000  
G06  24821345.707   130437051.3803      -2604.608          31.000    24821358.962   101639334.478       -2026.593          38.000  
G12  24246123.769   127414267.307       -3553.343          42.000    24246130.645    99283862.298       -2769.245          39.000  
G11  23151316.634   121661000.891       -1758.077          45.000    23151319.157    94800784.100       -1369.875          41.000  
G20  22718610.307   119387116.091       -2935.791          48.000                                                                  
G13  21976868.849   115489219.750        1003.910          47.000                                                                  
G30  26589905.529                        -217.114          18.000                                                                  
G15  23697977.149   124533708.558        2194.444          31.000    23697977.138    97039277.422        1710.382          34.000  
G25  24605771.276   129304233.798       -2389.832          37.000    24605788.921   100756583.599       -1862.463          31.000  
G29  24436500.961   128414678.172        1951.530          40.000    24436505.838   100063408.192        1521.342          31.000  
> 2025 04 04 10 35 03.0030000  0 10                     
G05  21913133.372   115154320.214       -1655.475          44.000    21913132.926    89730627.417       -1289.794          42.000  
G06  24821842.680   130439662.7772      -2600.989          29.000    24821853.969   101641361.663       -2027.045          39.000  
G12  24246800.170   127417821.866       -3554.673          41.000    24246807.033    99286632.117       -2769.886          41.000  
G11  23151651.220   121662759.327       -1758.643          44.000    23151653.723    94802154.294       -1370.100          40.000  
G20  22719169.270   119390052.868       -2936.792          48.000                                                                  
G13  21976678.102   115488216.957        1002.664          48.000                                                                  
G30  26589948.867                        -217.114          19.000                                                                  
G15  23697560.385   124531516.347        2192.070          33.000    23697560.049    97037569.267        1708.061          33.000  
G25  24606226.109   129306624.633       -2391.003          39.000    24606243.934   100758446.526       -1863.751          29.000  
G29  24436129.714   128412727.427        1950.849          38.000    24436134.650   100061888.093        1519.859          33.000  
> 2025 04 04 10 35 04.0030000  0 10                     
G05  21913448.496   115155975.873       -1656.020          44.000    21913448.068    89731917.541       -1290.442          42.000  
G06  24822339.624   130442274.6122      -2603.033          30.000    24822349.026   101643389.015       -2027.789          38.000  
G12  24247476.731   127421376.759       -3555.103          42.000    24247483.402    99289402.138       -2770.371          40.000  
G11  23151985.897   121664518.014       -1758.984          44.000    23151988.477    94803524.712       -1370.667          41.000  
G20  22719728.164   119392989.802       -2937.265          48.000                                                                  
G13  21976487.389   115487214.706        1001.796          48.000                                                                  
G30  26589994.138                        -217.114          19.000                                                                  
G15  23697143.918   124529324.416        2191.273          34.000    23697142.989    97035861.253        1707.304          32.000  
G25  24606681.066   129309015.963       -2391.931          38.000    24606699.025   100760309.817       -1863.062          28.000  
G29  24435758.669   128410777.090        1949.615          40.000    24435763.441   100060368.336        1519.005          32.000  
> 2025 04 04 10 35 05.0030000  0 10                     
G05  21913763.693   115157632.315       -1656.663          44.000    21913763.261    89733208.298       -1290.856          42.000  
G06  24822834.133   130444876.9562      -2602.985          32.000    24822844.189   101645416.834       -2027.954          40.000  
G12  24248153.335   127424932.293       -3555.592          42.000    24248160.069    99292172.676       -2770.301          40.000  
G11  23152320.642   121666277.309       -1759.222          44.000    23152323.207    94804895.610       -1371.437          40.000  
G20  22720287.198   119395927.279       -2937.474          48.000                                                                  
G13  21976296.766   115486213.396        1001.060          47.000                                                                  
G30  26590036.357                        -217.114          19.000                                                                  
G15  23696727.618   124527133.223        2190.797          35.000    23696726.019    97034153.815        1707.461          32.000  
G25  24607136.228   129311408.092       -2392.249          38.000    24607154.105   100762173.949       -1864.063          28.000  
G29  24435387.586   128408827.417        1949.271          39.000    24435392.407   100058849.081        1518.705          31.000  
> 2025 04 04 10 35 06.0030000  0 10                     
G05  21914079.107   115159289.566       -1657.709          43.000    21914078.648    89734499.663       -1291.670          43.000  
G06  24823330.579   130447479.8742      -2602.252          32.000    24823339.384   101647445.144       -2028.320          40.000  
G12  24248830.012   127428488.456       -3556.180          42.000    24248836.839    99294943.720       -2771.100          41.000  
G11  23152655.530   121668037.207       -1759.951          44.000    23152658.062    94806266.964       -1371.325          40.000  
G20  22720846.247   119398865.280       -2938.031          48.000                                                                  
G13  21976106.315   115485213.072         999.902          47.000                                                                  
G30  26590077.881                        -217.114          18.000                                                                  
G15  23696311.104   124524942.680        2189.826          33.000    23696309.179    97032446.893        1707.618          31.000  
G25  24607591.514   129313801.070       -2393.201          37.000    24607609.563   100764038.626       -1864.838          33.000  
G29  24435016.585   128406878.388        1948.945          40.000    24435021.490   100057330.392        1518.521          30.000  
> 2025 04 04 10 35 07.0030000  0 10                     
G05  21914394.562   115160947.462       -1658.312          43.000    21914394.146    89735791.509       -1292.092          42.000  
G06  24823827.912   130450082.8981      -2603.632          33.000    24823834.802   101649473.850       -2028.943          39.000  
G12  24249506.793   127432045.133       -3556.779          42.000    24249513.617    99297715.153       -2771.561          40.000  
G11  23152990.494   121669797.568       -1760.559          44.000    23152993.016    94807638.634       -1371.632          41.000  
G20  22721405.408   119401803.648       -2938.486          48.000                                                                  
G13  21975916.107   115484213.534         998.951          48.000                                                                  
G30  26590119.500                        -217.114          18.000                                                                  
G15  23695894.402   124522752.589        2189.825          34.000    23695892.456    97030740.420        1705.178          31.000  
G25  24608046.944   129316194.752       -2393.878          38.000    24608064.516                       -1865.180          27.000  
G29  24434645.835   128404929.889        1948.340          39.000    24434650.679   100055812.050        1517.962          30.000  
> 2025 04 04 10 35 08.0030000  0 10                     
G05  21914710.267   115162606.322       -1659.385          43.000    21914709.796    89737084.134       -1293.171          43.000  
G06  24824324.572   130452687.214       -2604.810          32.000    24824330.286   101651503.148       -2029.449          39.000  
G12  24250183.705   127435602.639       -3558.110          41.000    24250190.533    99300487.252       -2772.499          41.000  
G11  23153325.619   121671558.741       -1761.724          44.000    23153328.231    94809011.020       -1372.607          40.000  
G20  22721964.679   119404742.759       -2939.524          48.000                                                                  
G13  21975726.183   115483215.135         997.726          48.000                                                                  
G30  26590158.977                        -217.114          18.000                                                                  
G15  23695478.022   124520563.440        2188.448          34.000    23695475.783    97029034.542        1705.995          30.000  
G25  24608502.649   129318589.481       -2395.367          36.000    24608520.979   100767775.7621      -1866.132          33.000  
G29  24434275.213   128402982.292        1947.007          39.000    24434279.924   100054294.442        1517.583          30.000  
> 2025 04 04 10 35 09.0030000  0  9                     
G05  21915026.048   115164265.998       -1659.498          43.000    21915025.570    89738377.376       -1293.056          43.000  
G06  24824820.503   130455292.114       -2604.871          32.000    24824825.977   101653532.967       -2029.468          39.000  
G12  24250860.859   127439160.877       -3557.829          41.000    24250867.600    99303259.907       -2772.591          41.000  
G11  23153660.799   121673320.541       -1761.369          44.000    23153663.551    94810383.832       -1372.550          41.000  
G20  22722524.015   119407682.418       -2939.431          48.000                                                                  
G13  21975536.444   115482217.692         997.624          48.000                                                                  
G15  23695061.586   124518374.972        2188.902          32.000    23695059.166    97027329.280        1705.641          30.000  
G25  24608958.570   129320985.016       -2395.020          35.000    24608978.769   100769642.492       -1866.962          32.000  
G29  24433904.676   128401035.387        1947.410          39.000    24433909.255   100052777.379        1517.292          29.000  
> 2025 04 04 10 35 10.0030000  0 10                     
G05  21915341.765   115165925.270       -1659.391          43.000    21915341.334    89739670.318       -1292.888          42.000  
G06  24825316.053   130457896.539       -2604.089          34.000    24825321.558   101655562.340       -2029.022          40.000  
G12  24251537.883   127442718.561       -3557.501          42.000    24251544.632    99306032.117       -2771.900          40.000  
G11  23153996.025   121675081.778       -1761.090          44.000    23153998.792    94811756.231       -1372.642          39.000  
G19  25256372.406                       -4943.602          27.000                                                                  
G20  22723083.287   119410621.419       -2938.863          47.000                                                                  
G13  21975346.670   115481220.024         997.663          46.000                                                                  
G15  23694644.994   124516186.017        2188.981          32.000    23694642.564    97025623.632        1705.672          34.000  
G25  24609414.411   129323380.255       -2395.300          37.000    24609432.723   100771508.817       -1866.400          28.000  
G29  24433534.099   128399088.000        1947.565          39.000    24433538.696   100051259.956        1517.379          30.000  
> 2025 04 04 10 35 11.0030000  0  9                     
G05  21915657.503   115167584.693       -1659.335          43.000    21915657.086    89740963.387       -1293.096          43.000  
G06  24825811.570   130460500.797       -2603.876          34.000    24825817.006   101657591.717       -2029.303          40.000  
G12  24252214.924   127446276.191       -3557.674          42.000    24252221.620    99308804.309       -2772.075          40.000  
G11  23154331.221   121676842.952       -1761.089          44.000    23154334.013    94813128.565       -1372.219          41.000  
G20  22723642.573   119413560.299       -2938.717          48.000                                                                  
G13  21975156.917   115480222.723         997.279          47.000                                                                  
G15  23694228.470   124513997.209        2189.140          32.000    23694226.077    97023918.137        1703.444          29.000  
G25  24609870.329   129325775.713       -2396.057          37.000    24609888.717   100773375.403       -1866.882          30.000  
G29  24433163.488   128397140.632        1947.269          39.000    24433168.115   100049742.514        1516.532          30.000  
> 2025 04 04 10 35 12.0030000  0  9                     
G05  21915973.426   115169244.866       -1660.750          44.000    21915973.046    89742257.040       -1294.222          43.000  
G06  24826307.351   130463105.807       -2605.609          29.000    24826312.633   101659621.509       -2029.999          40.000  
G12  24252892.012   127449834.478       -3558.591          40.000    24252898.700    99311577.003       -2773.354          40.000  
G11  23154666.391   121678604.702       -1762.185          44.000    23154669.279    94814501.358       -1373.100          40.000  
G20  22724201.880   119416499.692       -2939.729          47.000                                                                  
G13  21974967.231   115479226.299         995.776          47.000                                                                  
G15  23693812.085   124511809.034        2187.833          36.000    23693809.723    97022213.012        1705.747          30.000  
G25  24610326.309   129328171.903       -2396.637          37.000    24610343.398   100775242.560       -1868.848          31.000  
G29  24432793.079   128395193.939        1946.054          39.000    24432797.701   100048225.608        1516.952          30.000  
> 2025 04 04 10 35 13.0030000  0  9                     
G05  21916289.453   115170905.754       -1661.263          43.000    21916289.153    89743551.198       -1294.467          42.000  
G06  24826803.206   130465711.212       -2605.249          33.000    24826808.402   101661651.691       -2030.481          40.000  
G12  24253569.222   127453393.355       -3558.292          40.000    24253575.867    99314350.129       -2773.260          40.000  
G11  23155001.735   121680366.989       -1762.525          44.000    23155004.623    94815874.546       -1373.618          41.000  
G20  22724761.319   119419439.487       -2939.984          47.000                                                                  
G13  21974777.784   115478230.737         994.903          41.000                                                                  
G15  23693395.525   124509621.273        2187.123          38.000    23693393.457    97020508.319        1704.797          35.000  
G25  24610782.349   129330568.794       -2396.777          39.000    24610798.558   100777110.324       -1868.695          31.000  
G29  24432422.723   128393247.799        1946.242          39.000    24432427.186   100046709.150        1516.490          30.000  
> 2025 04 04 10 35 14.0030000  0  9                     
G05  21916605.692   115172567.415       -1662.181          43.000    21916605.376    89744846.014       -1295.054          43.000  
G06  24827298.870   130468317.264       -2605.859          33.000    24827304.300   101663682.401       -2030.859          38.000  
G12  24254246.478   127456952.868       -3559.692          41.000    24254253.173    99317123.800       -2773.934          39.000  
G11  23155337.219   121682129.904       -1763.228          44.000    23155340.006    94817248.224       -1373.905          41.000  
G20  22725320.812   119422379.856       -2940.693          47.000                                                                  
G13  21974588.383   115477236.130         994.296          39.000                                                                  
G15  23692978.789   124507434.386        2186.440          36.000    23692977.203    97018804.235        1703.977          36.000  
G25  24611238.699   129332966.622       -2397.937          38.000    24611255.100   100778978.646       -1868.341          31.000  
G29  24432052.582   128391302.387        1945.073          38.000    24432057.012   100045193.209        1516.091          31.000  
> 2025 04 04 10 35 15.0030000  0  9                     
G05  21916921.975   115174229.635       -1662.188          44.000    21916921.714    89746141.272       -1295.176          43.000  
G06  24827794.655   130470923.756       -2606.366          33.000    24827800.314   101665713.445       -2030.920          39.000  
G12  24254924.034   127460512.743       -3559.844          43.000    24254930.514    99319897.738       -2774.057          41.000  
G11  23155672.776   121683893.171       -1763.025          44.000    23155675.528    94818622.205       -1373.631          41.000  
G20  22725880.351   119425320.499       -2940.616          47.000                                                                  
G13  21974399.380   115476242.287         993.766          48.000                                                                  
G15  23692562.975   124505248.043        2186.727          27.000    23692561.188    97017100.521        1704.988          32.000  
G25  24611695.114   129335365.049       -2398.572          35.000    24611711.475   100780847.592       -1869.104          34.000  
G29  24431682.454   128389357.395        1944.867          39.000    24431686.914   100043677.602        1516.321          31.000  
> 2025 04 04 10 35 16.0030000  0  9                     
G05  21917238.343   115175892.181       -1662.701          44.000    21917238.200    89747436.783       -1295.582          43.000  
G06  24828290.539   130473530.391       -2606.482          33.000    24828296.323   101667744.591       -2031.195          39.000  
G12  24255601.485   127464072.863       -3559.982          42.000    24255607.994    99322671.864       -2774.118          41.000  
G11  23156008.300   121685656.610       -1763.507          44.000    23156011.104    94819996.346       -1374.055          41.000  
G20  22726439.940   119428261.235       -2940.759          47.000                                                                  
G13  21974210.285   115475248.925         993.302          47.000                                                                  
G15  23692147.485   124503061.857        2186.161          32.000    23692145.181    97015397.111        1702.709          31.000  
G25  24612151.666   129337763.830       -2398.730          34.000    24612167.955   100782716.773       -1869.312          34.000  
G29  24431312.422   128387412.627        1945.075          39.000    24431316.869   100042162.285        1515.560          31.000  
> 2025 04 04 10 35 17.0030000  0  9                     
G05  21917554.848   115177555.067       -1662.466          44.000    21917554.554    89748732.526       -1295.542          43.000  
G06  24828786.852   130476137.233       -2606.104          33.000    24828792.307   101669775.847       -2031.427          39.000  
G12  24256278.972   127467633.205       -3560.101          42.000    24256285.591    99325446.158       -2774.219          41.000  
G11  23156343.954   121687420.212       -1763.175          44.000    23156346.662    94821370.531       -1374.114          40.000  
G20  22726999.535   119431202.033       -2940.484          47.000                                                                  
G13  21974021.210   115474256.073         992.775          46.000                                                                  
G15  23691732.172   124500875.801        2186.803          32.000    23691729.298    97013693.666        1703.985          30.000  
G25  24612608.337   129340163.007       -2399.200          34.000    24612624.583   100784586.285       -1869.086          32.000  
G29  24430942.405   128385468.144        1944.893          39.000    24430946.812   100040647.113        1515.247          31.000  
> 2025 04 04 10 35 18.0030000  0  9                     
G05  21917871.283   115179218.073       -1663.077          44.000    21917871.061    89750028.396       -1296.123          41.000  
G06  24829282.878   130478744.038       -2606.970          33.000    24829288.232   101671807.091       -2031.348          39.000  
G12  24256956.541   127471193.548       -3560.527          43.000    24256963.146    99328220.429       -2774.293          40.000  
G11  23156679.584   121689183.748       -1763.725          44.000    23156682.145    94822744.747       -1374.165          41.000  
G20  22727559.172   119434142.726       -2940.822          47.000                                                                  
G13  21973832.305   115473263.475         992.326          44.000                                                                  
G15  23691316.187   124498689.838        2185.835          33.000    23691313.348    97011990.341        1703.518          35.000  
G25  24613065.105   129342562.341       -2399.554          35.000    24613081.255   100786455.872       -1869.482          31.000  
G29  24430572.395   128383523.660        1944.167          40.000    24430576.945   100039131.892        1515.354          31.000  
> 2025 04 04 10 35 19.0030000  0  9                     
G05  21918187.676   115180881.243       -1663.349          44.000    21918187.627    89751324.357       -1296.233          43.000  
G06  24829778.853   130481350.711       -2607.019          35.000    24829784.240   101673838.310       -2031.336          40.000  
G12  24257634.037   127474753.838       -3560.429          43.000    24257640.751    99330994.687       -2774.313          40.000  
G11  23157015.194   121690947.247       -1763.528          44.000    23157017.789    94824118.870       -1374.160          41.000  
G20  22728118.742   119437083.269       -2940.754          47.000                                                                  
G13  21973643.501   115472271.250         991.983          47.000                                                                  
G15  23690900.359   124496504.098        2184.593          31.000    23690897.392    97010287.071        1703.286          31.000  
G25  24613521.788   129344961.897       -2399.408          36.000    24613537.964   100788325.706       -1870.056          30.000  
G29  24430202.402   128381579.199        1944.525          38.000    24430206.912   100037616.703        1515.280          31.000  
> 2025 04 04 10 35 20.0030000  0  9                     
G05  21918504.149   115182544.976       -1664.018          44.000    21918504.316    89752620.789       -1296.526          42.000  
G06  24830274.821   130483958.010       -2609.436          35.000    24830280.294   101675869.840       -2031.024          39.000  
G12  24258311.684   127478314.619       -3561.000          43.000    24258318.257    99333769.325       -2774.786          40.000  
G11  23157350.724   121692711.159       -1764.089          44.000    23157353.388    94825493.369       -1375.127          39.000  
G20  22728678.409   119440024.173       -2941.090          47.000                                                                  
G13  21973454.811   115471279.810         990.887          47.000                                                                  
G15  23690485.006   124494318.724        2185.255          31.000    23690481.395    97008584.230        1702.575          31.000  
G25  24613978.669   129347362.090       -2400.714          38.000    24613994.859   100790195.996       -1870.569          31.000  
G29  24429832.557   128379635.251        1943.787          39.000    24429836.944   100036101.864        1514.866          30.000  
> 2025 04 04 10 35 21.0030000  0  9                     
G05  21918820.777   115184209.333       -1664.854          44.000    21918820.992    89753917.706       -1297.097          43.000  
G06  24830769.513   130486574.0083      -2608.105          35.000    24830776.494   101677901.776       -2032.202          39.000  
G12  24258989.298   127481875.873       -3561.800          43.000    24258995.862    99336544.320       -2775.403          40.000  
G11  23157686.444   121694475.528       -1764.596          44.000    23157689.054    94826868.160       -1374.613          38.000  
G20  22729238.098   119442965.394       -2941.374          47.000                                                                  
G13  21973266.134   115470289.096         990.307          47.000                                                                  
G15  23690069.745   124492133.875        2183.876          33.000    23690065.589    97006881.755        1701.877          31.000  
G25  24614435.535   129349762.929       -2401.080          37.000    24614451.748   100792066.886       -1872.552          31.000  
G29  24429462.629   128377691.815        1942.732          40.000    24429467.108   100034587.580        1514.614          30.000  
> 2025 04 04 10 35 22.0030000  0  9                     
G05  21919137.504   115185874.042       -1665.179          44.000    21919137.792    89755214.884       -1297.291          43.000  
G06  24831265.236   130489181.7732      -2607.953          34.000    24831272.803   101679933.775       -2032.153          39.000  
G12  24259666.979   127485437.320       -3561.618          42.000    24259673.530    99339319.476       -2775.468          41.000  
G11  23158022.112   121696240.034       -1764.510          44.000    23158024.852    94828243.147       -1375.026          38.000  
G20  22729797.852   119445906.741       -2941.498          47.000                                                                  
G13  21973077.711   115469298.914         989.738          48.000                                                                  
G15  23689654.303   124489949.184        2184.575          33.000    23689649.719    97005179.484        1701.658          32.000  
G25  24614892.455   129352164.185       -2401.471          36.000    24614908.834   100793937.878       -1871.246          31.000  
G29  24429092.925   128375748.591        1942.542          40.000    24429097.135   100033073.450        1514.261          30.000  
> 2025 04 04 10 35 23.0030000  0  9                     
G05  21919454.385   115187539.447       -1665.929          44.000    21919454.696    89756512.588       -1298.179          42.000  
G06  24831760.957   130491790.0412      -2608.746          36.000    24831769.147   101681966.188       -2032.800          39.000  
G12  24260344.773   127488999.341       -3562.674          42.000    24260351.446    99342095.076       -2776.130          41.000  
G11  23158358.014   121698005.052       -1765.550          44.000    23158360.696    94829618.473       -1375.626          39.000  
G20  22730357.666   119448848.497       -2942.161          47.000                                                                  
G13  21972889.496   115468309.504         988.942          46.000                                                                  
G15  23689238.912   124487765.109        2183.930          34.000    23689234.101    97003477.590        1701.250          31.000  
G25  24615349.567   129354566.144       -2402.228          36.000    24615365.815   100795809.539       -1872.327          32.000  
G29  24428723.224   128373805.922        1942.173          39.000    24428727.315   100031559.700        1513.229          30.000  
> 2025 04 04 10 35 24.0030000  0  9                     
G05  21919771.403   115189205.902       -1666.936          44.000    21919771.759    89757811.140       -1298.811          42.000  
G06  24832258.632   130494399.3222      -2609.967          36.000    24832265.723   101683999.387       -2034.082          38.000  
G12  24261022.808   127492562.336       -3563.506          41.000    24261029.456    99344871.421       -2776.561          39.000  
G11  23158694.008   121699771.001       -1766.646          45.000    23158696.670    94830994.535       -1376.821          39.000  
G20  22730917.554   119451791.092       -2942.677          48.000                                                                  
G13  21972701.371   115467321.670         987.737          39.000                                                                  
G15  23688823.067   124485582.010        2182.612          40.000    23688818.678    97001776.531        1701.083          37.000  
G25  24615807.001   129356969.265       -2403.394          38.000    24615823.094   100797682.007       -1872.363          29.000  
G29  24428353.687   128371864.303        1941.282          40.000    24428357.808   100030046.689        1513.384          31.000  
> 2025 04 04 10 35 25.0030000  0  9                     
G05  21920088.645   115190873.465       -1667.787          43.000    21920089.148    89759110.561       -1299.781          42.000  
G06  24832754.215   130497008.8261      -2610.602          39.000    24832762.451   101686033.219       -2034.082          37.000  
G12  24261701.061   127496126.248       -3564.341          41.000    24261707.657    99347648.500       -2777.438          39.000  
G11  23159030.310   121701537.896       -1767.223          43.000    23159032.898    94832371.362       -1376.948          39.000  
G20  22731477.710   119454734.523       -2944.024          47.000                                                                  
G13  21972513.586   115466334.660         986.107          39.000                                                                  
G15  23688407.592   124483399.995        2181.680          38.000    23688403.265    97000076.241        1700.120          37.000  
G25  24616264.473   129359373.479       -2404.755          37.000    24616280.564   100799555.464       -1873.493          30.000  
G29  24427984.413   128369923.649        1940.393          41.000    24427988.461   100028534.496        1511.510          31.000  
> 2025 04 04 10 35 26.0030000  0  9                     
G05  21920406.073   115192542.050       -1668.892          43.000    21920406.630    89760410.742       -1300.361          42.000  
G06  24833252.262   130499619.882       -2611.060          35.000    24833259.378   101688067.793       -2034.869          39.000  
G12  24262379.448   127499691.017       -3564.635          43.000    24262386.033    99350426.236       -2777.748          39.000  
G11  23159366.663   121703305.552       -1767.954          44.000    23159369.290    94833748.755       -1377.828          40.000  
G20  22732037.962   119457678.705       -2944.215          47.000                                                                  
G13  21972325.999   115465349.133         986.013          37.000                                                                  
G15  23687992.318   124481218.910        2181.238          39.000    23687988.258    96998376.684        1699.911          36.000  
G25  24616722.244   129361778.790       -2405.145          36.000    24616738.259   100801429.686       -1873.956          29.000  
G29  24427615.281   128367983.927        1939.471          40.000    24427619.081   100027022.989        1512.444          30.000  
> 2025 04 04 10 35 27.0030000  0 10                     
G05  21920723.661   115194210.863       -1669.143          43.000    21920724.222    89761711.114       -1300.431          43.000  
G06  24833749.612   130502230.959       -2611.151          32.000    24833756.210   101690102.371       -2035.016          39.000  
G12  24263057.856   127503255.881       -3565.126          43.000    24263064.430    99353204.072       -2777.797          40.000  
G11  23159703.046   121705073.289       -1767.996          45.000    23159705.610    94835126.197       -1377.711          39.000  
G20  22732598.225   119460622.864       -2944.298          48.000                                                                  
G13  21972138.554   115464363.783         984.941          44.000                                                                  
G30  26551264.718                        -300.139          11.000                                                                  
G15  23687577.144   124479037.886        2181.100          36.000    23687573.190    96996677.184        1699.011          36.000  
G25  24617180.008   129364184.395       -2406.165          37.000    24617195.978   100803304.204       -1873.761          29.000  
G29  24427246.198   128366044.330        1939.231          40.000    24427249.972   100025511.652        1510.973          30.000  
> 2025 04 04 10 35 28.0030000  0 10                     
G05  21921041.279   115195880.084       -1669.855          44.000    21921041.886    89763011.811       -1301.338          43.000  
G06  24834246.541   130504842.225       -2611.884          35.000    24834253.202   101692137.135       -2035.229          40.000  
G12  24263736.187   127506821.012       -3565.760          42.000    24263742.842    99355982.119       -2778.434          40.000  
G11  23160039.483   121706841.262       -1768.563          44.000    23160042.078    94836503.820       -1378.210          39.000  
G20  22733158.426   119463567.156       -2944.859          48.000                                                                  
G13  21971951.130   115463379.132         983.940          46.000                                                                  
G30  26551320.577                        -267.424          12.000                                                                  
G15  23687161.971   124476857.175        2180.250          36.000    23687158.192    96994977.947        1698.441          34.000  
G25  24617637.893   129366590.437       -2406.671          38.000    24617653.908   100805179.060       -1875.379          28.000  
G29  24426877.211   128364105.008        1938.625          40.000    24426880.768   100024000.433        1511.354          30.000  
> 2025 04 04 10 35 29.0030000  0 10                     
G05  21921359.142   115197550.430       -1671.027          43.000    21921359.812    89764313.385       -1302.136          43.000  
G06  24834743.555   130507454.529       -2613.367          35.000    24834750.281   101694172.650       -2036.255          40.000  
G12  24264414.766   127510387.118       -3566.864          43.000    24264421.399    99358760.918       -2779.470          40.000  
G11  23160376.083   121708610.179       -1769.579          44.000    23160378.715    94837882.192       -1378.756          40.000  
G20  22733718.865   119466512.314       -2945.701          48.000                                                                  
G13  21971764.008   115462395.788         982.702          46.000                                                                  
G30  26551373.888                        -267.424          10.000                                                                  
G15  23686747.130   124474677.615        2178.538          33.000    23686743.453    96993279.537        1697.457          33.000  
G25  24618096.167   129368997.679       -2407.959          40.000    24618112.062   100807054.885       -1877.161          30.000  
G29  24426508.391   128362166.739        1937.356          40.000    24426511.830   100022490.137        1509.714          30.000  
> 2025 04 04 10 35 30.0030000  0  9                     
G05  21921677.147   115199222.117       -1671.664          43.000    21921677.832    89765616.023       -1303.232          42.000  
G06  24835240.761   130510067.889       -2613.837          35.000    24835247.708   101696209.066       -2036.652          38.000  
G12  24265093.554   127513954.553       -3567.378          39.000    24265100.230    99361540.702       -2779.667          37.000  
G11  23160712.829   121710380.289       -1770.482          45.000    23160715.478    94839261.460       -1379.819          39.000  
G20  22734279.571   119469458.576       -2946.417          47.000                                                                  
G13  21971577.059   115461413.931         981.230          45.000                                                                  
G15  23686332.246   124472499.160        2178.214          36.000    23686328.936    96991582.148        1696.905          35.000  
G25  24618554.536   129371406.295       -2409.448          39.000    24618570.447   100808931.631       -1877.069          34.000  
G29  24426139.691   128360229.664        1936.910          40.000    24426143.285   100020980.790        1509.081          35.000  
> 2025 04 04 10 35 31.0030000  0 10                     
G05  21921995.538   115200894.544       -1672.606          43.000    21921995.935    89766919.177       -1303.317          42.000  
G06  24835738.124   130512681.896       -2614.215          35.000    24835745.173   101698245.946       -2037.085          39.000  
G12  24265772.537   127517522.454       -3568.158          39.000    24265779.143    99364320.917       -2780.327          35.000  
G11  23161049.688   121712150.912       -1770.764          45.000    23161052.419    94840641.146       -1379.859          39.000  
G20  22734840.299   119472405.279       -2946.782          47.000                                                                  
G13  21971390.290   115460432.998         980.483          45.000                                                                  
G30  26551475.343                        -230.192          12.000                                                                  
G15  23685917.592   124470321.464        2177.445          40.000    23685914.629    96989885.264        1696.518          37.000  
G25  24619013.000   129373815.654       -2409.375          36.000    24619029.019   100810809.103       -1878.003          34.000  
G29  24425771.134   128358293.258        1936.144          41.000    24425774.714   100019471.872        1508.898          35.000  
> 2025 04 04 10 35 32.0030000  0 10                     
G05  21922314.000   115202567.769       -1673.777          44.000    21922314.392    89768223.005       -1304.348          43.000  
G06  24836235.613   130515296.469       -2615.588          34.000    24836242.814   101700283.299       -2037.897          39.000  
G12  24266451.663   127521091.074       -3569.233          39.000    24266458.188    99367101.624       -2780.855          38.000  
G11  23161386.785   121713922.184       -1772.109          44.000    23161389.512    94842021.395       -1380.957          39.000  
G20  22735401.157   119475352.557       -2947.630          47.000                                                                  
G13  21971203.780   115459453.051         979.272          44.000                                                                  
G30  26551521.252                        -230.192          13.000                                                                  
G15  23685503.142   124468144.428        2176.451          39.000    23685500.401    96988188.857        1695.833          37.000  
G25  24619471.616   129376225.904       -2410.901          36.000    24619487.657   100812687.208       -1878.485          34.000  
G29  24425402.693   128356357.553        1934.890          41.000    24425406.321   100017963.554        1507.266          35.000  
> 2025 04 04 10 35 33.0030000  0 10                     
G05  21922632.645   115204242.225       -1671.877          44.000    21922632.995    89769527.794       -1303.074          42.000  
G06  24836733.293   130517912.176       -2614.099          35.000    24836740.731   101702321.451       -2036.407          41.000  
G12  24267130.992   127524660.698       -3567.124          42.000    24267137.449    99369883.130       -2779.453          39.000  
G11  23161724.062   121715694.497       -1769.847          44.000    23161726.736    94843402.396       -1379.014          39.000  
G20  22735962.132   119478300.785       -2945.854          47.000                                                                  
G13  21971017.569   115458474.461         980.884          44.000                                                                  
G30  26551572.772                        -230.192          14.000                                                                  
G15  23685088.942   124465968.552        2178.038          39.000    23685086.338    96986493.345        1697.543          37.000  
G25  24619930.469   129378637.301       -2409.222          37.000    24619946.512   100814566.258       -1877.209          36.000  
G29  24425034.464   128354422.949        1936.925          42.000    24425038.200   100016456.089        1509.761          35.000  
> 2025 04 04 10 35 34.0030000  0 10                     
G05  21922951.229   115205916.664       -1670.890          44.000    21922951.658    89770832.554       -1301.877          43.000  
G06  24837231.117   130520527.674       -2612.207          35.000    24837238.476   101704359.530       -2035.388          40.000  
G12  24267809.961   127528201.8843      -3566.461          33.000    24267816.761    99372664.728       -2779.392          32.000  
G11  23162061.187   121717466.638       -1768.366          45.000    23162063.969    94844783.279       -1377.956          39.000  
G20  22736523.109   119481248.752       -2944.175          47.000                                                                  
G13  21970831.315   115457496.060         982.189          46.000                                                                  
G30  26551622.272                        -230.192          14.000                                                                  
G15  23684674.695   124463792.535        2179.724          38.000    23684672.261    96984797.783        1698.392          37.000  
G25  24620389.327   129381048.897       -2407.910          39.000    24620405.278   100816445.465       -1876.495          37.000  
G29  24424666.371   128352488.236        1937.947          41.000    24424670.037   100014948.552        1510.645          35.000  
> 2025 04 04 10 35 35.0030000  0 10                     
G05  21923269.519   115207589.042       -1672.359          43.000    21923269.928    89772135.699       -1303.140          42.000  
G06  24837728.291   130523140.919       -2613.226          37.000    24837735.885   101706395.823       -2036.536          39.000  
G12  24268492.694   127531769.2292      -3567.407          39.000    24268495.584    99375444.458       -2779.995          34.000  
G11  23162398.014   121719236.523       -1769.899          44.000    23162400.691    94846162.459       -1379.282          39.000  
G20  22737083.675   119484194.406       -2945.565          47.000                                                                  
G13  21970644.694   115456515.766         980.068          43.000                                                                  
G30  26551670.578                        -230.192          15.000                                                                  
G15  23684259.926   124461614.377        2177.987          39.000    23684257.746    96983100.493        1697.181          37.000  
G25  24620847.883   129383458.476       -2409.949          38.000    24620863.627   100818323.016       -1877.832          37.000  
G29  24424297.789   128350551.361        1936.800          42.000    24424301.466   100013439.303        1508.951          34.000  
> 2025 04 04 10 35 36.0030000  0 10                     
G05  21923587.626   115209260.801       -1670.835          42.000    21923588.040    89773438.375       -1302.120          42.000  
G06  24838225.557   130525753.397       -2611.847          34.000    24838232.979   101708431.565       -2035.052          39.000  
G12  24269172.641   127535335.8222      -3565.734          39.000    24269174.252    99378223.659       -2778.221          33.000  
G11  23162734.637   121721005.635       -1768.503          44.000    23162737.339    94847540.941       -1377.729          40.000  
G20  22737643.956   119487139.200       -2943.862          47.000                                                                  
G13  21970458.029   115455535.080         981.101          40.000                                                                  
G30  26551719.382                        -230.192          15.000                                                                  
G15  23683845.056   124459435.502        2179.740          39.000    23683843.098    96981402.702        1698.850          37.000  
G25  24621306.283   129385867.464       -2408.331          40.000    24621321.826   100820200.125       -1877.106          37.000  
G29  24423929.069   128348613.810        1937.802          41.000    24423932.671   100011929.499        1510.420          34.000  
> 2025 04 04 10 35 37.0030000  0 10                     
G05  21923905.678   115210932.530       -1672.427          42.000    21923906.091    89774741.002       -1302.906          43.000  
G06  24838722.919   130528365.735       -2612.866          34.000    24838729.950   101710467.048       -2035.791          40.000  
G12  24269853.363   127538901.7471      -3566.482          40.000    24269852.924    99381002.658       -2779.073          34.000  
G11  23163071.279   121722774.519       -1769.115          44.000    23163074.033    94848919.332       -1378.609          39.000  
G20  22738204.189   119490083.671       -2944.898          47.000                                                                  
G13  21970271.333   115454554.676         980.299          34.000                                                                  
G30  26551764.472                        -230.192          14.000                                                                  
G15  23683430.083   124457256.536        2178.762          40.000    23683428.491    96979704.797        1697.140          38.000  
G25  24621764.581   129388276.431       -2409.180          40.000    24621780.075   100822077.260       -1877.466          35.000  
G29  24423560.332   128346676.074        1937.609          42.000    24423563.907   100010419.602        1510.028          34.000  
> 2025 04 04 10 35 38.0030000  0 10                     
G05  21924223.847   115212604.883       -1672.656          44.000    21924224.384    89776044.141       -1303.192          43.000  
G06  24839220.383   130530978.490       -2613.019          36.000    24839227.112   101712502.975       -2035.706          40.000  
G12  24270532.116   127542468.603       -3567.202          40.000    24270531.714    99383782.070       -2779.119          34.000  
G11  23163407.957   121724543.873       -1769.519          44.000    23163410.741    94850298.019       -1378.874          39.000  
G20  22738764.580   119493028.534       -2944.818          47.000                                                                  
G13  21970084.534   115453574.552         980.756          30.000                                                                  
G30  26551812.963                        -230.192          14.000                                                                  
G15  23683015.322   124455078.075        2178.516          41.000    23683013.930    96978007.329        1696.995          38.000  
G25  24622223.076   129390686.088       -2409.741          39.000    24622238.470   100823954.889       -1877.588          37.000  
G29  24423191.660   128344738.905        1937.119          42.000    24423195.203   100008910.108        1509.755          35.000  
> 2025 04 04 10 35 39.0030000  0 10                     
G05  21924542.053   115214277.067       -1672.569          44.000    21924542.595    89777347.178       -1303.729          43.000  
G06  24839717.356   130533590.857       -2612.195          36.000    24839724.242   101714538.659       -2035.797          39.000  
G12  24271210.085   127546035.252       -3566.543          39.000    24271210.487    99386561.271       -2779.613          33.000  
G11  23163744.618   121726312.872       -1769.400          44.000    23163747.265    94851676.434       -1378.443          39.000  
G20  22739324.781   119495972.966       -2944.679          47.000                                                                  
G13  21969898.309   115452594.889         979.012          46.000                                                                  
G30  26551857.597                        -230.192          15.000                                                                  
G15  23682600.569   124452899.287        2178.602          37.000    23682599.308    96976309.579        1697.380          36.000  
G25  24622681.522   129393095.644       -2409.747          39.000    24622696.905   100825832.473       -1877.997          38.000  
G29  24422822.887   128342801.445        1937.071          42.000    24422826.505   100007400.400        1509.378          34.000  
> 2025 04 04 10 35 40.0030000  0 10                     
G05  21924860.427   115215949.928       -1673.271          43.000    21924860.973    89778650.692       -1303.923          42.000  
G06  24840214.519   130536203.804       -2613.599          37.000    24840221.477   101716574.671       -2036.566          39.000  
G12  24271890.153   127549602.341       -3567.415          39.000    24271889.331    99389340.808       -2779.729          34.000  
G11  23164081.301   121728082.337       -1769.819          44.000    23164083.960    94853055.253       -1379.074          40.000  
G20  22739885.117   119498917.771       -2945.030          48.000                                                                  
G13  21969711.891   115451615.907         978.571          44.000                                                                  
G30  26551905.133                        -230.192          15.000                                                                  
G15  23682185.742   124450721.138        2178.052          35.000    23682184.894    96974612.336        1696.675          36.000  
G25  24623140.229   129395505.892       -2411.121          39.000    24623155.476   100827710.558       -1877.887          38.000  
G29  24422454.299   128340864.515        1936.639          43.000    24422457.800   100005891.128        1508.650          35.000  
> 2025 04 04 10 35 41.0030000  0 10                     
G05  21925179.042   115217623.845       -1674.187          43.000    21925179.473    89779955.042       -1304.449          42.000  
G06  24840711.825   130538817.588       -2614.380          37.000    24840718.806   101718611.372       -2036.981          39.000  
G12  24272569.219   127553170.344       -3567.854          36.000    24272568.386    99392121.048       -2780.657          30.000  
G11  23164418.189   121729852.670       -1770.519          44.000    23164420.861    94854434.741       -1379.534          40.000  
G20  22740445.696   119501863.370       -2945.545          48.000                                                                  
G13  21969525.791   115450638.141         977.426          45.000                                                                  
G30  26551953.288                        -230.192          16.000                                                                  
G15  23681771.228   124448543.938        2176.927          38.000    23681770.615    96972915.776        1696.944          36.000  
G25  24623598.987   129397917.189       -2411.890          37.000    24623614.302   100829589.553       -1879.285          35.000  
G29  24422085.829   128338928.563        1935.493          43.000    24422089.302   100004382.588        1508.729          34.000  
> 2025 04 04 10 35 42.0030000  0  9                     
G05  21925497.685   115219298.085       -1674.430          44.000    21925497.983    89781259.663       -1304.586          42.000  
G06  24841209.224   130541431.542       -2613.605          36.000    24841216.196   101720648.206       -2036.597          39.000  
G12  24273247.995   127556738.403       -3568.207          36.000    24273247.461    99394901.367       -2780.686          37.000  
G11  23164755.070   121731623.239       -1770.497          43.000    23164757.744    94855814.387       -1379.398          40.000  
G20  22741006.207   119504809.113       -2945.814          47.000                                                                  
G13  21969339.751   115449660.947         977.369          44.000                                                                  
G15  23681356.713   124446367.050        2177.026          32.000    23681356.350    96971219.467        1697.214          32.000  
G25  24624057.866   129400328.938       -2412.061          41.000    24624073.225   100831468.825       -1879.517          38.000  
G29  24421717.604   128336992.890        1935.362          43.000    24421721.000   100002874.281        1508.185          34.000  
> 2025 04 04 10 35 43.0030000  0  9                     
G05  21925816.573   115220973.668       -1675.848          45.000    21925816.887    89782565.303       -1306.035          43.000  
G06  24841706.772   130544046.650       -2615.192          36.000    24841713.889   101722685.923       -2037.439          40.000  
G12  24273926.772   127560307.831       -3570.010          43.000    24273926.748    99397682.775       -2781.671          39.000  
G11  23165092.332   121733394.893       -1772.392          43.000    23165094.905    94857194.920       -1381.458          40.000  
G20  22741566.903   119507755.865       -2947.274          47.000                                                                  
G13  21969153.980   115448685.174         975.458          41.000                                                                  
G15  23680942.806   124444191.242        2177.167          32.000    23680942.267    96969524.206        1694.428          28.000  
G25  24624516.976   129402741.982       -2412.500          34.000    24624532.318   100833349.172       -1881.238          37.000  
G29  24421349.509   128335058.374        1934.280          42.000    24421352.971   100001366.895        1506.307          34.000  
> 2025 04 04 10 35 44.0030000  0  9                     
G05  21926135.131   115222647.714       -1676.571          45.000    21926135.435    89783869.789       -1306.570          43.000  
G06  24842204.689   130546666.1043      -2614.716          36.000    24842211.218   101724722.390       -2038.172          36.000  
G12  24274605.327   127563875.552       -3569.606          42.000    24274605.517    99400462.805       -2781.908          39.000  
G11  23165429.177   121735164.818       -1771.407          40.000    23165431.710    94858574.089       -1380.914          38.000  
G20  22742127.308   119510700.816       -2947.312          48.000                                                                  
G13  21968968.077   115447708.098         974.749          46.000                                                                  
G15  23680528.513   124442013.969        2174.960          38.000    23680527.760    96967827.533        1695.065          37.000  
G25  24624975.848   129405153.622       -2414.178          36.000    24624991.176   100835228.342       -1881.079          36.000  
G29  24420981.085   128333122.257        1933.671          43.000    24420984.467    99999858.168        1507.202          34.000  
> 2025 04 04 10 35 45.0030000  0  9                     
G05  21926453.754   115224322.007       -1674.068          45.000    21926453.957    89785174.418       -1304.390          43.000  
G06  24842702.972   130549279.6022      -2613.281          35.000    24842708.485   101726758.929       -2036.914          38.000  
G12  24275283.945   127567443.407       -3567.698          41.000    24275284.495    99403242.959       -2779.762          41.000  
G11  23165766.016   121736934.871       -1769.507          44.000    23165768.545    94859953.321       -1378.715          40.000  
G20  22742687.695   119513645.782       -2944.593          47.000                                                                  
G13  21968782.018   115446731.337         976.992          40.000                                                                  
G15  23680113.928   124439836.864        2177.383          38.000    23680113.523    96966131.084        1696.941          38.000  
G25  24625434.696   129407565.560       -2411.749          36.000    24625450.072   100837107.776       -1879.956          35.000  
G29  24420612.678   128331186.288        1936.483          42.000    24420616.028    99998349.658        1508.180          34.000  
> 2025 04 04 10 35 46.0030000  0  9                     
G05  21926772.095   115225995.074       -1670.835          45.000    21926772.395    89786478.110       -1302.034          43.000  
G06  24843198.125   130551891.6992      -2609.930          34.000    24843205.549   101728794.304       -2033.313          38.000  
G12  24275962.291   127571009.875       -3564.219          43.000    24275963.170    99406021.990       -2777.341          39.000  
G11  23166102.509   121738703.514       -1766.567          43.000    23166105.126    94861331.441       -1376.311          40.000  
G20  22743247.744   119516589.251       -2941.051          48.000                                                                  
G13  21968595.836   115445753.926         980.063          39.000                                                                  
G15  23679699.095   124437658.341        2180.747          37.000    23679699.004    96964433.557        1699.403          37.000  
G25  24625893.493   129409976.255       -2408.386          36.000    24625908.828   100838986.230       -1876.618          35.000  
G29  24420243.957   128329248.970        1939.637          42.000    24420247.252    99996840.045        1511.058          33.000  
> 2025 04 04 10 35 47.0030000  0  9                     
G05  21927090.301   115227667.034       -1671.658          45.000    21927090.652    89787780.941       -1302.542          42.000  
G06  24843696.001   130554502.5332      -2610.345          36.000    24843702.266   101730828.683       -2033.875          39.000  
G12  24276640.436   127574575.081       -3564.699          43.000    24276641.626    99408800.103       -2777.812          40.000  
G11  23166438.876   121740470.846       -1766.963          44.000    23166441.439    94862708.584       -1376.630          39.000  
G20  22743807.548   119519531.359       -2941.555          48.000                                                                  
G13  21968409.285   115444775.038         978.933          36.000                                                                  
G15  23679284.067   124435478.611        2179.966          38.000    23679284.226    96962735.067        1698.593          37.000  
G25  24626352.157   129412385.937       -2409.302          36.000    24626367.310   100840863.888       -1877.386          35.000  
G29  24419875.099   128327310.477        1938.820          42.000    24419878.332    99995329.524        1510.309          34.000  
> 2025 04 04 10 35 48.0030000  0  9                     
G05  21927408.374   115229338.878       -1672.005          44.000    21927408.829    89789083.689       -1303.161          43.000  
G06  24844192.987   130557113.0702      -2610.760          37.000    24844199.070   101732862.909       -2034.467          39.000  
G12  24277318.578   127578140.098       -3565.636          42.000    24277320.079    99411578.026       -2778.219          40.000  
G11  23166775.172   121742237.899       -1767.305          44.000    23166777.684    94864085.547       -1377.261          39.000  
G20  22744367.375   119522473.105       -2941.930          48.000                                                                  
G13  21968222.991   115443796.440         977.571          46.000                                                                  
G15  23678869.073   124433298.602        2179.821          32.000    23678869.330    96961036.478        1698.347          34.000  
G25  24626810.578   129414795.584       -2410.382          35.000    24626825.858   100842741.524       -1878.131          36.000  
G29  24419506.205   128325371.778        1938.145          42.000    24419509.417    99993818.923        1509.563          33.000  
> 2025 04 04 10 35 49.0030000  0  9                     
G05  21927726.717   115231011.440       -1673.157          45.000    21927727.053    89790386.977       -1303.941          43.000  
G06  24844689.535   130559724.127       -2611.102          36.000    24844695.942   101734897.507       -2034.991          38.000  
G12  24277996.803   127581705.607       -3566.058          41.000    24277998.500    99414356.350       -2778.595          39.000  
G11  23167111.571   121744005.478       -1768.001          44.000    23167114.066    94865462.868       -1377.828          40.000  
G20  22744927.229   119525415.265       -2942.539          47.000                                                                  
G13  21968036.917   115442818.700         977.171          46.000                                                                  
G15  23678454.335   124431119.380        2178.711          31.000    23678454.556    96959338.308        1698.161          34.000  
G25  24627269.293   129417205.965       -2410.907          38.000    24627284.436   100844619.681       -1878.626          37.000  
G29  24419137.342   128323433.649        1937.502          44.000    24419140.436    99992308.618        1509.775          33.000  
> 2025 04 04 10 35 50.0030000  0  9                     
G05  21928045.107   115232684.737       -1673.797          44.000    21928045.508    89791690.847       -1303.983          43.000  
G06  24845185.938   130562335.860       -2612.628          35.000    24845192.892   101736932.596       -2035.455          38.000  
G12  24278675.117   127585271.753       -3566.295          40.000    24278677.060    99417135.158       -2779.197          39.000  
G11  23167448.031   121745773.618       -1768.453          44.000    23167450.534    94866840.639       -1377.764          40.000  
G20  22745487.144   119528357.940       -2942.959          47.000                                                                  
G13  21967850.989   115441841.893         976.429          46.000                                                                  
G15  23678039.950   124428940.726        2178.650          30.000    23678039.992    96957640.695        1697.340          35.000  
G25  24627727.973   129419617.095       -2411.511          38.000    24627743.126   100846498.518       -1879.352          37.000  
G29  24418768.673   128321496.195        1936.910          42.000    24418771.719    99990798.947        1509.612          33.000  
> 2025 04 04 10 35 51.0030000  0 10                     
G05  21928363.671   115234358.903       -1674.703          44.000    21928363.991    89792995.376       -1304.915          43.000  
G06  24845683.081   130564948.183       -2612.500          36.000    24845690.059   101738968.190       -2035.718          39.000  
G12  24279353.712   127588838.633       -3567.485          40.000    24279355.715    99419914.532       -2779.321          38.000  
G11  23167784.659   121747542.473       -1769.234          44.000    23167787.027    94868218.973       -1378.410          40.000  
G19  25294993.084                       -5278.489          22.000                                                                  
G20  22746047.328   119531301.221       -2943.574          48.000                                                                  
G13  21967665.355   115440866.135         975.152          46.000                                                                  
G15  23677625.952   124426762.919        2177.193          35.000    23677625.725    96955943.646        1696.812          35.000  
G25  24628187.003   129422029.159       -2412.329          38.000    24628202.086   100848378.072       -1880.151          37.000  
G29  24418400.130   128319559.497        1936.094          42.000    24418403.149    99989289.819        1508.406          34.000  
> 2025 04 04 10 35 52.0030000  0  9                     
G05  21928682.430   115236033.921       -1675.507          44.000    21928682.818    89794300.608       -1305.533          43.000  
G06  24846180.316   130567561.255       -2613.831          35.000    24846187.384   101741004.354       -2036.273          39.000  
G12  24280032.322   127592406.248       -3567.961          40.000    24280034.616    99422694.445       -2779.996          37.000  
G11  23168121.346   121749311.998       -1769.895          42.000    23168123.683    94869597.824       -1379.379          38.000  
G20  22746607.542   119534245.123       -2944.222          48.000                                                                  
G13  21967479.905   115439891.403         974.217          46.000                                                                  
G15  23677211.853   124424585.827        2176.565          36.000    23677211.522    96954247.238        1696.187          36.000  
G25  24628646.089   129424442.150       -2413.562          37.000    24628661.161   100850258.341       -1881.329          36.000  
G29  24418031.803   128317623.543        1935.629          42.000    24418034.764    99987781.288        1508.355          34.000  
> 2025 04 04 10 35 53.0030000  0  9                     
G05  21929001.334   115237709.622       -1674.831          46.000    21929001.655    89795606.338       -1304.860          42.000  
G06  24846677.492   130570174.797       -2612.946          36.000    24846684.803   101743040.903       -2035.760          39.000  
G12  24280710.953   127595974.334       -3567.129          41.000    24280713.612    99425474.824       -2779.712          38.000  
G11  23168458.204   121751082.024       -1769.115          43.000    23168460.434    94870977.047       -1378.726          38.000  
G20  22747167.870   119537189.425       -2943.294          47.000                                                                  
G13  21967294.547   115438917.512         974.744          45.000                                                                  
G15  23676797.505   124422409.365        2177.336          37.000    23676797.300    96952551.271        1696.647          36.000  
G25  24629105.387   129426855.861       -2412.939          40.000    24629120.401   100852139.132       -1880.243          36.000  
G29  24417663.456   128315688.202        1936.106          43.000    24417666.491    99986273.236        1508.638          35.000  
> 2025 04 04 10 35 54.0030000  0  9                     
G05  21929320.435   115239386.107       -1676.253          45.000    21929320.701    89796912.712       -1306.063          42.000  
G06  24847174.792   130572788.998       -2613.568          35.000    24847182.266   101745077.935       -2036.670          39.000  
G12  24281389.891   127599543.147       -3568.636          41.000    24281392.654    99428255.685       -2780.728          39.000  
G11  23168795.174   121752852.671       -1770.547          43.000    23168797.371    94872356.774       -1379.656          37.000  
G20  22747728.183   119540134.249       -2944.449          47.000                                                                  
G13  21967109.446   115437944.594         972.926          45.000                                                                  
G15  23676383.328   124420233.555        2176.073          38.000    23676383.291    96950855.826        1695.685          36.000  
G25  24629564.787   129429270.408       -2414.624          39.000    24629579.888   100854020.586       -1881.592          37.000  
G29  24417295.282   128313753.535        1934.917          42.000    24417298.369    99984765.680        1507.730          35.000  
> 2025 04 04 10 35 55.0030000  0 10                     
G05  21929639.622   115241063.746       -1681.464          46.000    21929640.004    89798219.957       -1310.153          42.000  
G06  24847672.228   130575404.112       -2617.438          36.000    24847679.983   101747115.715       -2040.039          39.000  
G12  24282068.886   127603112.834       -3572.406          42.000    24282072.049    99431037.294       -2783.760          39.000  
G11  23169132.358   121754624.274       -1774.974          44.000    23169134.438    94873737.186       -1382.448          38.000  
G19  25299022.768                       -5289.570          21.000                                                                  
G20  22748288.728   119543079.945       -2949.065          48.000                                                                  
G13  21966924.610   115436972.961         968.042          45.000                                                                  
G15  23675969.462   124418058.805        2171.626          37.000    23675969.423    96949161.211        1692.012          36.000  
G25  24630024.429   129431686.067       -2418.561          39.000    24630039.567   100855902.909       -1883.990          36.000  
G29  24416927.320   128311819.849        1931.422          41.000    24416930.463    99983258.939        1504.470          35.000  
> 2025 04 04 10 35 56.0030000  0  9                     
G05  21929958.328   115242738.497       -1673.843          44.000    21929958.685    89799524.964       -1304.695          42.000  
G06  24848169.139   130578016.362       -2611.804          34.000    24848177.060   101749151.148       -2034.998          39.000  
G12  24282747.476   127606679.662       -3566.256          41.000    24282750.752    99433816.669       -2778.899          39.000  
G11  23169468.866   121756392.891       -1768.038          43.000    23169471.114    94875115.380       -1377.893          40.000  
G20  22748848.791   119546022.547       -2941.982          48.000                                                                  
G13  21966739.312   115435998.696         974.415          41.000                                                                  
G15  23675555.128   124415881.226        2178.158          33.000    23675555.069    96947464.478        1697.067          31.000  
G25  24630483.486   129434099.016       -2412.469          39.000    24630498.833   100857783.092       -1879.132          37.000  
G29  24416558.721   128309883.341        1937.158          43.000    24416561.865    99981749.967        1509.326          34.000  
> 2025 04 04 10 35 57.0030000  0 10                     
G05  21930277.183   115244413.336       -1675.081          44.000    21930277.429    89800830.037       -1305.208          43.000  
G06  24848665.910   130580628.345       -2612.115          37.000    24848674.042   101751186.572       -2035.852          39.000  
G12  24283426.054   127610246.400       -3567.229          42.000    24283429.348    99436595.904       -2779.235          38.000  
G11  23169805.391   121758161.336       -1768.459          43.000    23169807.671    94876493.417       -1378.163          40.000  
G19  25300310.139                       -5279.405          21.000                                                                  
G20  22749408.698   119548964.969       -2942.711          47.000                                                                  
G13  21966554.002   115435024.681         973.489          43.000                                                                  
G15  23675140.766   124413703.527        2177.476          39.000    23675140.731    96945767.535        1696.833          33.000  
G25  24630942.689   129436512.092       -2413.013          37.000    24630958.107   100859663.423       -1880.585          36.000  
G29  24416190.290   128307946.766        1936.137          43.000    24416193.511    99980240.908        1508.996          35.000  
> 2025 04 04 10 35 58.0030000  0  9                     
G05  21930595.982   115246058.7813      -1669.865          44.000    21930596.424    89802136.340       -1300.486          43.000  
G06  24849163.230                       -2610.515          30.000    24849171.413   101753223.100       -2030.420          35.000  
G12  24284104.868   127613831.6043      -3562.952          37.000    24284108.244    99439376.308       -2775.029          37.000  
G11  23170142.162   121759918.2963      -1764.103          44.000    23170144.530    94877872.561       -1373.625          40.000  
G20  22749968.922   119551908.719       -2936.057          47.000                                                                  
G13  21966368.993   115434047.9283        978.450          43.000                                                                  
G15  23674726.537   124411527.256        2184.504          37.000    23674726.604    96944071.789        1700.848          34.000  
G25  24631402.245   129438926.822       -2407.373          39.000    24631417.557   100861544.987       -1875.720          39.000  
G29  24415822.121   128306011.666        1942.526          43.000    24415825.369    99978733.080        1513.235          38.000  
> 2025 04 04 10 35 59.0030000  0 10                     
G05  21930914.565   115247733.1822      -1672.085          45.000    21930915.105    89803441.088       -1303.006          43.000  
G06  24849659.108   130585839.3463      -2611.450          34.000    24849668.402   101755257.806       -2032.983          40.000  
G12  24284783.376   127617397.6052      -3564.094          41.000    24284786.854    99442155.039       -2777.533          38.000  
G11  23170478.456   121761686.0032      -1766.618          42.000    23170481.067    94879250.021       -1375.970          40.000  
G19  25302361.722                       -5219.875          21.000                                                                  
G20  22750528.722   119554834.6903      -2939.127          47.000                                                                  
G13  21966183.699   115433073.7602        976.308          43.000                                                                  
G15  23674312.050   124409349.4993       2180.405          34.000    23674312.175    96942374.394        1699.063          35.000  
G25  24631861.390   129441305.0163      -2411.322          37.000    24631876.608   100863425.004       -1878.448          36.000  
G29  24415453.381   128304073.4213       1939.920          42.000    24415456.831    99977223.530        1511.198          38.000  
> 2025 04 04 10 36 00.0030000  0  9                     
G05  21931233.095   115249406.9102      -1673.673          44.000    21931233.672    89804745.314       -1304.103          43.000  
G06  24850154.695   130588444.2683      -2610.468          34.000    24850165.211   101757291.928       -2033.630          39.000  
G12  24285461.821   127620962.7722      -3565.411          43.000    24285465.417    99444933.076       -2778.115          40.000  
G11  23170814.674   121763452.8052      -1766.724          43.000    23170817.255    94880626.752       -1376.631          40.000  
G20  22751088.281   119557775.1942      -2940.291          48.000                                                                  
G13  21965998.309   115432099.1612        974.766          43.000                                                                  
G15  23673897.408   124407170.4272       2179.193          37.000    23673897.585    96940676.426        1698.611          34.000  
G25  24632320.369   129443717.0052      -2412.280          35.000    24632335.599   100865304.514       -1879.352          36.000  
G29  24415084.582   128302135.3872       1937.912          43.000    24415087.981    99975713.368        1510.182          34.000  
> 2025 04 04 10 36 01.0030000  0  9                     
G05  21931551.398   115251079.369       -1672.850          44.000    21931551.876    89806048.527       -1303.297          43.000  
G06  24850649.035   130591052.7211      -2609.589          33.000    24850661.730   101759324.944       -2033.069          40.000  
G12  24286139.868   127624526.522       -3563.797          43.000    24286143.594    99447710.047       -2777.010          40.000  
G11  23171150.586   121765218.210       -1765.741          43.000    23171153.229    94882002.401       -1376.151          40.000  
G20  22751647.572   119560713.6771      -2939.050          48.000                                                                  
G13  21965812.607   115431122.9051        975.354          43.000                                                                  
G15  23673482.550   124404989.4841       2180.355          39.000    23673482.755    96938977.426        1698.852          34.000  
G25  24632779.090   129446127.2961      -2411.700          36.000    24632794.263   100867183.087       -1879.156          36.000  
G29  24414715.568   128300195.995        1938.821          42.000    24414718.918    99974202.201        1510.790          34.000  
> 2025 04 04 10 36 02.0030000  0  9                     
G05  21931869.705   115252751.908       -1671.669          44.000    21931870.097    89807351.814       -1302.545          43.000  
G06  24851147.339   130593661.616       -2607.141          33.000    24851158.267   101761357.849       -2032.202          40.000  
G12  24286817.852   127628090.245       -3562.551          42.000    24286821.733    99450486.955       -2775.795          39.000  
G11  23171486.510   121766983.520       -1764.286          43.000    23171489.143    94883377.932       -1374.428          40.000  
G20  22752206.719   119563652.485       -2937.531          48.000                                                                  
G13  21965626.924   115430147.423         976.295          43.000                                                                  
G15  23673067.533   124402809.015        2181.481          38.000    23673067.891    96937278.377        1699.904          35.000  
G25  24633237.872   129448538.263       -2409.698          35.000    24633252.987   100869061.749       -1877.954          36.000  
G29  24414346.533   128298256.601        1940.543          42.000    24414349.840    99972690.979        1512.008          34.000  
> 2025 04 04 10 36 03.0030000  0  9                     
G05  21932187.820   115254423.907       -1672.020          44.000    21932188.193    89808654.665       -1302.830          43.000  
G06  24851643.282   130596269.850       -2608.441          33.000    24851654.621   101763390.225       -2032.337          40.000  
G12  24287495.723   127631653.260       -3562.766          42.000    24287499.785    99453263.372       -2776.749          40.000  
G11  23171822.297   121768748.098       -1764.718          43.000    23171824.985    94884752.956       -1375.095          40.000  
G20  22752765.834   119566590.495       -2937.998          48.000                                                                  
G13  21965441.255   115429171.598         975.332          42.000                                                                  
G15  23672652.405   124400627.928        2181.279          38.000    23672652.979    96935578.833        1699.639          35.000  
G25  24633696.582   129450948.764       -2410.632          35.000    24633711.742   100870940.047       -1878.351          36.000  
G29  24413977.416   128296316.571        1939.924          42.000    24413980.672    99971179.286        1511.295          34.000  
> 2025 04 04 10 36 04.0030000  0  9                     
G05  21932506.132   115256096.553       -1673.536          44.000    21932506.478    89809958.039       -1303.944          43.000  
G06  24852139.310   130598878.617       -2609.644          32.000    24852151.023   101765423.019       -2033.386          40.000  
G12  24288173.738   127635216.853       -3564.213          42.000    24288178.004    99456040.188       -2777.316          40.000  
G11  23172158.156   121770513.213       -1765.650          43.000    23172160.944    94886128.353       -1375.903          40.000  
G20  22753325.012   119569528.911       -2938.979          47.000                                                                  
G13  21965255.759   115428196.599         974.029          43.000                                                                  
G15  23672237.403   124398447.459        2180.310          37.000    23672238.067    96933879.709        1698.311          34.000  
G25  24634155.488   129453359.948       -2412.024          36.000    24634170.634   100872818.913       -1879.456          36.000  
G29  24413608.304   128294377.044        1939.059          42.000    24413611.686    99969668.017        1510.482          34.000  
> 2025 04 04 10 36 05.0030000  0  9                     
G05  21932824.690   115257770.628       -1671.631          44.000    21932825.172    89811262.502       -1302.473          42.000  
G06  24852636.809   130601488.571       -2607.263          33.000    24852647.706   101767456.773       -2031.744          39.000  
G12  24288852.049   127638781.639       -3562.691          39.000    24288856.299    99458817.943       -2776.016          37.000  
G11  23172494.341   121772279.518       -1763.462          42.000    23172496.954    94887504.715       -1374.548          40.000  
G20  22753884.322   119572468.562       -2937.068          42.000                                                                  
G13  21965070.565   115427223.163         975.819          44.000                                                                  
G15  23671822.699   124396268.341        2180.439          32.000    23671823.397    96932181.656        1699.712          34.000  
G25  24634614.531   129455772.603       -2409.979          40.000    24634629.739   100874698.875       -1877.747          37.000  
G29  24413239.489   128292438.918        1940.536          38.000    24413242.794    99968157.789        1512.139          34.000  
> 2025 04 04 10 36 06.0030000  0  9                     
G05  21933143.186   115259444.195       -1674.254          45.000    21933143.594    89812566.574       -1304.560          43.000  
G06  24853133.865   130604097.935       -2610.126          33.000    24853144.170   101769489.967       -2033.386          40.000  
G12  24289530.170   127642345.793       -3564.594          40.000    24289534.581    99461595.218       -2777.673          37.000  
G11  23172830.262   121774045.014       -1765.877          38.000    23172833.024    94888880.431       -1376.568          36.000  
G20  22754443.458   119575407.221       -2939.372          45.000                                                                  
G13  21964885.208   115426249.369         973.558          43.000                                                                  
G15  23671407.639   124394088.479        2179.966          32.000    23671408.684    96930483.196        1697.021          30.000  
G25  24635073.617   129458184.772       -2412.616          39.000    24635088.739   100876578.463       -1879.700          37.000  
G29  24412870.552   128290500.277        1938.510          35.000    24412873.750    99966647.041        1510.749          32.000  
> 2025 04 04 10 36 07.0030000  0  9                     
G05  21933461.895   115261118.543       -1674.245          45.000    21933462.200    89813871.268       -1304.683          43.000  
G06  24853630.339   130606707.936       -2608.862          30.000    24853640.923   101771523.750       -2033.527          36.000  
G12  24290208.510   127645910.668       -3565.083          40.000    24290213.047    99464373.022       -2777.380          38.000  
G11  23173166.481   121775811.341       -1766.650          44.000    23173169.153    94890256.764       -1376.367          41.000  
G20  22755002.783   119578346.628       -2939.422          48.000                                                                  
G13  21964700.120   115425276.693         972.190          41.000                                                                  
G15  23670992.917   124391909.420        2178.497          35.000    23670994.374    96928785.181        1698.849          35.000  
G25  24635532.735   129460597.804       -2412.756          40.000    24635547.897   100878458.737       -1879.669          37.000  
G29  24412501.800   128288562.157        1938.060          38.000    24412504.935    99965136.853        1510.754          35.000  
> 2025 04 04 10 36 08.0030000  0  9                     
G05  21933780.297   115262791.959       -1673.383          45.000    21933780.694    89815175.213       -1303.599          43.000  
G06  24854126.830   130609316.530       -2608.649          34.000    24854137.428   101773556.555       -2033.301          39.000  
G12  24290886.550   127649474.389       -3563.624          40.000    24290891.219    99467149.981       -2777.097          38.000  
G11  23173502.328   121777576.474       -1764.947          44.000    23173505.118    94891632.205       -1374.619          42.000  
G20  22755561.928   119581284.750       -2937.962          48.000                                                                  
G13  21964514.919   115424303.139         972.294          38.000                                                                  
G15  23670577.873   124389729.304        2180.795          35.000    23670579.704    96927086.422        1699.151          31.000  
G25  24635991.678   129463009.950       -2412.604          40.000    24636006.974   100880338.357       -1879.590          37.000  
G29  24412132.813   128286623.076        1938.301          38.000    24412135.936    99963625.875        1511.083          34.000  
> 2025 04 04 10 36 09.0030000  0  9                     
G05  21934098.683   115264465.311       -1673.114          45.000    21934099.093    89816479.165       -1304.005          43.000  
G06  24854623.403   130611927.4863      -2608.881          30.000    24854633.893   101775589.210       -2030.847          34.000  
G12  24291564.613   127653037.975       -3563.426          40.000    24291569.344    99469926.772       -2776.352          38.000  
G11  23173838.169   121779341.448       -1763.896          43.000    23173841.100    94893007.518       -1374.706          41.000  
G20  22756120.981   119584222.634       -2937.899          47.000                                                                  
G13  21964329.815   115423329.664         975.242          42.000                                                                  
G15  23670162.972   124387549.105        2180.592          35.000    23670165.076    96925387.567        1699.037          32.000  
G25  24636450.567   129465422.068       -2413.477          41.000    24636465.968   100882217.937       -1879.895          39.000  
G29  24411763.815   128284683.821        1938.514          40.000    24411766.836    99962114.908        1509.669          34.000  
> 2025 04 04 10 36 10.0030000  0  9                     
G05  21934417.259   115266138.830       -1673.665          44.000    21934417.571    89817783.192       -1304.288          43.000  
G06  24855121.022                       -2608.069          33.000    24855130.318   101777621.862       -2032.031          39.000  
G12  24292242.634   127656601.556       -3563.682          40.000    24292247.439    99472703.583       -2777.168          39.000  
G11  23174174.118   121781106.363       -1765.453          44.000    23174176.951    94894382.738       -1375.125          40.000  
G20  22756680.017   119587160.332       -2937.483          47.000                                                                  
G13  21964144.632   115422356.613         973.492          44.000                                                                  
G15  23669748.080   124385368.863        2179.949          35.000    23669750.377    96923688.721        1698.667          33.000  
G25  24636909.487   129467834.361       -2412.079          39.000    24636924.907   100884097.651       -1879.767          37.000  
G29  24411394.788   128282744.638        1938.590          39.000    24411397.823    99960603.776        1511.180          33.000  
> 2025 04 04 10 36 11.0030000  0 10                     
G05  21934735.695   115267812.403       -1673.800          44.000    21934736.119    89819087.277       -1304.145          43.000  
G06  24855615.262   130617150.8863      -2609.064          33.000    24855626.676   101779654.460       -2032.288          39.000  
G12  24292920.658   127660165.054       -3563.532          40.000    24292925.513    99475480.369       -2777.259          38.000  
G11  23174509.966   121782871.160       -1764.953          44.000    23174512.738    94895757.900       -1375.374          40.000  
G19  25313830.683                       -5295.430          24.000                                                                  
G20  22757239.054   119590097.885       -2937.569          47.000                                                                  
G13  21963959.649   115421383.810         972.219          44.000                                                                  
G15  23669333.190   124383188.682        2180.193          36.000    23669335.711    96921989.885        1698.514          33.000  
G25  24637368.623   129470246.834       -2412.555          40.000    24637383.960   100885977.471       -1879.449          37.000  
G29  24411025.806   128280805.413        1939.135          38.000    24411028.808    99959092.718        1510.984          32.000  
> 2025 04 04 10 36 12.0030000  0  9                     
G05  21935054.253   115269486.359       -1674.600          44.000    21935054.654    89820391.655       -1304.625          43.000  
G06  24856111.152   130619759.5602      -2610.034          32.000    24856123.105   101781687.239       -2033.270          39.000  
G12  24293598.760   127663728.786       -3564.138          39.000    24293603.600    99478257.300       -2777.334          38.000  
G11  23174845.926   121784636.151       -1765.540          44.000    23174848.680    94897133.217       -1375.422          40.000  
G20  22757797.959   119593035.530       -2938.099          47.000                                                                  
G13  21963774.697   115420411.510         971.667          45.000                                                                  
G15  23668918.341   124381008.768        2179.347          37.000    23668921.051    96920291.257        1697.710          33.000  
G25  24637827.803   129472659.670       -2413.318          40.000    24637843.157   100887857.642       -1880.731          37.000  
G29  24410656.849   128278866.485        1938.408          38.000    24410659.652    99957581.845        1510.774          33.000  
> 2025 04 04 10 36 13.0030000  0  9                     
G05  21935372.982   115271161.305       -1675.315          44.000    21935373.347    89821696.818       -1305.371          43.000  
G06  24856607.260   130622368.6401      -2610.492          31.000    24856619.676   101783720.664       -2034.235          39.000  
G12  24294277.090   127667293.427       -3565.232          39.000    24294282.020    99481034.919       -2777.894          38.000  
G11  23175181.935   121786401.991       -1766.363          44.000    23175184.704    94898509.192       -1376.196          40.000  
G20  22758357.055   119595973.904       -2938.715          47.000                                                                  
G13  21963589.973   115419440.389         970.558          45.000                                                                  
G15  23668503.700   124378829.791        2178.772          36.000    23668506.531    96918593.315        1697.808          33.000  
G25  24638287.166   129475073.591       -2414.337          40.000    24638302.513   100889738.600       -1881.165          37.000  
G29  24410288.006   128276928.430        1937.754          38.000    24410290.797    99956071.705        1509.587          33.000  
> 2025 04 04 10 36 14.0030000  0  9                     
G05  21935691.909   115272837.108       -1676.502          44.000    21935692.257    89823002.655       -1306.247          43.000  
G06  24857102.979   130624978.746       -2610.638          37.000    24857116.381   101785754.626       -2035.205          35.000  
G12  24294955.481   127670858.764       -3566.327          38.000    24294960.529    99483813.118       -2779.010          38.000  
G11  23175518.101   121788168.483       -1766.973          43.000    23175520.916    94899885.681       -1377.007          40.000  
G20  22758916.319   119598912.912       -2939.408          47.000                                                                  
G13  21963405.505   115418470.328         969.320          45.000                                                                  
G15  23668089.231   124376651.573        2177.780          36.000    23668092.089    96916896.045        1696.437          33.000  
G25  24638746.712   129477488.401       -2415.417          40.000    24638762.060   100891620.288       -1882.227          37.000  
G29  24409919.387   128274991.193        1936.638          38.000    24409922.124    99954562.180        1508.443          33.000  
> 2025 04 04 10 36 15.0030000  0  9                     
G05  21936010.980   115274514.125       -1677.254          44.000    21936011.367    89824309.413       -1306.924          43.000  
G06  24857600.514                       -2612.225          35.000    24857613.400   101787789.360       -2035.352          39.000  
G12  24295634.104   127674425.159       -3566.647          38.000    24295639.154    99486592.137       -2779.558          37.000  
G11  23175854.369   121789936.045       -1767.522          43.000    23175857.272    94901263.012       -1377.577          41.000  
G20  22759475.820   119601852.853       -2939.955          46.000                                                                  
G13  21963221.222   115417501.645         968.732          46.000                                                                  
G15  23667674.983   124374474.516        2176.550          36.000    23667677.853    96915199.582        1696.208          33.000  
G25  24639206.547   129479904.495       -2416.650          40.000    24639221.845   100893502.938       -1882.672          37.000  
G29  24409550.945   128273055.045        1935.469          38.000    24409553.661    99953053.488        1508.469          33.000  
> 2025 04 04 10 36 16.0030000  0  9                     
G05  21936330.279   115276192.078       -1677.525          44.000    21936330.646    89825616.916       -1307.053          43.000  
G06  24858095.850   130630183.7373      -2611.646          30.000    24858110.495   101789824.747       -2034.583          39.000  
G12  24296312.965   127677992.393       -3566.729          39.000    24296318.007    99489371.793       -2779.235          38.000  
G11  23176190.817   121791704.412       -1767.866          44.000    23176193.873    94902640.953       -1377.860          41.000  
G20  22760035.431   119604793.506       -2940.161          47.000                                                                  
G13  21963037.171   115416534.112         968.153          45.000                                                                  
G15  23667260.770   124372298.297        2176.515          36.000    23667263.769    96913503.876        1695.026          33.000  
G25  24639666.459   129482321.538       -2416.693          40.000    24639681.776   100895386.365       -1883.344          37.000  
G29  24409182.696   128271119.802        1935.929          38.000    24409185.388    99951545.529        1507.500          33.000  
> 2025 04 04 10 36 17.0030000  0 10                     
G05  21936649.682   115277870.394       -1676.607          44.000    21936650.118    89826924.698       -1306.710          43.000  
G06  24858592.000   130632795.9832      -2610.059          29.000    24858607.538   101791860.280       -2034.332          39.000  
G12  24296991.774   127681559.793       -3565.781          41.000    24296996.840    99492151.556       -2778.208          38.000  
G11  23176527.369   121793472.901       -1767.103          44.000    23176530.394    94904018.982       -1376.849          40.000  
G19  25319547.324                       -5294.047          16.000                                                                  
G20  22760595.098   119607734.229       -2939.105          47.000                                                                  
G13  21962853.334   115415567.113         968.461          45.000                                                                  
G15  23666846.664   124370122.261        2177.450          36.000    23666849.717    96911808.255        1696.703          32.000  
G25  24640126.547   129484738.982       -2415.869          40.000    24640141.875   100897270.093       -1882.477          35.000  
G29  24408814.502   128269184.760        1936.300          38.000    24408817.147    99950037.684        1508.490          32.000  
> 2025 04 04 10 36 18.0030000  0  9                     
G05  21936968.974   115279548.559       -1677.786          44.000    21936969.413    89828232.371       -1307.559          43.000  
G06  24859086.145                       -2611.713          19.000    24859104.598   101793895.551       -2034.839          40.000  
G12  24297670.287   127685126.729       -3566.056          27.000    24297675.536    99494931.093       -2779.047          32.000  
G11  23176863.879   121795241.066       -1767.684          44.000    23176866.974    94905396.800       -1377.545          40.000  
G20  22761154.787   119610674.539       -2939.818          47.000                                                                  
G13  21962669.417   115414600.146         967.310          44.000                                                                  
G15  23666432.650   124367945.947        2176.621          35.000    23666435.651    96910112.543        1694.890          32.000  
G25  24640586.536   129487156.398       -2416.821          42.000    24640601.935   100899153.784       -1883.118          38.000  
G29  24408446.303   128267249.496        1935.595          38.000    24408448.945    99948529.667        1508.170          34.000  
> 2025 04 04 10 36 19.0030000  0  9                     
G05  21937288.435   115281226.506       -1678.083          44.000    21937288.748    89829539.856       -1307.466          43.000  
G06  24859573.134                       -2610.121          21.000    24859601.582   101795930.526       -2034.821          39.000  
G12  24298350.254                       -3578.148          24.000    24298354.240    99497710.441       -2779.574          31.000  
G11  23177200.276   121797008.870       -1767.861          43.000    23177203.246    94906774.295       -1377.615          40.000  
G20  22761714.101   119613614.374       -2939.710          47.000                                                                  
G13  21962485.443   115413633.112         967.043          45.000                                                                  
G15  23666018.520   124365769.440        2176.719          36.000    23666021.555    96908416.502        1696.481          34.000  
G25  24641046.492   129489573.589       -2417.303          41.000    24641061.977   100901037.294       -1883.307          39.000  
G29  24408078.010   128265313.880        1935.631          38.000    24408080.697    99947021.406        1508.683          34.000  
> 2025 04 04 10 36 20.0030000  0  9                     
G05  21937607.809   115282904.801       -1678.605          44.000    21937608.103    89830847.618       -1308.001          43.000  
G12  24299029.072                       -3567.432          36.000    24299032.852    99500489.998       -2779.397          32.000  
G11  23177536.758   121798776.828       -1768.333          43.000    23177539.640    94908151.894       -1377.278          40.000  
G20  22762273.603   119616554.292       -2940.265          47.000                                                                  
G13  21962301.596   115412666.601         965.960          45.000                                                                  
G15  23665604.515   124363593.212        2175.766          37.000    23665607.473    96906720.689        1695.352          36.000  
G25  24641506.452   129491991.144       -2417.810          41.000    24641521.962   100902921.110       -1884.314          36.000  
G29  24407709.742   128263378.522        1935.288          39.000    24407712.460    99945513.369        1508.077          33.000  
G06                                                                  24860098.566   101797965.650       -2035.492          39.000  
> 2025 04 04 10 36 21.0030000  0  9                     
G05  21937927.300   115284583.584       -1680.493          44.000    21937927.590    89832155.753       -1309.467          43.000  
G12  24299705.174   127695812.0583      -3568.391          36.000    24299711.688    99503269.642       -2780.684          34.000  
G11  23177873.318   121800545.091       -1770.051          44.000    23177876.137    94909529.779       -1379.046          40.000  
G20  22762833.122   119619494.428       -2941.413          47.000                                                                  
G13  21962117.896   115411700.755         964.185          45.000                                                                  
G15  23665190.443   124361417.293        2174.380          37.000    23665193.448    96905025.203        1693.829          36.000  
G25  24641966.559   129494409.250       -2419.910          41.000    24641982.037   100904805.325       -1885.376          37.000  
G29  24407341.467   128261443.581        1933.055          39.000    24407344.090    99944005.633        1506.073          33.000  
G06                                                                  24860595.618   101800001.007       -2036.285          40.000  
> 2025 04 04 10 36 22.0030000  0 10                     
G05  21938246.934   115286262.762       -1679.292          44.000    21938247.069    89833464.227       -1308.694          43.000  
G06  24861063.390                       -2611.246          21.000    24861092.700   101802036.556       -2035.559          40.000  
G12  24300381.264   127699364.5683      -3567.607          37.000    24300390.550    99506049.546       -2780.176          37.000  
G11  23178209.804   121802313.591       -1768.688          44.000    23178212.608    94910907.809       -1377.961          40.000  
G20  22763392.642   119622434.729       -2940.440          47.000                                                                  
G13  21961934.307   115410735.503         965.104          45.000                                                                  
G30  26597669.195                        -298.828          21.000                                                                  
G15  23664776.511   124359241.704        2175.130          36.000    23664779.500    96903329.994        1695.132          35.000  
G25  24642426.811   129496827.783       -2418.939          40.000    24642442.221   100906689.912       -1884.857          36.000  
G29  24406973.387   128259508.950        1934.349          39.000    24406975.944    99942498.108        1507.201          33.000  
> 2025 04 04 10 36 23.0030000  0  9                     
G05  21938566.571   115287942.281       -1679.494          44.000    21938566.623    89834772.934       -1308.430          43.000  
G06  24861556.126                       -2611.116          21.000    24861589.820   101804072.296       -2036.096          40.000  
G12  24301059.371   127702928.3423      -3567.996          37.000    24301069.472    99508829.627       -2780.110          38.000  
G11  23178546.395   121804082.246       -1768.718          44.000    23178549.157    94912286.011       -1378.594          40.000  
G20  22763952.161   119625375.095       -2940.416          47.000                                                                  
G13  21961750.707   115409770.774         964.597          46.000                                                                  
G15  23664362.489   124357066.470        2175.168          38.000    23664365.544    96901634.993        1694.859          38.000  
G25  24642887.179   129499246.736       -2419.269          40.000    24642902.543   100908574.829       -1885.498          36.000  
G29  24406605.331   128257574.561        1934.536          39.000    24406607.776    99940990.808        1506.679          33.000  
> 2025 04 04 10 36 24.0030000  0  9                     
G05  21938886.239   115289622.192       -1680.410          44.000    21938886.231    89836081.962       -1309.418          43.000  
G06  24862051.524                       -2614.338          20.000    24862087.040   101806108.156       -2036.243          40.000  
G12  24301739.132   127706500.3582      -3568.404          36.000    24301748.448    99511609.891       -2780.545          38.000  
G11  23178882.976   121805851.140       -1769.346          44.000    23178885.652    94913664.370       -1379.074          39.000  
G20  22764511.667   119628315.594       -2940.642          47.000                                                                  
G13  21961567.268   115408806.578         963.637          46.000                                                                  
G15  23663948.665   124354891.512        2174.746          38.000    23663951.618    96899940.225        1694.386          37.000  
G25  24643347.532   129501666.078       -2419.568          40.000    24643362.990   100910460.032       -1885.803          37.000  
G29  24406237.285   128255640.470        1933.757          39.000    24406239.562    99939483.717        1507.124          33.000  
> 2025 04 04 10 36 25.0030000  0 10                     
G05  21939206.069   115291302.655       -1680.736          44.000    21939206.021    89837391.406       -1309.450          43.000  
G06  24862549.030                       -2609.535          19.000    24862584.269   101808144.320       -2036.224          40.000  
G12  24302418.277   127710069.7652      -3568.599          36.000    24302427.552    99514390.471       -2780.751          38.000  
G11  23179219.720   121807620.413       -1769.475          44.000    23179222.309    94915043.024       -1378.956          39.000  
G20  22765071.282   119631256.406       -2940.980          47.000                                                                  
G13  21961384.020   115407843.118         963.211          46.000                                                                  
G30  26597830.141                        -278.809          18.000                                                                  
G15  23663534.849   124352716.982        2174.697          37.000    23663537.818    96898245.794        1694.224          37.000  
G25  24643808.049   129504086.053       -2420.093          40.000    24643823.484   100912345.717       -1885.584          36.000  
G29  24405869.282   128253706.821        1933.616          39.000    24405871.431    99937977.001        1506.815          33.000  
> 2025 04 04 10 36 26.0030000  0 10                     
G05  21939525.792   115292983.480       -1680.873          44.000    21939525.752    89838701.152       -1309.610          43.000  
G06  24863046.576                       -2609.150          20.000    24863081.538   101810180.643       -2035.999          40.000  
G12  24303097.209   127713638.3632      -3568.519          36.000    24303106.706    99517171.227       -2780.615          38.000  
G11  23179556.352   121809389.847       -1769.137          44.000    23179558.933    94916421.796       -1378.748          40.000  
G20  22765630.836   119634197.304       -2940.704          47.000                                                                  
G13  21961200.765   115406880.204         962.825          45.000                                                                  
G30  26596692.427                        -313.502          20.000                                                                  
G15  23663121.081   124350542.756        2174.435          38.000    23663123.872    96896551.605        1693.974          37.000  
G25  24644268.580   129506506.438       -2420.044          40.000    24644284.032   100914231.739       -1886.084          36.000  
G29  24405501.379   128251773.471        1933.527          39.000    24405503.539    99936470.451        1507.222          33.000  
> 2025 04 04 10 36 27.0030000  0  9                     
G05  21939845.721   115294665.003       -1681.495          44.000    21939845.683    89840011.457       -1310.521          43.000  
G06  24863542.962                       -2612.396          19.000    24863578.989   101812217.435       -2037.030          40.000  
G12  24303777.408   127717207.6112      -3569.660          37.000    24303785.955    99519952.452       -2781.280          39.000  
G11  23179893.269   121811159.871       -1770.036          44.000    23179895.722    94917801.040       -1379.667          39.000  
G20  22766190.561   119637138.681       -2941.544          47.000                                                                  
G13  21961017.628   115405918.195         961.865          45.000                                                                  
G15  23662707.341   124348369.155        2173.398          38.000    23662710.090    96894857.893        1693.294          36.000  
G25  24644729.367   129508927.611       -2421.619          40.000    24644744.680   100916118.339       -1886.890          36.000  
G29  24405133.567   128249840.764        1932.324          38.000    24405135.676    99934964.482        1505.923          33.000  
> 2025 04 04 10 36 28.0030000  0 10                     
G05  21940165.723   115296346.882       -1680.424          44.000    21940165.837    89841321.984       -1309.384          43.000  
G12  24304457.054   127720777.0112      -3567.942          37.000    24304465.281    99522733.793       -2780.051          39.000  
G11  23180230.160   121812930.026       -1768.524          44.000    23180232.599    94919180.366       -1377.840          39.000  
G19  25330103.767                       -5290.454          22.000                                                                  
G20  22766750.274   119640080.112       -2939.991          47.000                                                                  
G13  21960834.743   115404956.666         962.921          46.000                                                                  
G15  23662293.770   124346195.799        2175.060          37.000    23662296.417    96893164.336        1695.003          37.000  
G25  24645190.152   129511349.107       -2419.965          38.000    24645205.538   100918005.261       -1886.047          36.000  
G29  24404765.769   128247908.235        1933.884          42.000    24404767.846    99933458.588        1506.200          34.000  
G06                                                                  24864076.502   101814254.325       -2035.626          40.000  
> 2025 04 04 10 36 29.0030000  0  9                     
G05  21940485.515   115298027.542       -1681.293          44.000    21940485.699    89842631.596       -1309.985          43.000  
G12  24305136.144   127724345.0492      -3568.606          36.000    24305144.280    99525514.114       -2780.910          38.000  
G11  23180566.862   121814698.805       -1769.108          44.000    23180569.136    94920558.627       -1378.436          39.000  
G20  22767309.775   119643020.061       -2940.226          47.000                                                                  
G13  21960651.779   115403994.140         961.863          46.000                                                                  
G15  23661879.922   124344021.120        2174.500          38.000    23661882.430    96891469.788        1694.420          37.000  
G25  24645650.685   129513769.491       -2420.648          38.000    24645666.172   100919891.195       -1886.102          37.000  
G29  24404397.888   128245974.419        1933.206          43.000    24404399.992    99931951.723        1506.462          36.000  
G06                                                                  24864573.782   101816290.160       -2036.365          40.000  
> 2025 04 04 10 36 30.0030000  0  9                     
G05  21940805.304   115299707.826       -1680.136          45.000    21940805.530    89843940.913       -1309.481          43.000  
G06  24865029.196                       -2616.516          21.000    24865070.878   101818325.572       -2035.388          40.000  
G12  24305815.177   127727912.6712      -3566.960          37.000    24305823.197    99528294.033       -2779.802          35.000  
G11  23180903.362   121816467.047       -1767.935          44.000    23180905.538    94921936.479       -1377.513          39.000  
G20  22767869.171   119645959.401       -2939.169          47.000                                                                  
G13  21960468.554   115403031.429         962.564          46.000                                                                  
G15  23661465.896   124341846.015        2175.208          39.000    23661468.463    96889774.895        1695.103          37.000  
G25  24646111.193   129516189.497       -2420.404          38.000    24646126.691   100921777.008       -1885.895          37.000  
G29  24404029.812   128244040.144        1934.223          42.000    24404032.037    99930444.481        1507.282          36.000  
> 2025 04 04 10 36 31.0030000  0  9                     
G05  21941125.255   115301389.331       -1682.637          45.000    21941125.441    89845251.166       -1310.601          43.000  
G06  24865532.313                       -2616.516          24.000    24865568.209   101820361.841       -2037.164          40.000  
G12  24306494.458   127731481.318       -3569.526          37.000    24306502.274    99531074.758       -2780.854          35.000  
G11  23181239.949   121818236.341       -1770.196          44.000    23181242.336    94923315.174       -1379.712          39.000  
G20  22768428.642   119648899.688       -2940.798          47.000                                                                  
G13  21960285.605   115402070.090         960.303          44.000                                                                  
G15  23661052.096   124339672.070        2172.933          39.000    23661054.750    96888080.928        1693.321          38.000  
G25  24646572.015   129518610.793       -2422.333          37.000    24646587.523   100923663.738       -1887.695          37.000  
G29  24403662.044   128242107.009        1932.349          42.000    24403664.311    99928938.113        1505.724          36.000  
> 2025 04 04 10 36 32.0030000  0  9                     
G05  21941445.040   115303069.538       -1680.259          45.000    21941445.099    89846560.423       -1309.093          44.000  
G12  24307173.441   127735048.457       -3567.326          37.000    24307181.106    99533854.375       -2779.017          36.000  
G11  23181576.416   121820004.173       -1768.346          43.000    23181578.744    94924692.624       -1377.268          41.000  
G20  22768987.859   119651838.460       -2939.049          46.000                                                                  
G13  21960102.567   115401107.658         962.791          43.000                                                                  
G15  23660638.128   124337496.731        2174.867          39.000    23660640.734    96886385.860        1695.079          38.000  
G25  24647032.512   129521030.812       -2419.409          38.000    24647048.162   100925549.474       -1885.803          36.000  
G29  24403293.874   128240172.451        1934.729          42.000    24403296.394    99927430.698        1507.328          36.000  
G06                                                                  24866065.196   101822396.892       -2034.882          40.000  
> 2025 04 04 10 36 33.0030000  0  9                     
G05  21941764.818   115304750.007       -1681.105          44.000    21941764.938    89847869.893       -1310.025          44.000  
G06  24866541.935   130674559.2483      -2614.844          26.000    24866562.168   101824432.059       -2035.352          38.000  
G12  24307852.395   127738615.771       -3567.257          40.000    24307859.932    99536634.142       -2780.386          35.000  
G11  23181912.823   121821772.085       -1768.759          42.000    23181915.289    94926070.279       -1378.022          41.000  
G20  22769547.124   119654777.208       -2939.198          47.000                                                                  
G13  21959919.523   115400145.613         961.299          45.000                                                                  
G15  23660224.049   124335321.551        2175.109          39.000    23660226.637    96884690.931        1694.520          38.000  
G25  24647493.238   129523451.226       -2420.966          38.000    24647508.777   100927435.449       -1886.371          37.000  
G29  24402925.775   128238238.098        1933.634          41.000    24402928.420    99925923.405        1507.179          36.000  
> 2025 04 04 10 36 34.0030000  0  9                     
G05  21942084.479   115306430.255       -1680.756          44.000    21942084.676    89849179.184       -1309.859          44.000  
G12  24308531.159   127742182.664       -3567.139          37.000    24308538.743    99539413.542       -2779.602          35.000  
G11  23182249.176   121823539.610       -1768.067          44.000    23182251.760    94927447.525       -1377.740          40.000  
G20  22770106.154   119657715.474       -2938.172          46.000                                                                  
G13  21959736.537   115399183.671         960.699          39.000                                                                  
G15  23659809.926   124333146.104        2175.004          40.000    23659812.678    96882995.790        1694.537          38.000  
G25  24647953.790   129525871.377       -2420.496          36.000    24647969.252   100929321.301       -1886.243          36.000  
G29  24402557.586   128236303.424        1934.762          41.000    24402560.397    99924415.904        1506.560          36.000  
G06                                                                  24867059.137   101826467.010       -2035.510          41.000  
> 2025 04 04 10 36 35.0030000  0  9                     
G05  21942404.122   115308110.249       -1681.621          45.000    21942404.324    89850488.271       -1310.396          44.000  
G12  24309209.849   127745749.250       -3568.442          37.000    24309217.393    99542192.684       -2780.521          35.000  
G11  23182585.482   121825306.702       -1769.198          44.000    23182588.103    94928824.545       -1378.100          41.000  
G20  22770665.144   119660653.252       -2939.286          47.000                                                                  
G13  21959553.521   115398221.605         960.441          41.000                                                                  
G15  23659395.792   124330970.292        2174.006          40.000    23659398.674    96881300.328        1694.247          38.000  
G25  24648414.283   129528291.379       -2422.009          38.000    24648429.803   100931207.019       -1887.378          36.000  
G29  24402189.344   128234368.406        1933.183          42.000    24402192.158    99922908.035        1507.142          35.000  
G06                                                                  24867556.025   101828501.535       -2035.468          39.000  
> 2025 04 04 10 36 36.0030000  0 10                     
G05  21942724.304   115309792.208       -1673.500          44.000    21942724.407    89851798.874       -1303.564          44.000  
G06  24868024.592   130682350.9623      -2615.479          28.000    24868053.279   101830537.495       -2029.053          41.000  
G12  24309888.945   127749317.602       -3559.535          37.000    24309896.389    99544973.158       -2773.160          35.000  
G11  23182922.139   121827075.572       -1760.126          44.000    23182924.793    94930202.854       -1371.317          40.000  
G20  22771224.639   119663592.715       -2930.820          46.000                                                                  
G13  21959370.929   115397261.521         968.252          47.000                                                                  
G30  26599119.375                        -304.484          16.000                                                                  
G15  23658982.119                        2176.807          39.000    23658984.788    96879606.339        1701.232          38.000  
G25  24648875.269                       -2416.846          38.000    24648890.702   100933094.215       -1879.688          36.000  
G29  24401821.441   128232435.214        1942.027          42.000    24401824.308    99921401.705        1513.398          35.000  
> 2025 04 04 10 36 37.0030000  0 10                     
G05  21943043.649                       -1683.740          44.000    21943043.823    89853106.944       -1314.999          44.000  
G06  24868524.560   130684978.1532      -2617.786          28.000    24868549.822                       -2035.889          37.000  
G12  24310567.279                       -3570.215          38.000    24310574.857                       -2787.793          35.000  
G11  23183258.002                       -1769.531          44.000    23183260.703    94931578.494       -1381.999          40.000  
G20  22771783.270                       -2942.627          46.000                                                                  
G13  21959187.634                         957.373          45.000                                                                  
G30  26599162.816                        -304.484          16.000                                                                  
G15  23658567.510                        2173.145          40.000    23658570.525    96877909.742        1690.100          38.000  
G25  24649335.487                       -2421.045          37.000    24649350.964                       -1889.063          37.000  
G29  24401452.912                        1931.348          42.000    24401455.786                        1499.951          35.000  
> 2025 04 04 10 36 38.0030000  0 10                     
G05  21943362.863   115313149.8373      -1677.502          44.000    21943363.112    89854414.048       -1307.262          44.000  
G06  24869023.052   130687597.8603      -2608.002          27.000    24869046.106   101834585.9861      -2032.172          39.000  
G12  24311245.456   127756456.5853      -3564.008          38.000    24311253.120    99550516.8571      -2776.828          35.000  
G11  23183593.747   121830606.5343      -1763.929          44.000    23183596.387    94932953.110       -1374.465          40.000  
G20  22772341.735   119669462.5663      -2934.379          47.000                                                                  
G13  21959004.210   115395345.3163        963.979          46.000                                                                  
G30  26599208.484                        -304.484          17.000                                                                  
G15  23658152.752   124324430.9403       2178.663          40.000    23658155.991    96876212.183        1697.565          39.000  
G25  24649795.634   129535549.6483      -2417.517          38.000    24649810.997   100936854.7991      -1884.137          37.000  
G29  24401084.206   128228562.3643       1938.013          42.000    24401087.070    99918371.7121       1510.106          35.000  
> 2025 04 04 10 36 39.0030000  0 11                     
G05  21943682.222   115314828.2972      -1678.981          44.000    21943682.654    89855721.964       -1308.498          44.000  
G06  24869519.877   130690206.6582      -2609.863          27.000    24869542.586   101836618.849       -2033.234          40.000  
G12  24311923.678   127760020.9302      -3564.916          35.000    24311931.422    99553294.280       -2777.838          36.000  
G11  23183929.594   121832371.4482      -1765.631          44.000    23183932.144    94934328.343       -1375.357          40.000  
G19  25340517.309                       -5295.938          15.000                                                                  
G20  22772900.347   119672397.7802      -2935.764          46.000                                                                  
G13  21958821.004   115394382.4102        962.255          46.000                                                                  
G30  26599256.127                        -304.484          17.000                                                                  
G15  23657738.276   124322253.2522       2177.177          39.000    23657741.602    96874515.298        1696.282          39.000  
G25  24650255.983   129537968.2442      -2418.915          38.000    24650271.341   100938739.444       -1885.266          35.000  
G29  24400715.571   128226625.4432       1936.296          43.000    24400718.563    99916862.443        1508.516          35.000  
> 2025 04 04 10 36 40.0030000  0 10                     
G05  21944001.707   115316507.8812      -1679.752          44.000    21944002.284    89857030.742       -1309.274          44.000  
G06  24870018.120   130692816.1132      -2608.105          27.000    24870039.169   101838652.470       -2034.320          38.000  
G12  24312601.997   127763586.3262      -3565.760          35.000    24312609.916    99556072.535       -2778.801          39.000  
G11  23184265.602   121834137.3212      -1766.630          44.000    23184268.179    94935704.319       -1375.685          39.000  
G20  22773458.957   119675333.8562      -2936.092          47.000                                                                  
G13  21958637.897   115393420.8352        961.361          46.000                                                                  
G30  26599310.556                        -304.484          16.000                                                                  
G15  23657324.120   124320076.6742       2176.116          37.000    23657327.426    96872819.283        1695.745          38.000  
G25  24650716.417   129540388.0682      -2420.355          38.000    24650731.852   100940624.996       -1885.461          36.000  
G29  24400347.229   128224689.5452       1935.587          43.000    24400350.244    99915354.016        1507.080          35.000  
> 2025 04 04 10 36 41.0030000  0 10                     
G05  21944321.444   115318188.0362      -1680.482          44.000    21944322.058    89858339.961       -1309.991          43.000  
G06  24870522.116                       -2611.295          33.000    24870535.914   101840686.394       -2034.760          40.000  
G12  24313280.391   127767152.1472      -3565.819          36.000    24313288.508    99558851.098       -2779.266          38.000  
G11  23184601.659   121835903.5012      -1766.462          44.000    23184604.241    94937080.606       -1376.432          39.000  
G20  22774017.664   119678270.2252      -2936.979          47.000                                                                  
G13  21958455.085   115392459.9232        960.666          46.000                                                                  
G30  26599363.327                        -304.484          17.000                                                                  
G15  23656909.840   124317900.5072       2175.708          37.000    23656913.369    96871123.570        1695.204          38.000  
G25  24651177.019   129542808.4782      -2420.575          38.000    24651192.517   100942511.013       -1886.133          36.000  
G29  24399978.884   128222754.1632       1934.854          42.000    24399981.914    99913845.872        1507.422          35.000  
> 2025 04 04 10 36 42.0030000  0 10                     
G05  21944641.374   115319868.7932      -1681.321          45.000    21944641.872    89859649.622       -1310.132          43.000  
G06  24871016.505   130698073.7953      -2611.682          28.000    24871032.543   101842720.646       -2034.338          39.000  
G12  24313958.920   127770718.4182      -3566.630          36.000    24313967.085    99561630.010       -2778.911          38.000  
G11  23184937.831   121837670.1792      -1766.861          44.000    23184940.419    94938457.195       -1376.376          39.000  
G20  22774576.508   119681206.9162      -2936.874          46.000                                                                  
G13  21958272.452   115391499.8132        959.560          47.000                                                                  
G30  26599424.964                        -304.484          17.000                                                                  
G15  23656495.677   124315724.8312       2175.625          38.000    23656499.408    96869428.232        1695.157          38.000  
G25  24651637.791   129545229.5022      -2421.179          38.000    24651653.099   100944397.531       -1886.621          35.000  
G29  24399610.671   128220819.2052       1934.980          42.000    24399613.634    99912338.110        1508.307          36.000  
> 2025 04 04 10 36 43.0030000  0  9                     
G05  21944961.353   115321549.8001      -1681.682          45.000    21944961.800    89860959.875       -1310.437          43.000  
G06  24871513.694   130700684.9842      -2611.420          28.000    24871529.427   101844755.382       -2034.735          41.000  
G12  24314637.515   127774284.8571      -3567.307          36.000    24314645.810    99564409.403       -2779.388          38.000  
G11  23185274.038   121839436.9201      -1767.327          43.000    23185276.633    94939834.300       -1377.213          38.000  
G20  22775135.302   119684143.6251      -2937.357          46.000                                                                  
G13  21958089.864   115390540.675         958.908          48.000                                                                  
G15  23656081.770   124313549.3431       2174.823          33.000    23656085.533    96867733.495        1694.722          35.000  
G25  24652098.651   129547651.360       -2422.064          38.000    24652113.909   100946284.709       -1887.390          36.000  
G29  24399242.541   128218884.5011       1934.286          42.000    24399245.508    99910830.947        1507.000          35.000  
> 2025 04 04 10 36 44.0030000  0  9                     
G05  21945281.336   115323231.595       -1682.315          45.000    21945281.682    89862270.373       -1310.638          44.000  
G06  24872012.949   130703295.9431      -2611.743          28.000    24872026.329   101846790.237       -2035.461          40.000  
G12  24315316.187   127777851.922       -3567.532          35.000    24315324.532    99567188.967       -2779.694          39.000  
G11  23185610.380   121841204.318       -1767.795          43.000    23185612.875    94941211.494       -1377.224          38.000  
G20  22775694.148   119687080.887       -2937.550          46.000                                                                  
G13  21957907.468   115389582.033         958.087          48.000                                                                  
G15  23655667.731   124311374.650        2174.371          31.000    23655671.745    96866038.917        1694.340          35.000  
G25  24652559.520   129550073.581       -2422.839          38.000    24652574.755   100948172.148       -1887.854          36.000  
G29  24398874.503   128216950.487        1933.629          42.000    24398877.449    99909323.911        1506.754          36.000  
> 2025 04 04 10 36 45.0030000  0  9                     
G05  21945601.529   115324914.112       -1682.933          45.000    21945601.957    89863581.452       -1311.513          44.000  
G06  24872510.843   130705907.861       -2612.238          28.000    24872523.360   101848825.504       -2035.553          40.000  
G12  24315994.910   127781419.544       -3567.846          35.000    24316003.484    99569968.955       -2780.440          39.000  
G11  23185946.814   121842972.247       -1768.208          43.000    23185949.373    94942589.131       -1378.229          38.000  
G20  22776253.100   119690018.601       -2938.034          46.000                                                                  
G13  21957725.233   115388624.268         957.211          48.000                                                                  
G15  23655253.756   124309200.537        2173.680          30.000    23655258.093    96864344.800        1693.859          35.000  
G25  24653020.450   129552496.549       -2423.663          38.000    24653035.832   100950060.180       -1888.641          36.000  
G29  24398506.667   128215017.070        1933.056          42.000    24398509.568    99907817.390        1505.774          36.000  
> 2025 04 04 10 36 46.0030000  0  9                     
G05  21945921.891   115326597.401       -1683.907          45.000    21945922.356    89864893.092       -1311.844          44.000  
G06  24873005.185   130708520.436       -2612.799          29.000    24873020.580   101850861.245       -2036.188          39.000  
G12  24316673.874   127784987.804       -3568.532          36.000    24316682.530    99572749.405       -2780.682          38.000  
G11  23186283.442   121844740.776       -1768.778          44.000    23186285.917    94943967.191       -1378.427          39.000  
G20  22776812.211   119692956.834       -2938.583          46.000                                                                  
G13  21957543.161   115387667.460         956.079          48.000                                                                  
G15  23654839.849   124307027.178        2172.841          31.000    23654844.655    96862651.256        1692.888          34.000  
G25  24653481.575   129554920.343       -2424.274          38.000    24653497.026   100951948.853       -1889.075          36.000  
G29  24398138.888   128213084.350        1932.192          42.000    24398141.769    99906311.348        1505.816          36.000  
> 2025 04 04 10 36 47.0030000  0 10                     
G05  21946242.373   115328281.639       -1684.813          44.000    21946242.879    89866205.489       -1312.637          44.000  
G06  24873501.762   130711133.814       -2614.722          30.000    24873517.865   101852897.641       -2036.713          39.000  
G12  24317352.923   127788556.909       -3569.441          36.000    24317361.681    99575530.524       -2781.576          37.000  
G11  23186620.042   121846510.072       -1769.510          43.000    23186622.624    94945345.840       -1379.000          39.000  
G20  22777371.349   119695895.754       -2939.276          46.000                                                                  
G13  21957361.315   115386711.761         955.096          47.000                                                                  
G30  26599615.930                        -228.398          20.000                                                                  
G15  23654426.299   124304854.596        2171.771          38.000    23654431.264    96860958.365        1692.246          37.000  
G25  24653942.919   129557345.102       -2425.299          37.000    24653958.467   100953838.295       -1890.076          36.000  
G29  24397771.291   128211152.470        1931.629          42.000    24397774.173    99904806.022        1504.795          37.000  
> 2025 04 04 10 36 48.0040000  0 10                     
G05  21946563.454   115329968.669       -1685.968          45.000    21946563.878    89867520.060       -1313.538          44.000  
G06  24873998.929   130713750.651       -2614.852          28.000    24874015.878   101854936.763       -2037.619          40.000  
G12  24318032.901   127792130.494       -3570.492          35.000    24318041.704    99578315.134       -2782.321          37.000  
G11  23186957.325   121848282.107       -1770.715          43.000    23186959.891    94946726.673       -1380.036          40.000  
G20  22777931.302   119698838.452       -2940.087          46.000                                                                  
G13  21957179.559   115385756.416         953.815          44.000                                                                  
G30  26599651.038                        -214.848          19.000                                                                  
G15  23654012.592   124302680.946        2171.105          37.000    23654017.565    96859264.592        1691.515          39.000  
G25  24654405.064   129559773.481       -2426.675          38.000    24654420.566   100955730.476       -1890.660          35.000  
G29  24397403.517   128209219.701        1930.445          42.000    24397406.439    99903299.952        1503.868          37.000  
> 2025 04 04 10 36 49.0040000  0 10                     
G05  21946884.310   115331654.691       -1686.316          45.000    21946884.736    89868833.866       -1314.063          43.000  
G06  24874496.727   130716365.505       -2615.672          28.000    24874513.446   101856974.294       -2037.517          40.000  
G12  24318712.360   127795701.104       -3570.542          37.000    24318721.175    99581097.417       -2782.689          37.000  
G11  23187294.256   121850052.889       -1770.884          44.000    23187296.958    94948106.488       -1379.583          40.000  
G20  22778490.926   119701778.643       -2940.176          46.000                                                                  
G13  21956998.033   115384802.913         953.168          48.000                                                                  
G30  26599691.033                        -214.848          18.000                                                                  
G15  23653599.416   124300510.047        2171.023          37.000    23653604.270    96857572.949        1691.471          39.000  
G25  24654866.924   129562200.110       -2426.676          38.000    24654882.347   100957621.422       -1890.868          35.000  
G29  24397036.161   128207289.447        1930.090          42.000    24397039.153    99901795.837        1504.018          36.000  
> 2025 04 04 10 36 50.0040000  0 10                     
G05  21947205.280   115333341.396       -1686.481          45.000    21947205.706    89870148.175       -1314.423          43.000  
G06  24874993.889   130718980.826       -2615.560          28.000    24875011.105   101859012.219       -2037.913          40.000  
G12  24319392.057   127799272.264       -3571.176          37.000    24319400.723    99583880.093       -2782.688          37.000  
G11  23187631.318   121851824.149       -1771.024          44.000    23187633.962    94949486.667       -1379.999          38.000  
G20  22779050.498   119704719.256       -2940.273          46.000                                                                  
G13  21956816.662   115383850.282         952.808          48.000                                                                  
G30  26599728.606                        -214.848          17.000                                                                  
G15  23653186.431   124298339.715        2170.437          34.000    23653191.390    96855881.810        1691.027          36.000  
G25  24655328.878   129564627.466       -2427.293          38.000    24655344.270   100959512.862       -1891.447          36.000  
G29  24396669.004   128205359.774        1929.823          42.000    24396671.994    99900292.205        1504.107          36.000  
> 2025 04 04 10 36 51.0040000  0 10                     
G05  21947526.267   115335028.422       -1687.335          44.000    21947526.728    89871462.738       -1314.819          43.000  
G06  24875491.697   130721596.278       -2615.385          27.000    24875508.774   101861050.254       -2038.180          40.000  
G12  24320071.910   127802843.598       -3571.450          39.000    24320080.364    99586662.974       -2783.061          36.000  
G11  23187968.321   121853595.588       -1771.750          44.000    23187970.924    94950867.007       -1380.666          39.000  
G20  22779610.104   119707659.924       -2940.684          46.000                                                                  
G13  21956635.466   115382898.130         951.758          48.000                                                                  
G30  26599765.505                        -214.848          18.000                                                                  
G15  23652773.462   124296169.673        2170.167          34.000    23652778.434    96854190.830        1690.781          37.000  
G25  24655790.855   129567055.241       -2428.263          38.000    24655806.315   100961404.668       -1892.178          36.000  
G29  24396301.875   128203430.350        1928.990          43.000    24396304.805    99898788.755        1503.317          36.000  
> 2025 04 04 10 36 52.0040000  0 10                     
G05  21947847.317   115336715.905       -1690.582          44.000    21947847.870    89872777.661       -1317.401          43.000  
G06  24875989.464   130724212.057       -2617.636          26.000    24876006.523   101863088.535       -2040.829          40.000  
G12  24320751.635   127806415.207       -3574.587          39.000    24320759.960    99589446.037       -2785.237          36.000  
G11  23188305.491   121855367.282       -1774.529          44.000    23188308.035    94952247.557       -1382.795          39.000  
G20  22780169.659   119710600.804       -2943.717          46.000                                                                  
G13  21956454.343   115381946.624         948.322          48.000                                                                  
G30  26599799.855                        -214.848          18.000                                                                  
G15  23652360.667   124293999.983        2167.042          34.000    23652365.625    96852500.144        1688.579          37.000  
G25  24656252.880   129569483.481       -2431.768          39.000    24656268.292   100963296.795       -1894.545          37.000  
G29  24395934.798   128201501.285        1925.814          42.000    24395937.779    99897285.621        1500.490          36.000  
> 2025 04 04 10 36 53.0040000  0 10                     
G05  21948168.646   115338404.743       -1688.074          44.000    21948169.143    89874093.635       -1315.240          43.000  
G06  24876487.653   130726829.148       -2616.066          26.000    24876504.522   101865127.738       -2038.328          39.000  
G12  24321431.561   127809988.028       -3571.658          39.000    24321439.799    99592230.098       -2783.069          35.000  
G11  23188642.798   121857140.171       -1771.449          44.000    23188645.338    94953629.005       -1380.177          39.000  
G20  22780729.448   119713542.773       -2940.778          47.000                                                                  
G13  21956273.485   115380996.665         950.751          48.000                                                                  
G30  26599837.142                        -214.848          18.000                                                                  
G15  23651947.826   124291831.580        2169.831          35.000    23651952.924    96850810.497        1690.371          37.000  
G25  24656715.208   129571913.171       -2428.876          39.000    24656730.591   100965189.983       -1892.821          37.000  
G29  24395568.040   128199573.500        1928.581          43.000    24395570.994    99895783.423        1502.986          36.000  
> 2025 04 04 10 36 54.0040000  0 10                     
G05  21948490.094   115340093.435       -1693.097          44.000    21948490.457    89875409.536       -1319.092          43.000  
G06  24876985.420                       -2619.616          26.000    24877002.546   101867166.720       -2042.265          39.000  
G12  24322111.468   127813560.623       -3576.706          37.000    24322119.575    99595014.015       -2787.826          35.000  
G11  23188980.118   121858912.788       -1776.337          44.000    23188982.707    94955010.307       -1384.520          40.000  
G20  22781289.244   119716484.363       -2945.621          47.000                                                                  
G13  21956092.767   115380046.708         945.709          48.000                                                                  
G30  26599874.961                        -214.848          18.000                                                                  
G15  23651534.984   124289662.875        2164.358          34.000    23651540.275    96849120.697        1686.235          37.000  
G25  24657177.546   129574342.735       -2433.766          39.000    24657192.905   100967083.153       -1896.951          37.000  
G29  24395201.150   128197645.485        1923.582          45.000    24395204.182    99894281.120        1498.654          36.000  
> 2025 04 04 10 36 55.0040000  0 11                     
G05  21948810.624   115341778.7652      -1682.513          44.000    21948811.160    89876722.367       -1310.736          43.000  
G06  24877481.237                       -2611.403          26.000    24877499.643   101869202.527       -2033.671          41.000  
G12  24322790.529   127817129.6292      -3565.374          39.000    24322798.595    99597794.627       -2778.888          32.000  
G11  23189316.689   121860681.8682      -1766.044          43.000    23189319.344    94956388.388       -1375.943          40.000  
G19  25355861.899                       -5294.147          15.000                                                                  
G20  22781848.257   119719422.3142      -2934.874          47.000                                                                  
G13  21955911.298   115379093.0962        956.189          41.000                                                                  
G30  26599914.349                        -214.848          19.000                                                                  
G15  23651121.558   124287490.8422       2175.295          38.000    23651126.694    96847427.770        1694.888          39.000  
G25  24657639.098   129576768.4302      -2423.063          37.000    24657654.397   100968973.269       -1888.067          36.000  
G29  24394833.443   128195714.0412       1934.441          43.000    24394836.523    99892775.655        1507.595          36.000  
> 2025 04 04 10 36 56.0040000  0 10                     
G05  21949131.082   115343463.1152      -1684.625          44.000    21949131.591    89878034.850       -1313.000          45.000  
G06  24877978.401   130734658.2573      -2612.128          28.000    24877996.566   101871237.867       -2035.498          40.000  
G12  24323469.091                       -3572.082          25.000    24323477.707    99600574.775       -2779.987          25.000  
G11  23189653.119   121862449.7382      -1768.143          42.000    23189655.765    94957765.972       -1377.916          38.000  
G20  22782407.154   119722359.0082      -2937.108          46.000                                                                  
G13  21955729.753   115378139.1332        953.333          45.000                                                                  
G30  26599951.005                        -214.848          19.000                                                                  
G15  23650707.973   124285317.6122       2173.249          39.000    23650713.062    96845734.363        1693.144          38.000  
G25  24658100.529   129579193.6752      -2425.617          37.000    24658115.895   100970863.198       -1891.103          32.000  
G29  24394465.627   128193781.4532       1932.326          41.000    24394468.840    99891269.797        1505.908          34.000  
> 2025 04 04 10 36 57.0040000  0 10                     
G05  21949451.821   115345148.4402      -1685.846          44.000    21949452.308    89879348.101       -1313.867          45.000  
G06  24878478.207   130737285.1702      -2613.418          30.000    24878493.752   101873273.829       -2036.085          39.000  
G12  24324151.569                       -3567.056          26.000    24324156.853    99603355.594       -2781.310          35.000  
G11  23189989.700   121864218.4752      -1769.301          44.000    23189992.451    94959144.172       -1378.504          40.000  
G20  22782966.228   119725296.4482      -2938.062          47.000                                                                  
G13  21955548.359   115377186.4342        952.228          47.000                                                                  
G30  26599989.087                        -214.848          18.000                                                                  
G15  23650294.552   124283145.4102       2172.105          31.000    23650299.707    96844041.744        1692.766          33.000  
G25  24658562.253   129581620.0312      -2427.289          36.000    24658577.625   100972753.779       -1891.047          33.000  
G29  24394098.036   128191849.7802       1931.040          42.000    24394101.245    99889764.621        1504.450          34.000  
> 2025 04 04 10 36 58.0040000  0  9                     
G05  21949772.689   115346834.6102      -1686.560          43.000    21949773.231    89880662.040       -1314.014          44.000  
G06  24878975.078   130739896.0233      -2613.685          28.000    24878991.077   101875310.379       -2036.930          39.000  
G12  24324828.228   127827834.2283      -3570.157          34.000    24324836.078    99606136.940       -2781.549          34.000  
G11  23190326.458   121865987.9192      -1769.439          44.000    23190329.214    94960523.007       -1379.110          41.000  
G20  22783525.445   119728234.5192      -2938.252          47.000                                                                  
G13  21955367.237   115376234.7872        951.166          47.000                                                                  
G15  23649881.615   124280973.9362       2171.468          37.000    23649886.515    96842349.716        1691.516          38.000  
G25  24659024.394   129584047.3672      -2426.728          28.000    24659039.524   100974645.187       -1891.064          31.000  
G29  24393730.676   128189918.9942       1930.583          42.000    24393733.779    99888260.065        1504.534          36.000  
> 2025 04 04 10 36 59.0040000  0  9                     
G05  21950094.001   115348522.8802      -1683.746          44.000    21950094.435    89881977.568       -1312.122          43.000  
G06  24879469.385                       -2611.156          27.000    24879488.705   101877348.415       -2034.461          39.000  
G12  24325509.549   127831414.6743      -3567.507          34.000    24325515.747    99608919.806       -2779.420          32.000  
G11  23190663.502   121867759.2382      -1766.720          43.000    23190666.305    94961903.210       -1376.464          41.000  
G20  22784084.795   119731174.3662      -2935.023          47.000                                                                  
G13  21955186.600   115375285.3722        953.772          46.000                                                                  
G15  23649468.848   124278804.4842       2173.474          34.000    23649473.693    96840659.200        1694.093          38.000  
G25  24659486.955   129586476.7652      -2424.935          31.000    24659501.785   100976538.221       -1889.813          33.000  
G29  24393363.532   128187990.0942       1933.650          42.000    24393366.707    99886757.024        1506.920          35.000  
> 2025 04 04 10 37 00.0040000  0  9                     
G05  21950415.011   115350209.7832      -1685.144          43.000    21950415.448    89883292.042       -1313.129          43.000  
G06  24879968.832   130745118.3533      -2613.477          26.000    24879985.988   101879385.226       -2035.232          40.000  
G12  24326188.777   127834984.5532      -3568.166          37.000    24326195.160    99611701.629       -2780.937          34.000  
G11  23191000.331   121869529.0212      -1768.027          44.000    23191003.121    94963282.278       -1377.528          41.000  
G20  22784643.914   119734112.5952      -2936.324          47.000                                                                  
G13  21955005.750   115374334.7622        952.216          47.000                                                                  
G15  23649055.618   124276633.5542       2172.577          35.000    23649060.572    96838967.595        1693.044          39.000  
G25  24659948.970   129588904.8042      -2428.532          28.000    24659963.812   100978430.154       -1889.962          33.000  
G29  24392996.223   128186059.7572       1931.829          43.000    24392999.368    99885252.880        1505.596          35.000  
> 2025 04 04 10 37 01.0040000  0  9                     
G05  21950735.892   115351895.776       -1686.603          44.000    21950736.410    89884606.201       -1314.471          43.000  
G06  24880461.990   130747709.7692      -2613.870          26.000    24880483.263   101881421.659       -2037.011          40.000  
G12  24326867.859   127838552.9342      -3569.647          33.000    24326874.391    99614482.905       -2781.408          34.000  
G11  23191337.021   121871297.776       -1769.352          44.000    23191339.921    94964660.927       -1378.842          40.000  
G20  22785202.960   119737049.687       -2937.618          46.000                                                                  
G13  21954824.782   115373383.975         950.366          48.000                                                                  
G15  23648642.335   124274461.690        2171.303          38.000    23648647.378    96837275.636        1692.052          40.000  
G25  24660410.962   129591332.470       -2427.950          32.000    24660425.819   100980321.893       -1892.230          33.000  
G29  24392628.721   128184128.447        1930.576          42.000    24392632.013    99883748.351        1503.990          35.000  
> 2025 04 04 10 37 02.0040000  0  9                     
G05  21951056.907   115353582.675       -1687.805          43.000    21951057.441    89885920.681       -1315.204          44.000  
G06  24880956.834   130750323.2952      -2613.694          27.000    24880980.588   101883458.230       -2037.211          40.000  
G12  24327546.507   127842122.5332      -3570.322          32.000    24327553.903    99617264.462       -2782.635          34.000  
G11  23191673.760   121873067.237       -1769.749          44.000    23191676.695    94966039.714       -1379.162          40.000  
G20  22785762.015   119739987.424       -2938.109          47.000                                                                  
G13  21954643.972   115372433.732         949.463          48.000                                                                  
G15  23648229.132   124272290.634        2170.375          38.000    23648234.182    96835583.894        1690.974          39.000  
G25  24660873.334   129593760.560       -2427.810          30.000    24660887.923   100982213.978       -1892.529          33.000  
G29  24392261.381   128182197.957        1929.462          43.000    24392264.711    99882244.061        1503.814          35.000  
> 2025 04 04 10 37 03.0040000  0  9                     
G05  21951378.081   115355270.378       -1688.184          43.000    21951378.483    89887235.760       -1315.625          44.000  
G06  24881450.679   130752937.5952      -2615.620          27.000    24881478.009   101885495.352       -2037.613          40.000  
G12  24328227.207   127845692.8022      -3570.631          38.000    24328233.337    99620046.554       -2782.526          34.000  
G11  23192010.646   121874837.392       -1770.728          43.000    23192013.621    94967419.042       -1380.122          41.000  
G20  22786321.163   119742925.751       -2939.102          46.000                                                                  
G13  21954463.324   115371484.537         948.346          46.000                                                                  
G15  23647816.061   124270120.367        2169.377          38.000    23647821.047    96833892.717        1690.472          39.000  
G25  24661335.461   129596189.599       -2429.553          31.000    24661350.207   100984106.669       -1894.057          30.000  
G29  24391894.179   128180268.178        1929.287          44.000    24391897.540    99880740.398        1502.382          34.000  
> 2025 04 04 10 37 04.0040000  0  9                     
G05  21951699.411   115356958.829       -1688.525          43.000    21951699.706    89888551.456       -1315.784          44.000  
G06  24881956.389   130755552.4322      -2615.188          29.000    24881975.636   101887532.917       -2037.722          39.000  
G12  24328908.158   127849263.6822      -3570.994          38.000    24328912.974    99622829.085       -2782.472          34.000  
G11  23192347.580   121876608.047       -1770.578          44.000    23192350.651    94968798.819       -1379.827          40.000  
G20  22786880.401   119745864.503       -2938.809          46.000                                                                  
G13  21954282.914   115370536.237         948.083          47.000                                                                  
G15  23647403.006   124267950.763        2169.495          36.000    23647408.187    96832202.092        1690.376          38.000  
G25  24661797.511   129598619.377       -2430.103          31.000    24661812.521   100986000.016       -1893.539          32.000  
G29  24391527.060   128178339.061        1929.143          44.000    24391530.408    99879237.184        1503.029          34.000  
> 2025 04 04 10 37 05.0040000  0  9                     
G05  21952020.818   115358647.556       -1689.105          43.000    21952021.106    89889867.368       -1316.473          44.000  
G06  24882456.473   130758167.3532      -2615.022          29.000    24882473.273   101889570.581       -2038.540          39.000  
G12  24329587.536   127852834.6772      -3571.483          40.000    24329592.450    99625611.652       -2783.164          36.000  
G11  23192684.615   121878378.856       -1770.875          43.000    23192687.747    94970178.673       -1380.432          41.000  
G20  22787439.691   119748803.293       -2939.074          46.000                                                                  
G13  21954102.508   115369588.412         947.192          47.000                                                                  
G15  23646990.051   124265781.284        2168.936          36.000    23646995.330    96830511.596        1690.047          37.000  
G25  24662259.760   129601048.8833      -2430.385          32.000    24662274.959   100987893.676       -1894.057          34.000  
G29  24391159.904   128176410.120        1928.687          45.000    24391163.399    99877734.150        1502.272          34.000  
> 2025 04 04 10 37 06.0040000  0  9                     
G05  21952342.236   115360337.199       -1690.424          43.000    21952342.535    89891183.937       -1317.316          44.000  
G06  24882956.187   130760783.0122      -2615.723          29.000    24882971.012   101891608.708       -2039.136          38.000  
G12  24330267.137   127856406.4542      -3572.066          38.000    24330272.037    99628394.903       -2783.176          36.000  
G11  23193021.761   121880150.460       -1772.331          41.000    23193024.793    94971559.050       -1380.610          38.000  
G20  22787999.119   119751742.691       -2939.692          46.000                                                                  
G13  21953922.338   115368641.626         946.100          46.000                                                                  
G15  23646577.241   124263612.584        2167.761          35.000    23646582.701    96828821.760        1689.204          37.000  
G25  24662720.166   129603469.0222      -2432.539          28.000    24662737.570   100989787.862       -1893.858          33.000  
G29  24390793.030   128174482.004        1927.354          45.000    24390796.446    99876231.668        1501.869          33.000  
> 2025 04 04 10 37 07.0040000  0  9                     
G05  21952663.981   115362028.034       -1691.290          43.000    21952664.202    89892501.476       -1317.828          44.000  
G06  24883453.614   130763430.9083      -2617.377          27.000    24883468.966   101893647.818       -2039.734          40.000  
G12  24330946.776   127859979.327       -3573.049          40.000    24330951.849    99631178.896       -2784.267          34.000  
G11  23193359.070   121881922.963       -1773.061          43.000    23193362.137    94972940.275       -1381.765          41.000  
G20  22788558.823   119754683.104       -2941.031          47.000                                                                  
G13  21953742.348   115367696.278         944.739          47.000                                                                  
G15  23646164.772   124261445.041        2167.412          37.000    23646170.201    96827132.776        1688.657          39.000  
G25  24663182.987   129605900.6891      -2432.620          29.000    24663200.416   100991683.218       -1895.976          32.000  
G29  24390426.406   128172554.986        1926.350          44.000    24390429.777    99874730.113        1501.457          34.000  
> 2025 04 04 10 37 08.0040000  0  9                     
G05  21952985.854   115363719.328       -1691.601          43.000    21952986.148    89893819.362       -1317.676          45.000  
G06  24883952.724                       -2617.792          27.000    24883966.976   101895687.079       -2038.916          40.000  
G12  24331626.436   127863552.504       -3573.351          41.000    24331631.673    99633963.168       -2784.553          34.000  
G11  23193696.442   121883695.842       -1772.611          43.000    23193699.532    94974321.739       -1381.718          41.000  
G20  22789118.426   119757623.700       -2940.481          47.000                                                                  
G13  21953562.475   115366751.593         944.586          43.000                                                                  
G15  23645752.400   124259277.994        2166.799          39.000    23645757.848    96825444.160        1688.850          39.000  
G25  24663645.401   129608333.525       -2431.614          30.000    24663663.392   100993578.903       -1896.536          32.000  
G29  24390059.764   128170628.350        1926.963          44.000    24390063.185    99873228.859        1501.329          33.000  
> 2025 04 04 10 37 09.0040000  0  9                     
G05  21953307.777   115365410.941       -1692.096          43.000    21953308.041    89895137.513       -1318.341          44.000  
G06  24884449.931   130768670.7373      -2617.426          28.000    24884465.057   101897726.499       -2039.380          39.000  
G12  24332306.187   127867125.831       -3573.242          41.000    24332311.672    99636747.601       -2784.348          34.000  
G11  23194033.736   121885468.860       -1772.978          43.000    23194036.894    94975703.278       -1381.805          40.000  
G20  22789678.040   119760564.353       -2940.686          47.000                                                                  
G13  21953382.677   115365807.380         944.141          44.000                                                                  
G15  23645339.983   124257111.090        2166.981          39.000    23645345.455    96823755.674        1688.647          38.000  
G25  24664105.665   129610766.716       -2433.779          30.000    24664126.488   100995474.868       -1895.969          33.000  
G29  24389693.162   128168701.977        1926.338          44.000    24389696.650    99871727.796        1500.642          34.000  
> 2025 04 04 10 37 10.0040000  0  9                     
G05  21953629.732   115367103.060       -1692.334          43.000    21953629.964    89896456.069       -1318.750          44.000  
G06  24884947.236   130771288.3452      -2617.731          28.000    24884963.114   101899766.168       -2039.893          39.000  
G12  24332986.050   127870699.546       -3573.836          41.000    24332991.725    99639532.330       -2784.469          34.000  
G11  23194371.183   121887242.240       -1773.867          44.000    23194374.364    94977085.143       -1382.239          40.000  
G20  22790237.614   119763505.258       -2941.185          47.000                                                                  
G13  21953203.021   115364863.932         942.993          46.000                                                                  
G15  23644927.705   124254944.650        2166.049          38.000    23644933.155    96822067.553        1688.151          38.000  
G25  24664569.061   129613200.403       -2434.031          30.000    24664589.560   100997371.288       -1896.429          33.000  
G29  24389326.594   128166776.025        1925.454          43.000    24389330.178    99870227.071        1500.158          34.000  
> 2025 04 04 10 37 11.0040000  0  9                     
G05  21953951.817   115368796.121       -1693.536          43.000    21953952.269    89897775.351       -1319.824          44.000  
G06  24885445.525   130773906.7242      -2619.141          27.000    24885461.407   101901806.466       -2040.411          39.000  
G12  24333666.103   127874274.070       -3574.978          40.000    24333671.841    99642317.624       -2785.318          35.000  
G11  23194708.765   121889016.357       -1774.617          44.000    23194711.891    94978467.581       -1382.784          41.000  
G20  22790797.294   119766446.833       -2942.106          47.000                                                                  
G13  21953023.604   115363921.520         941.663          45.000                                                                  
G15  23644515.600   124252779.054        2165.016          38.000    23644521.110    96820380.071        1687.091          38.000  
G25  24665033.541   129615625.6083      -2434.750          29.000    24665052.962   100999268.465       -1897.331          34.000  
G29  24388960.112   128164850.905        1924.554          42.000    24388963.886    99868726.986        1499.199          34.000  
> 2025 04 04 10 37 12.0040000  0  9                     
G05  21954274.222   115370490.453       -1694.330          43.000    21954274.579    89899095.613       -1320.447          44.000  
G06  24885944.237   130776526.0442      -2619.720          26.000    24885959.996   101903847.653       -2041.724          40.000  
G12  24334346.330   127877849.700       -3575.668          39.000    24334352.176    99645103.841       -2786.053          35.000  
G11  23195046.574   121890791.613       -1775.284          44.000    23195049.711    94979850.867       -1383.321          40.000  
G20  22791357.311   119769389.431       -2942.667          47.000                                                                  
G13  21952844.522   115362980.615         940.607          44.000                                                                  
G15  23644103.782   124250614.657        2164.070          38.000    23644109.118    96818693.549        1686.450          38.000  
G25  24665496.831   129618061.7262      -2436.702          29.000    24665516.514   101001166.687       -1898.077          34.000  
G29  24388593.979   128162926.986        1923.886          43.000    24388597.758    99867227.781        1499.603          35.000  
> 2025 04 04 10 37 13.0040000  0  9                     
G05  21954596.596   115372185.341       -1694.446          44.000    21954597.029    89900416.286       -1320.422          43.000  
G06  24886444.363   130779145.5021      -2618.304          32.000    24886458.614   101905889.137       -2041.168          39.000  
G12  24335026.737   127881425.686       -3575.042          38.000    24335032.669    99647890.408       -2786.491          35.000  
G11  23195384.430   121892567.238       -1775.199          44.000    23195387.594    94981234.494       -1383.075          41.000  
G20  22791917.393   119772332.323       -2942.133          47.000                                                                  
G13  21952665.627   115362040.448         940.204          45.000                                                                  
G15  23643691.961   124248450.688        2164.577          39.000    23643697.272    96817007.366        1686.546          38.000  
G25  24665960.660   129620497.7691      -2436.010          31.000    24665980.192   101003065.372       -1898.494          34.000  
G29  24388227.914   128161003.542        1924.080          41.000    24388231.708    99865729.006        1499.375          36.000  
> 2025 04 04 10 37 14.0040000  0 10                     
G05  21954919.082   115373880.438       -1695.355          44.000    21954919.622    89901737.101       -1320.471          43.000  
G06  24886943.303   130781765.484       -2619.177          31.000    24886957.173   101907930.607       -2041.248          39.000  
G12  24335707.057   127885001.759       -3575.892          38.000    24335713.119    99650676.926       -2786.410          35.000  
G11  23195722.332   121894342.896       -1775.929          44.000    23195725.482    94982618.078       -1383.211          40.000  
G20  22792477.364   119775275.123       -2942.471          47.000                                                                  
G13  21952486.735   115361100.585         939.874          46.000                                                                  
G30  26602745.930                        -216.513          22.000                                                                  
G15  23643280.168   124246286.929        2164.062          38.000    23643285.477    96815321.343        1685.807          39.000  
G25  24666424.543   129622934.757       -2436.409          28.000    24666443.907   101004964.229       -1897.540          30.000  
G29  24387861.802   128159080.166        1923.385          41.000    24387865.773    99864230.318        1498.473          36.000  
> 2025 04 04 10 37 15.0040000  0 10                     
G05  21955241.653   115375575.643       -1695.386          43.000    21955242.218    89903058.068       -1321.191          43.000  
G06  24887442.190   130784385.407       -2619.788          35.000    24887455.700   101909972.095       -2041.535          40.000  
G12  24336387.516   127888577.882       -3576.328          41.000    24336393.687    99653463.521       -2786.921          34.000  
G11  23196060.278   121896118.513       -1775.400          45.000    23196063.329    94984001.725       -1383.724          40.000  
G20  22793037.353   119778217.858       -2942.735          47.000                                                                  
G13  21952307.915   115360161.084         939.343          43.000                                                                  
G30  26602785.004                        -226.156          21.000                                                                  
G15  23642868.404   124244123.238        2163.779          39.000    23642873.737    96813635.294        1685.821          38.000  
G25  24666883.800   129625348.9623      -2436.855          28.000    24666907.715   101006863.268       -1898.873          33.000  
G29  24387495.812   128157156.876        1923.185          42.000    24387499.806    99862731.647        1498.848          36.000  
> 2025 04 04 10 37 16.0040000  0  9                     
G05  21955564.334   115377271.481       -1696.002          43.000    21955564.945    89904379.507       -1321.570          43.000  
G06  24887941.301   130787005.786       -2620.276          35.000    24887954.313   101912013.962       -2042.157          39.000  
G12  24337067.944   127892154.432       -3576.858          35.000    24337074.333    99656250.357       -2786.868          33.000  
G11  23196398.292   121897894.600       -1776.331          45.000    23196401.252    94985385.690       -1384.075          40.000  
G20  22793597.456   119781160.926       -2943.249          47.000                                                                  
G13  21952129.270   115359222.427         938.300          41.000                                                                  
G15  23642456.810   124241960.082        2163.268          38.000    23642462.075    96811949.721        1685.877          39.000  
G25  24667349.760   129627797.6962      -2438.056          28.000    24667371.634   101008762.766       -1899.457          33.000  
G29  24387129.894   128155234.140        1922.468          41.000    24387133.984    99861233.414        1498.339          37.000  
> 2025 04 04 10 37 17.0040000  0 10                     
G05  21955887.104   115378967.732       -1696.600          44.000    21955887.814    89905701.270       -1322.052          43.000  
G06  24888440.222   130789626.390       -2621.326          34.000    24888452.969   101914056.020       -2042.365          39.000  
G12  24337748.791   127895730.959       -3576.423          24.000    24337755.050    99659037.482       -2786.799          33.000  
G11  23196736.283   121899670.942       -1776.628          44.000    23196739.248    94986769.841       -1384.324          41.000  
G20  22794157.668   119784104.151       -2943.355          47.000                                                                  
G13  21951950.753   115358284.421         937.695          43.000                                                                  
G30  26602863.450                        -226.156          19.000                                                                  
G15  23642045.243   124239797.227        2162.449          38.000    23642050.499    96810264.406        1685.289          38.000  
G25  24667815.161   129630242.8103      -2438.177          28.000    24667835.382   101010662.616       -1900.047          34.000  
G29  24386764.083   128153311.700        1921.927          41.000    24386768.177    99859735.390        1498.007          37.000  
> 2025 04 04 10 37 18.0040000  0 10                     
G05  21956209.973   115380664.647       -1697.204          43.000    21956210.733    89907023.541       -1322.455          43.000  
G06  24888939.210   130792247.519       -2620.636          31.000    24888951.773   101916098.460       -2042.352          39.000  
G12  24338429.852   127899308.430       -3577.255          36.000    24338435.876    99661825.042       -2787.387          37.000  
G11  23197074.430   121901447.767       -1776.698          43.000    23197077.447    94988154.404       -1384.565          41.000  
G20  22794717.803   119787047.809       -2943.589          47.000                                                                  
G13  21951772.313   115357347.239         936.810          47.000                                                                  
G30  26602903.520                        -226.156          19.000                                                                  
G15  23641633.734   124237634.957        2161.941          38.000    23641638.989    96808579.536        1684.904          38.000  
G25  24668283.112   129632702.5802      -2440.163          30.000    24668299.482   101012563.033       -1900.777          34.000  
G29  24386398.301   128151389.880        1921.461          40.000    24386402.514    99858237.893        1497.278          37.000  
> 2025 04 04 10 37 19.0040000  0 11                     
G05  21956533.346   115382364.006       -1702.472          44.000    21956534.100    89908347.717       -1326.678          43.000  
G06  24889438.533   130794870.991       -2625.995          33.000    24889451.066   101918142.710       -2047.101          39.000  
G12  24339110.958   127902887.933       -3582.021          29.000    24339117.064    99664614.397       -2792.109          37.000  
G11  23197413.053   121903226.922       -1782.492          44.000    23197416.033    94989540.745       -1389.222          40.000  
G19  25378816.606                       -5210.464          11.000                                                                  
G20  22795278.465   119789993.656       -2949.272          47.000                                                                  
G13  21951594.386   115356412.725         931.207          46.000                                                                  
G30  26602947.853                        -226.156          19.000                                                                  
G15  23641222.797   124235475.055        2156.747          38.000    23641227.938    96806896.525        1680.218          37.000  
G25  24668746.515   129635137.0572      -2444.319          30.000    24668763.944   101014465.430       -1905.049          35.000  
G29  24386032.925   128149470.435        1916.170          41.000    24386037.289    99856742.186        1492.831          37.000  
> 2025 04 04 10 37 20.0040000  0 10                     
G05  21956856.126   115384060.371       -1698.334          44.000    21956856.912    89909669.560       -1323.431          43.000  
G06  24889937.370   130797491.336       -2623.138          34.000    24889949.629   101920184.488       -2043.915          39.000  
G12  24339792.160   127906464.662       -3579.898          28.000    24339797.607    99667401.334       -2788.105          35.000  
G11  23197751.005   121905002.894       -1778.205          44.000    23197754.017    94990924.598       -1385.613          40.000  
G20  22795838.341   119792936.246       -2944.529          47.000                                                                  
G13  21951416.119   115355475.354         935.083          46.000                                                                  
G30  26602990.205                        -226.156          19.000                                                                  
G15  23640811.144   124233312.133        2160.416          39.000    23640816.365    96805211.103        1683.971          38.000  
G25  24669211.643   129637575.3952      -2438.075          29.000    24669227.958   101016365.545       -1901.886          35.000  
G29  24385667.027   128147547.863        1920.539          41.000    24385671.514    99855244.099        1496.846          37.000  
> 2025 04 04 10 37 21.0040000  0 10                     
G05  21957179.187   115385755.2973      -1689.667          44.000    21957179.930    89910981.2461      -1317.627          43.000  
G06  24890436.245   130800124.8923      -2612.244          34.000    24890448.463   101922224.9951      -2037.732          40.000  
G12  24340472.000                       -3572.288          33.000    24340478.659    99670191.1441      -2783.754          33.000  
G11  23198089.097   121906780.2663      -1769.770          44.000    23198092.337    94992310.1531      -1379.416          40.000  
G20  22796398.521   119795882.1113      -2935.235          47.000                                                                  
G13  21951238.007   115354534.2153        944.208          46.000                                                                  
G30  26603032.883                        -226.156          18.000                                                                  
G15  23640399.756   124231138.6723       2170.067          39.000    23640405.101    96803506.5091       1688.966          39.000  
G25  24669683.384                       -2433.810          29.000    24669692.332   101018265.5271      -1897.961          31.000  
G29  24385301.341   128145622.8103       1928.203          43.000    24385305.974    99853750.7621       1504.051          36.000  
> 2025 04 04 10 37 22.0040000  0 10                     
G05  21957501.508   115387448.9482      -1692.712          44.000    21957502.164    89912300.985       -1318.994          43.000  
G06  24890934.310   130802741.6822      -2614.716          31.000    24890946.582   101924264.391       -2037.836          36.000  
G12  24341151.871   127913615.8203      -3572.292          35.000    24341158.645    99672975.609       -2783.233          35.000  
G11  23198426.511   121908553.1732      -1771.990          45.000    23198429.769    94993691.639       -1380.869          41.000  
G20  22796957.879   119798821.5162      -2938.576          47.000                                                                  
G13  21951059.215   115353594.5292        940.607          46.000                                                                  
G30  26603074.337                        -226.156          19.000                                                                  
G15  23639987.714   124228972.8802       2166.456          40.000    23639992.896    96801818.825        1688.269          39.000  
G25  24670146.912   129642496.6893      -2434.969          38.000    24670155.919   101020163.497       -1897.020          34.000  
G29  24384934.876   128143697.4032       1926.345          42.000    24384939.634    99852250.447        1500.943          36.000  
> 2025 04 04 10 37 23.0040000  0 10                     
G05  21957823.813   115389142.9212      -1694.311          43.000    21957824.395    89913620.953       -1320.190          43.000  
G06  24891431.443   130805354.1383      -2616.644          30.000    24891444.718   101926303.898       -2039.423          40.000  
G12  24341833.996   127917200.5333      -3574.203          37.000    24341838.674    99675760.319       -2784.726          36.000  
G11  23198763.964   121910326.2412      -1772.950          44.000    23198767.161    94995073.240       -1381.399          40.000  
G20  22797517.256   119801760.9002      -2939.251          47.000                                                                  
G13  21950880.360   115352655.3312        938.788          46.000                                                                  
G30  26603117.782                        -216.146          17.000                                                                  
G15  23639575.611   124226807.2802       2165.814          40.000    23639580.798    96800131.372        1687.531          39.000  
G25  24670609.704   129644928.8593      -2436.364          40.000    24670619.636   101022061.808       -1898.625          31.000  
G29  24384568.435   128141772.1552       1925.323          42.000    24384573.267    99850750.286        1500.534          36.000  
> 2025 04 04 10 37 24.0040000  0 10                     
G05  21958145.997   115390836.2412      -1691.840          43.000    21958146.656    89914940.431       -1318.335          43.000  
G06  24891929.968   130807970.7782      -2614.703          34.000    24891942.743   101928342.850       -2037.805          40.000  
G12  24342513.610   127920771.4592      -3571.314          38.000    24342518.517    99678544.415       -2782.792          35.000  
G11  23199101.276   121912098.5242      -1770.637          45.000    23199104.471    94996454.227       -1379.365          40.000  
G20  22798076.424   119804699.4412      -2936.838          47.000                                                                  
G13  21950701.414   115351715.6992        941.119          46.000                                                                  
G30  26603157.592                        -216.146          18.000                                                                  
G15  23639163.325   124224641.0312       2167.795          40.000    23639168.459    96798443.376        1689.473          39.000  
G25  24671075.840   129647378.4432      -2434.122          35.000    24671083.181   101023959.683       -1896.402          32.000  
G29  24384201.916   128139846.2682       1927.472          42.000    24384206.770    99849249.602        1501.719          36.000  
> 2025 04 04 10 37 25.0040000  0 10                     
G05  21958468.670   115392531.0683      -1692.963          43.000    21958469.201    89916261.081       -1319.287          43.000  
G06  24892430.882   130810606.7353      -2615.784          34.000    24892440.893   101930382.800       -2038.330          40.000  
G12  24343193.688   127924345.7103      -3572.170          38.000    24343198.841    99681329.5621      -2783.709          35.000  
G11  23199438.993   121913874.0823      -1770.859          45.000    23199441.888    94997836.272       -1379.944          40.000  
G20  22798636.071   119807641.1563      -2936.832          47.000                                                                  
G13  21950523.146   115350776.7413        939.728          46.000                                                                  
G30  26603198.392                        -216.146          19.000                                                                  
G15  23638751.457   124222476.6673       2167.366          40.000    23638756.366    96796756.476        1688.731          40.000  
G25  24671539.889   129649816.5413      -2434.660          34.000    24671546.951   101025858.761       -1897.960          33.000  
G29  24383835.821   128137921.7573       1926.424          42.000    24383840.457    99847749.970        1501.719          36.000  
