     3.04           OBSERVATION DATA    M: Mixed            RINEX VERSION / TYPE
RTKCONV demo5 b34i                      20250404 104854 UTC PGM / RUN BY / DATE 
format: u-blox UBX                                          COMMENT             
log: D:\20242\demo5_b34i\data\HoDenLu\rieng\hdl2_0m.ubx     COMMENT             
                                                            MARKER NAME         
                                                            MARKER NUMBER       
                                                            MARKER TYPE         
                                                            OBSERVER / AGENCY   
                                                            REC # / TYPE / VERS 
                                                            ANT # / TYPE        
 -1627738.5846  5730983.9533  2269814.4622                  APPROX POSITION XYZ 
        0.0000        0.0000        0.0000                  ANTENNA: DELTA H/E/N
G    8 C1C L1C D1C S1C C2X L2X D2X S2X                      SYS / # / OBS TYPES 
R    8 C1C L1C D1C S1C C2C L2C D2C S2C                      SYS / # / OBS TYPES 
E    8 C1X L1X D1X S1X C7X L7X D7X S7X                      SYS / # / OBS TYPES 
  2025    04    04    10    33   36.9990000     GPS         TIME OF FIRST OBS   
  2025    04    04    10    48   43.0000000     GPS         TIME OF LAST OBS    
G L1C                                                       SYS / PHASE SHIFT   
G L2X  0.00000                                              SYS / PHASE SHIFT   
R L1C                                                       SYS / PHASE SHIFT   
R L2C                                                       SYS / PHASE SHIFT   
E L1X  0.00000                                              SYS / PHASE SHIFT   
E L7X  0.00000                                              SYS / PHASE SHIFT   
  7 R05  1 R06 -4 R07  5 R20  2 R21  4 R22 -3 R27 -5        GLONASS SLOT / FRQ #
 C1C    0.000 C1P    0.000 C2C    0.000 C2P    0.000        GLONASS COD/PHS/BIS 
                                                            END OF HEADER       
> 2025 04 04 10 33 36.9990000  0 21                     
G25  23388648.631   122908169.4041      -1917.285          34.000    23388679.798    95772671.9491      -1493.750          29.000  
G11  21944259.961   115317853.0061      -1305.018          47.000    21944282.593    89858175.0401      -1017.006          41.000  
G05  20707557.339   108818936.1961      -1186.254          43.000    20707578.378    84794056.4541       -924.220          38.000  
G06  23600657.303   124022283.8401      -2147.327          39.000    23600692.003    96640906.8341      -1673.077          41.000  
G13  20814714.698   109382083.3341       1485.496          41.000                                                                  
R21  20438653.770   109371359.1191       1008.246          48.000    20438673.286    85066702.3931        784.161          42.000  
R05  23329900.340                       -5026.953          22.000    23329882.213    96997892.5061      -3909.851          33.000  
R06  19152674.238   102202315.0081      -1880.035          37.000                                                                  
R07  20067504.047   107422916.2201       1802.062          49.000    20067524.449    83551245.1011       1401.693          44.000  
G12  23010047.108   120918618.4461      -3097.220          38.000    23010076.397    94222382.5491      -2413.692          32.000  
G15  22554876.074   118526690.8671       2652.670          36.000    22554900.134    92358570.8521       2066.750          32.000  
G29  23289488.573   122387079.2701       2410.653          33.000    23289513.739    95366666.3661       1878.191          29.000  
G20  21492441.497   112943548.2061      -2489.800          45.000                                                                  
R20  21161734.140   113161299.3511      -1593.362          34.000    21161766.359    88014449.0161      -1239.666          40.000  
E03  23821389.751   125182255.8961         32.390          45.000    23821421.596    95918994.7711         24.743          47.000  
E08  25711465.188   135114579.1081       1906.002          26.000    25711486.369                        1462.292          20.000  
E15  24871641.908   130701362.4261        -47.384          42.000    24871674.431   100147941.9281        -36.218          38.000  
E05  24495340.317   128723872.0861      -2414.560          40.000    24495378.699    98632736.0971      -1850.119          41.000  
E34  25109734.907   131952545.8291      -1124.570          46.000    25109769.377   101106651.9941       -862.001          38.000  
E27  26178612.981   137569515.5581      -1526.740          37.000    26178652.486   105410591.5581      -1169.727          32.000  
E30  26206402.210   137715620.0971      -3072.977          31.000    26206433.089   105522450.9861      -2354.338          34.000  
> 2025 04 04 10 33 37.9990000  0 21                     
G25  23389013.585   122910087.257       -1917.896          34.000    23389047.412    95774166.424       -1494.678          29.000  
G11  21944508.375   115319158.428       -1305.761          45.000    21944530.920    89859192.228       -1017.608          41.000  
G05  20707783.178   108820122.748       -1186.779          44.000    20707804.195    84794981.063        -925.388          39.000  
G06  23601065.978   124024431.522       -2148.157          39.000    23601100.610    96642580.356       -1673.853          41.000  
G13  20814432.026   109380598.343        1484.352          40.000                                                                  
R21  20438465.449   109370351.258        1007.367          49.000    20438484.797    85065918.528         783.612          43.000  
R05  23330837.398                       -5020.620          23.000    23330822.431    97001802.012       -3910.158          32.000  
R06  19153026.664   102204195.651       -1881.270          37.000                                                                  
R07  20067167.439   107421114.677        1800.961          49.000    20067187.829    83549843.892        1400.803          44.000  
G12  23010636.591   120921715.738       -3097.715          39.000    23010665.746    94224796.009       -2413.157          32.000  
G15  22554371.555   118524038.777        2651.455          36.000    22554395.425    92356504.285        2066.127          32.000  
G29  23289029.936   122384669.472        2409.730          31.000    23289055.056    95364788.623        1877.040          28.000  
G20  21492915.353   112946038.319       -2490.469          45.000                                                                  
R20  21162032.038   113162893.534       -1595.276          34.000    21162064.526    88015688.900       -1240.032          41.000  
E03  23821383.762   125182224.029          31.316          45.000    23821415.407    95918970.368          23.958          47.000  
E08  25711102.662                        1906.675          25.000    25711124.270                        1465.065          18.000  
E15  24871651.054   130701410.062         -48.066          42.000    24871683.719   100147978.441         -36.802          37.000  
E05  24495800.017   128726287.139       -2415.354          39.000    24495838.349    98634586.613       -1850.987          41.000  
E34  25109948.936   131953670.718       -1125.085          46.000    25109983.391   101107513.871        -862.200          37.000  
E27  26178903.716   137571042.847       -1527.756          38.000    26178943.090   105411761.814       -1170.585          34.000  
E30  26206986.364   137718693.251       -3074.157          30.000    26207017.896   105524805.781       -2355.099          34.000  
> 2025 04 04 10 33 38.9990000  0 21                     
G25  23389378.567   122912006.187       -1919.458          34.000    23389412.413    95775661.579       -1495.593          29.000  
G11  21944757.013   115320464.528       -1306.275          45.000    21944779.485    89860209.942       -1017.860          41.000  
G05  20708009.130   108821310.163       -1187.656          44.000    20708030.069    84795906.289        -925.873          38.000  
G06  23601474.812   124026579.876       -2148.157          39.000    23601509.440    96644254.410       -1674.445          40.000  
G13  20814149.720   109379114.368        1483.273          39.000                                                                  
R21  20438277.315   109369344.168        1006.805          48.000    20438296.555    85065135.249         783.099          43.000  
R05  23331777.501                       -5027.293          23.000    23331762.760    97005712.084       -3909.992          32.000  
R06  19153379.354   102206077.678       -1882.746          37.000                                                                  
R07  20066831.245   107419314.415        1799.610          46.000    20066851.565    83548443.737        1400.098          39.000  
G12  23011226.160   120924813.838       -3098.502          43.000    23011255.226    94227210.055       -2414.615          39.000  
G15  22553867.261   118521387.458        2651.433          34.000    22553890.979    92354438.437        2065.144          31.000  
G29  23288571.566   122382260.545        2408.391          36.000    23288596.746    95362911.442        1876.867          29.000  
G20  21493389.314   112948529.069       -2490.997          46.000                                                                  
R20  21162330.351   113164488.692       -1595.437          34.000    21162362.994    88016929.598       -1241.236          42.000  
E03  23821377.869   125182193.139          30.350          45.000    23821409.450    95918946.704          23.393          47.000  
E15  24871660.094   130701458.153         -48.187          42.000    24871692.921   100148015.309         -37.092          37.000  
E05  24496259.429   128728703.120       -2416.609          39.000    24496298.079    98636437.845       -1851.573          41.000  
E34  25110163.040   131954796.171       -1125.659          45.000    25110197.636   101108376.249        -862.634          38.000  
E27  26179194.842   137572571.055       -1528.590          37.000    26179233.940   105412932.827       -1171.208          34.000  
E30  26207571.203   137721767.272       -3073.979          32.000    26207603.107   105527161.007       -2355.875          29.000  
E08                                                                  25710760.163                        1469.206          18.000  
> 2025 04 04 10 33 39.9990000  0 21                     
G25  23389743.634   122913925.801       -1920.422          35.000    23389779.625    95777157.390       -1495.886          30.000  
G11  21945005.689   115321771.270       -1307.082          44.000    21945028.183    89861228.192       -1018.888          42.000  
G05  20708235.193   108822498.434       -1189.058          45.000    20708256.047    84796832.163        -925.909          39.000  
G06  23601883.758   124028728.901       -2149.463          39.000    23601918.230    96645928.976       -1674.841          39.000  
G13  20813867.484   109377631.343        1482.284          41.000                                                                  
R21  20438089.182   109368337.827        1005.853          48.000    20438108.532    85064352.541         782.312          43.000  
R05  23332717.479                       -5033.580          22.000    23332703.383    97009622.722       -3910.623          32.000  
R06  19153732.436   102207961.088       -1884.139          37.000                                                                  
R07  20066495.081   107417515.345        1798.383          47.000    20066515.541    83547044.541        1398.497          43.000  
G12  23011815.805   120927912.601       -3098.897          44.000    23011844.795    94229624.711       -2414.911          40.000  
G15  22553362.973   118518736.783        2650.004          37.000    22553386.441    92352372.886        2065.567          29.000  
G29  23288113.470   122379852.253        2407.559          34.000    23288138.492    95361034.952        1875.729          33.000  
G20  21493863.394   112951020.370       -2491.612          46.000                                                                  
R20  21162628.943   113166084.793       -1596.395          32.000    21162661.415    88018171.012       -1241.743          44.000  
E03  23821372.205   125182163.181          29.352          46.000    23821403.761    95918923.758          22.255          46.000  
E08  25710369.481   135108902.8381       1903.966          28.000    25710396.128                        1461.773          18.000  
E15  24871669.485   130701506.657         -48.911          43.000    24871701.804   100148052.392         -36.931          32.000  
E05  24496719.250   128731120.001       -2417.188          39.000    24496758.017    98638289.760       -1852.568          39.000  
E34  25110377.248   131955922.155       -1126.364          45.000    25110411.852   101109239.002        -862.835          40.000  
E27  26179485.545   137574100.073       -1529.608          37.000    26179525.016   105414104.389       -1171.161          32.000  
E30  26208155.676   137724841.592       -3073.417          29.000    26208188.399   105529516.651       -2355.996          36.000  
> 2025 04 04 10 33 40.9990000  0 21                     
G25  23390109.009   122915846.372       -1921.393          35.000    23390147.631    95778653.919       -1497.327          29.000  
G11  21945254.439   115323078.653       -1307.729          45.000    21945277.063    89862246.924       -1019.096          42.000  
G05  20708461.440   108823687.506       -1189.797          43.000    20708482.337    84797758.762        -927.459          39.000  
G06  23602292.816   124030878.623       -2149.957          41.000    23602327.296    96647604.013       -1674.805          39.000  
G13  20813585.529   109376149.382        1481.322          43.000                                                                  
R21  20437901.192   109367332.260        1004.956          48.000    20437920.661    85063570.429         780.884          41.000  
R05  23333654.352                       -5029.634          23.000    23333644.137    97013533.825       -3910.862          33.000  
R06  19154085.701   102209845.827       -1885.348          37.000                                                                  
R07  20066159.161   107415717.454        1797.257          47.000    20066179.552    83545646.182        1397.853          44.000  
G12  23012405.543   120931012.042       -3099.843          43.000    23012434.515    94232039.872       -2415.432          39.000  
G15  22552858.434   118516086.933        2649.187          37.000    22552882.175    92350308.094        2064.684          34.000  
G29  23287655.241   122377444.620        2407.278          31.000    23287680.299    95359158.828        1875.228          30.000  
G20  21494337.497   112953512.271       -2492.523          46.000                                                                  
R20  21162927.735   113167681.764       -1597.859          30.000    21162960.236    88019413.171       -1242.624          44.000  
E03  23821366.723   125182134.179          28.296          45.000    23821398.172    95918901.546          21.666          46.000  
E08  25710005.576   135106999.153        1904.307          28.000    25710036.992   103523664.7941       1458.460          29.000  
E15  24871678.491   130701555.632         -48.991          41.000    24871710.941   100148089.982         -38.303          36.000  
E05  24497179.537   128733537.786       -2418.368          39.000    24497218.212    98640142.316       -1852.996          39.000  
E34  25110591.879   131957048.691       -1127.006          45.000    25110626.304   101110102.211        -863.692          40.000  
E27  26179776.910   137575630.035       -1530.278          37.000    26179816.097   105415276.731       -1172.673          32.000  
E30                                                                  26208773.414   105531872.854       -2356.877          32.000  
> 2025 04 04 10 33 41.9990000  0 21                     
G25  23390474.662   122917768.147       -1923.505          36.000    23390511.934    95780151.446       -1497.943          28.000  
G11  21945503.417   115324387.049       -1309.459          46.000    21945526.046    89863266.443       -1020.216          41.000  
G05  20708687.960   108824877.743       -1191.265          43.000    20708708.922    84798686.208        -928.106          41.000  
G06  23602701.909   124033029.240       -2151.215          41.000    23602736.534    96649279.893       -1676.483          39.000  
G13  20813303.684   109374668.514        1479.711          44.000                                                                  
R21  20437713.342   109366327.768        1003.864          47.000    20437732.928    85062789.139         780.554          41.000  
R05  23334594.262                       -5027.995          23.000    23334585.122    97017445.746       -3913.132          31.000  
R06  19154439.390   102211732.236       -1887.594          37.000                                                                  
R07  20065823.537   107413921.026        1795.173          44.000    20065843.935    83544248.997        1396.239          39.000  
G12  23012995.525   120934112.521       -3101.350          45.000    23013024.460    94234455.791       -2416.573          37.000  
G15  22552354.201   118513438.040        2648.106          35.000    22552377.992    92348244.052        2063.676          31.000  
G29  23287197.093   122375038.125        2406.146          37.000    23287222.314    95357283.610        1875.892          31.000  
G20  21494811.790   112956005.046       -2493.571          47.000                                                                  
R20  21163226.650   113169280.155       -1600.511          31.000    21163259.152    88020656.331       -1243.672          42.000  
E03  23821361.376   125182106.433          27.049          43.000    23821392.857    95918880.331          20.578          45.000  
E08  25709641.731   135105096.074        1902.229          29.000    25709673.343   103522206.262        1457.107          27.000  
E15  24871688.314   130701605.386         -50.249          42.000    24871720.388   100148128.090         -38.380          36.000  
E05  24497639.825   128735956.802       -2420.158          39.000    24497678.671    98641995.862       -1854.228          40.000  
E34  25110806.450   131958176.081       -1128.174          44.000    25110840.753   101110966.015        -864.354          39.000  
E27  26180068.540   137577161.163       -1531.943          36.000    26180107.583   105416449.877       -1173.983          32.000  
E30  26209329.349   137730955.2641      -3076.180          31.000    26209358.458   105534229.605       -2357.830          35.000  
> 2025 04 04 10 33 42.9990000  0 21                     
G25  23390840.438   122919691.551       -1923.505          35.000    23390877.195    95781650.280       -1499.298          28.000  
G11  21945752.637   115325696.805       -1310.079          46.000    21945775.233    89864287.040       -1021.108          41.000  
G05  20708914.808   108826069.549       -1192.034          43.000    20708935.793    84799614.909        -929.123          40.000  
G06  23603111.476   124035181.331       -2152.313          41.000    23603146.063    96650956.828       -1677.130          39.000  
G13  20813022.204   109373189.555        1478.441          45.000                                                                  
R21  20437525.863   109365324.752        1002.667          48.000    20437545.578    85062009.024         779.749          42.000  
R05  23335534.669                       -5031.816          25.000    23335526.250    97021358.708       -3913.578          30.000  
R06  19154793.248   102213620.737       -1889.126          37.000                                                                  
R07  20065488.373   107412126.644        1793.819          44.000    20065508.757    83542853.333        1395.372          40.000  
G12  23013586.019   120937214.503       -3102.312          45.000    23013614.723    94236872.895       -2417.172          37.000  
G15  22551850.179   118510790.692        2647.636          35.000    22551874.248    92346181.190        2062.619          32.000  
G29  23286739.318   122372633.040        2404.535          36.000    23286764.632    95355409.535        1873.279          31.000  
G20  21495286.366   112958499.137       -2494.240          46.000                                                                  
R20  21163526.030   113170880.176       -1600.696          31.000    21163558.336    88021900.799       -1244.785          41.000  
E03  23821356.537   125182080.417          25.710          44.000    23821388.013    95918860.384          19.719          45.000  
E08  25709279.495   135103194.528        1901.439          30.000    25709310.823   103520749.285        1456.173          27.000  
E15  24871698.107   130701656.318         -50.915          42.000    24871729.901   100148167.116         -39.282          35.000  
E05  24498100.351   128738377.443       -2421.154          39.000    24498139.546    98643850.607       -1854.868          39.000  
E34  25111021.130   131959304.758       -1128.858          45.000    25111055.552   101111830.844        -864.817          39.000  
E27  26180359.965   137578693.922       -1533.124          38.000    26180399.429   105417624.339       -1174.079          32.000  
E30  26209912.697   137734032.524       -3078.239          31.000    26209944.150   105536587.478       -2357.727          35.000  
> 2025 04 04 10 33 43.9990000  0 21                     
G25  23391206.522   122921616.024       -1925.446          34.000    23391242.529    95783149.858       -1499.554          28.000  
G11  21946002.091   115327007.383       -1310.645          46.000    21946024.628    89865308.239       -1021.112          41.000  
G05  20709141.872   108827262.383       -1193.154          43.000    20709162.667    84800544.404        -929.735          40.000  
G06  23603521.166   124037334.189       -2152.924          40.000    23603555.661    96652634.365       -1677.374          39.000  
G13  20812740.900   109371711.749        1477.415          45.000                                                                  
R21  20437338.568   109364322.613        1001.923          47.000    20437358.428    85061229.570         779.370          41.000  
R05  23336475.256                       -5031.483          24.000    23336467.630    97025272.302       -3913.658          30.000  
R06  19155147.667   102215510.718       -1890.148          38.000                                                                  
R07  20065153.386   107410333.588        1792.842          44.000    20065173.831    83541458.778        1394.274          40.000  
G12  23014176.460   120940317.289       -3102.776          45.000    23014205.097    94239290.658       -2418.248          37.000  
G15  22551346.521   118508144.258        2646.464          35.000    22551370.622    92344119.097        2060.681          32.000  
G29  23286281.712   122370228.832        2404.252          35.000    23286307.236    95353536.121        1873.200          32.000  
G20  21495761.137   112960993.994       -2494.936          46.000                                                                  
R20  21163825.469   113172481.241       -1601.563          32.000    21163857.840    88023146.126       -1245.570          43.000  
E03  23821351.557   125182055.466          24.712          43.000    23821383.255    95918841.274          19.066          44.000  
E08  25708918.084   135101293.958        1900.628          31.000    25708953.682   103519293.027        1455.520          26.000  
E15  24871707.724   130701707.848         -51.551          42.000    24871739.562   100148206.587         -39.627          35.000  
E05  24498561.092   128740799.129       -2421.624          39.000    24498600.689    98645706.168       -1855.487          39.000  
E34  25111236.001   131960434.097       -1129.336          45.000    25111270.432   101112696.195        -865.308          40.000  
E27  26180651.669   137580227.696       -1533.906          38.000    26180691.232   105418799.581       -1175.309          32.000  
E30  26210504.105   137737110.432       -3077.828          31.000    26210529.833   105538945.922       -2358.563          35.000  
> 2025 04 04 10 33 44.9990000  0 21                     
G25  23391572.725   122923540.833       -1925.366          35.000    23391608.724    95784649.713       -1499.866          28.000  
G11  21946251.649   115328318.063       -1310.238          46.000    21946274.119    89866329.598       -1020.984          42.000  
G05  20709368.970   108828455.492       -1193.210          44.000    20709389.773    84801474.103        -929.863          40.000  
G06  23603930.736   124039487.187       -2152.869          41.000    23603965.343    96654312.034       -1677.411          38.000  
G13  20812459.728   109370234.511        1476.924          43.000                                                                  
R21  20437151.327   109363320.678        1001.129          48.000    20437171.158    85060450.283         779.608          41.000  
R05  23337416.013                       -5032.761          25.000    23337408.881    97029185.977       -3912.840          31.000  
R06  19155502.010   102217401.515       -1891.238          38.000                                                                  
R07  20064818.523   107408541.305        1791.486          44.000    20064838.963    83540064.785        1394.026          44.000  
G12  23014766.978   120943420.255       -3102.977          44.000    23014795.414    94241708.577       -2417.805          37.000  
G15  22550842.861   118505497.982        2646.445          36.000    22550867.018    92342057.073        2061.252          33.000  
G29  23285824.218   122367824.761        2404.319          35.000    23285849.790    95351662.765        1873.587          31.000  
G20  21496235.908   112963488.907       -2495.367          45.000                                                                  
R20  21164124.996   113174082.846       -1602.278          33.000    21164157.282    88024391.748       -1245.182          43.000  
E03  23821346.969   125182030.925          24.303          45.000    23821378.390    95918822.450          18.655          46.000  
E08  25708557.002   135099393.782        1900.016          35.000    25708589.992   103517837.197        1455.623          32.000  
E15  24871717.681   130701759.293         -51.573          42.000    24871749.280   100148246.035         -39.868          36.000  
E05  24499021.950   128743221.102       -2422.433          39.000    24499061.768    98647562.080       -1856.619          40.000  
E34  25111450.879   131961563.469       -1129.452          44.000    25111485.322   101113561.622        -865.687          40.000  
E27  26180943.382   137581761.795       -1534.006          40.000    26180983.279   105419975.074       -1175.495          35.000  
E30  26211093.615   137740188.487       -3079.271          27.000    26211115.599   105541304.370       -2358.447          32.000  
> 2025 04 04 10 33 45.9990000  0 21                     
G25  23391939.129   122925466.206       -1926.056          36.000    23391975.112    95786149.982       -1501.050          28.000  
G11  21946501.096   115329629.017       -1311.882          45.000    21946523.610    89867351.134       -1021.181          42.000  
G05  20709596.199   108829649.064       -1193.833          44.000    20709616.818    84802404.142        -930.000          38.000  
G06  23604340.518   124041640.419       -2152.924          41.000    23604374.937    96655989.836       -1678.198          41.000  
G13  20812178.625   109368757.653        1476.344          48.000                                                                  
R21  20436964.157   109362318.989        1001.379          48.000    20436983.962    85059671.245         778.900          42.000  
R05  23338356.397                       -5033.984          24.000    23338350.352    97033099.887       -3913.945          33.000  
R06  19155856.557   102219293.230       -1892.025          37.000                                                                  
R07  20064483.940   107406749.731        1790.566          44.000    20064504.341    83538671.323        1393.281          43.000  
G12  23015357.462   120946523.543       -3103.674          43.000    23015385.959    94244126.766       -2417.994          38.000  
G15  22550339.396   118502852.026        2646.040          37.000    22550363.565    92339995.255        2061.710          31.000  
G29  23285366.836   122365421.083        2403.632          36.000    23285392.433    95349789.756        1873.636          31.000  
G20  21496710.746   112965983.906       -2495.190          46.000                                                                  
R20  21164424.769   113175684.829       -1601.703          34.000    21164456.801    88025637.711       -1246.045          41.000  
E03  23821342.270   125182006.974          24.074          40.000    23821373.966    95918804.134          18.123          42.000  
E15  24871727.231   130701810.778         -51.616          42.000    24871759.160   100148285.532         -39.297          34.000  
E05  24499482.989   128745643.604       -2422.490          38.000    24499522.931    98649418.335       -1857.771          38.000  
E34  25111665.955   131962692.973       -1130.306          43.000    25111700.346   101114427.084        -865.660          38.000  
E27  26181235.335   137583296.391       -1534.801          40.000    26181275.303   105421150.940       -1177.105          34.000  
E30  26211673.241                       -3077.990          26.000    26211701.405   105543662.939       -2358.346          35.000  
E08                                                                  25708224.653   103516381.316        1454.846          28.000  
> 2025 04 04 10 33 46.9990000  0 21                     
G25  23392305.586   122927391.873       -1926.141          28.000    23392341.666    95787650.507       -1500.684          29.000  
G11  21946750.615   115330940.147       -1311.568          41.000    21946773.146    89868373.016       -1025.810          25.000  
G05  20709823.452   108830843.081       -1194.225          44.000    20709843.956    84803334.542        -930.444          38.000  
G06  23604750.268   124043793.895       -2153.387          32.000    23604784.782    96657667.899       -1678.259          34.000  
G13  20811897.603   109367281.438        1475.873          47.000                                                                  
R21  20436777.080   109361317.723        1001.178          48.000    20436796.846    85058892.501         778.418          42.000  
R05  23339296.778                       -5035.036          23.000    23339291.881    97037013.973       -3913.673          32.000  
R06  19156211.142   102221185.898       -1892.911          38.000                                                                  
R07  20064149.392   107404958.739        1789.725          42.000    20064169.801    83537278.380        1391.956          34.000  
G12  23015948.077   120949627.165       -3103.687          42.000    23015976.554    94246545.182       -2418.696          39.000  
G15  22549835.991   118500206.354        2645.547          36.000    22549860.066    92337933.654        2062.054          31.000  
G29  23284909.486   122363017.691        2402.610          36.000    23284934.995    95347916.972        1872.274          31.000  
G20  21497185.486   112968479.146       -2495.755          46.000                                                                  
R20  21164724.420   113177287.454       -1603.101          29.000    21164756.620    88026884.263       -1246.736          40.000  
E03  23821338.152   125181983.514          22.961          45.000    23821369.479    95918786.122          17.604          46.000  
E08  25707830.000   135095557.6281       1899.724          32.000    25707862.661   103514925.405        1455.735          29.000  
E15  24871736.873   130701862.271         -51.382          41.000    24871769.187   100148325.052         -39.753          36.000  
E05  24499944.168   128748066.591       -2423.606          36.000    24499984.186    98651274.920       -1857.047          36.000  
E34  25111880.927   131963822.552       -1130.077          41.000    25111915.297   101115292.704        -866.644          24.000  
E27  26181527.702   137584831.485       -1535.724          40.000    26181567.279   105422327.174       -1176.233          32.000  
E30  26212250.173                       -3078.767          26.000    26212287.258   105546021.719       -2359.304          35.000  
> 2025 04 04 10 33 47.9990000  0 21                     
G25  23392672.019   122929318.261       -1926.300          32.000    23392708.191    95789151.519       -1502.100          28.000  
G11  21947000.144   115332251.746       -1311.582          40.000    21947022.485    89869394.736       -1021.935          38.000  
G05  20710050.691   108832037.678       -1194.948          43.000    20710071.214    84804265.434        -930.763          40.000  
G06  23605160.162   124045947.890       -2153.876          42.000    23605194.722    96659346.323       -1678.619          39.000  
G13  20811616.856   109365805.985        1475.064          44.000                                                                  
R21  20436590.065   109360316.865        1000.745          47.000    20436609.796    85058114.004         777.722          39.000  
R05  23340238.174                       -5028.473          22.000    23340233.384    97040928.401       -3915.530          31.000  
R06  19156566.107   102223079.648       -1894.545          38.000                                                                  
R07  20063815.008   107403168.948        1789.520          48.000    20063835.535    83535886.239        1391.609          45.000  
G12  23016538.803   120952731.168       -3104.236          41.000    23016567.258    94248963.880       -2418.577          37.000  
G15  22549332.713   118497561.199        2644.820          41.000    22549356.739    92335872.493        2060.952          37.000  
G29  23284452.092   122360614.821        2401.583          35.000    23284477.778    95346044.509        1872.883          32.000  
G20  21497660.346   112970974.656       -2495.750          45.000                                                                  
R20  21165024.466   113178890.875       -1602.938          32.000    21165056.441    88028131.338       -1246.812          41.000  
E03  23821333.530   125181960.778          22.363          45.000    23821365.301    95918768.700          17.322          45.000  
E08  25707467.036   135093657.903        1899.674          35.000    25707501.352   103513469.636        1455.528          31.000  
E15  24871747.158   130701914.011         -51.542          43.000    24871779.030   100148364.569         -39.640          35.000  
E05  24500405.265   128750490.238       -2424.608          30.000    24500445.659    98653131.983       -1856.188          36.000  
E34  25112095.489   131964952.445       -1129.816          39.000    25112130.404   101116158.255        -865.035          35.000  
E27  26181820.188   137586367.184       -1535.941          40.000    26181859.394   105423503.880       -1177.333          33.000  
E30  26212826.550   137749332.4271      -3078.909          31.000    26212872.801   105548380.793       -2359.204          35.000  
> 2025 04 04 10 33 48.9990000  0 21                     
G25  23393038.854   122931245.375       -1927.258          32.000    23393074.062    95790727.2381      -1501.300          27.000  
G11  21947249.734   115333563.777       -1312.095          46.000    21947272.116    89870417.135       -1021.823          40.000  
G05  20710278.091   108833232.894       -1195.389          44.000    20710298.628    84805196.724        -931.361          39.000  
G06  23605570.050   124048102.268       -2154.633          42.000    23605604.747    96661025.099       -1678.583          38.000  
G13  20811336.201   109364331.388        1474.159          37.000                                                                  
R21  20436403.121   109359316.668        1000.073          46.000    20436422.910    85057336.083         777.509          40.000  
R05  23341179.413                       -5027.105          21.000    23341175.172    97044843.456       -3918.949          23.000  
R06  19156921.172   102224974.515       -1895.639          37.000                                                                  
R07  20063480.854   107401380.122        1788.485          48.000    20063501.410    83534494.901        1391.072          46.000  
G12  23017129.662   120955835.747       -3105.033          41.000    23017157.963    94251382.992       -2418.695          37.000  
G15  22548829.408   118494916.542        2644.607          41.000    22548853.428    92333811.718        2060.614          39.000  
G29  23283994.931   122358212.391        2402.554          32.000    23284020.706    95344172.633        1871.127          31.000  
G20  21498135.464   112973470.674       -2495.974          45.000                                                                  
R20  21165324.663   113180502.0393      -1605.276          32.000    21165356.389    88029378.992       -1248.055          44.000  
E03  23821329.486   125181938.761          21.420          45.000    23821361.030    95918751.822          16.593          46.000  
E08  25707105.930   135091758.700        1898.446          32.000    25707140.210   103512014.532        1455.201          31.000  
E15  24871757.063   130701965.949         -51.929          45.000    24871788.761   100148404.391         -40.462          37.000  
E05  24500867.021   128752914.673       -2424.623          38.000    24500906.739    98654989.640       -1858.297          40.000  
E34  25112310.290   131966082.698       -1130.138          44.000    25112345.505   101117024.372        -865.716          39.000  
E27  26182112.733   137587903.519       -1536.230          38.000    26182151.663   105424681.064       -1177.582          32.000  
E30  26213414.887   137752411.441       -3079.676          31.000    26213458.501   105550740.067       -2359.379          38.000  
> 2025 04 04 10 33 49.9990000  0 21                     
G25  23393404.902   122933172.4723      -1929.211          32.000    23393440.883                       -1502.485          27.000  
G11  21947499.475   115334876.317       -1312.559          45.000    21947521.902    89871439.921       -1022.745          41.000  
G05  20710505.773   108834428.859       -1195.969          45.000    20710526.209    84806128.639        -931.929          39.000  
G06  23605980.135   124050257.194       -2154.871          40.000    23606014.810    96662704.220       -1679.053          40.000  
G13  20811055.770   109362857.525        1473.756          43.000                                                                  
R21  20436216.299   109358316.880         999.524          46.000    20436236.226    85056558.481         777.979          40.000  
R05  23342120.180                       -5038.126          21.000    23342117.308    97048772.7553      -3915.407          30.000  
R06  19157276.527   102226870.625       -1896.462          37.000                                                                  
R07  20063146.756   107399592.353        1787.676          45.000    20063167.410    83533104.435        1390.483          39.000  
G12  23017720.494   120958940.878       -3105.135          43.000    23017748.704    94253802.588       -2419.481          39.000  
G15  22548326.200   118492272.518        2644.063          39.000    22548350.243    92331751.441        2060.413          34.000  
G29  23283537.835   122355810.496        2402.757          32.000    23283563.665    95342301.173        1871.326          26.000  
G20  21498610.499   112975966.985       -2496.354          46.000                                                                  
R20  21165624.849   113182106.8912      -1604.865          33.000    21165656.467    88030627.182       -1248.257          41.000  
E03  23821325.426   125181917.581          21.248          45.000    23821356.896    95918735.598          16.302          46.000  
E08  25706746.103   135089860.012        1899.013          33.000    25706779.093   103510559.659        1454.517          31.000  
E15  24871767.071   130702018.241         -51.938          41.000    24871798.736   100148444.513         -39.318          35.000  
E05  24501328.809   128755339.778       -2425.733          36.000    24501368.304    98656847.786       -1858.212          40.000  
E34  25112525.561   131967213.329       -1130.381          45.000    25112560.703   101117890.731        -866.224          39.000  
E27  26182405.399   137589440.744       -1536.644          38.000    26182444.204   105425858.915       -1177.793          33.000  
E30  26213986.117   137755425.9251      -3078.932          26.000    26214044.411   105553099.704       -2359.857          36.000  
> 2025 04 04 10 33 50.9990000  0 21                     
G25  23393769.079   122935100.6042      -1928.595          27.000    23393809.804    95793740.0351      -1503.217          32.000  
G11  21947749.153   115336188.868       -1312.735          46.000    21947771.615    89872462.714       -1022.634          41.000  
G05  20710733.483   108835624.986       -1196.234          44.000    20710753.916    84807060.700        -932.203          40.000  
G06  23606390.261   124052412.145       -2154.706          40.000    23606424.908    96664383.378       -1679.535          40.000  
G13  20810775.447   109361384.087        1474.341          38.000                                                                  
R21  20436029.426   109357317.308         999.597          48.000    20436049.428    85055781.005         777.325          43.000  
R05  23343061.278                       -5034.433          21.000    23343058.550    97052686.8242      -3914.611          30.000  
R06  19157632.006   102228767.456       -1896.948          37.000                                                                  
R07  20062812.885   107397805.178        1787.095          48.000    20062833.630    83531714.399        1389.903          45.000  
G12  23018311.423   120962046.029       -3105.264          41.000    23018339.587    94256222.190       -2419.063          37.000  
G15  22547823.080   118489628.588        2644.027          42.000    22547847.057    92329691.224        2060.432          37.000  
G29  23283080.416   122353408.795        2402.133          32.000    23283106.705    95340429.568        1870.252          30.000  
G20  21499085.525   112978463.348       -2496.344          47.000                                                                  
R20  21165925.009   113183712.039       -1605.697          34.000    21165956.560    88031875.649       -1248.478          39.000  
E03  23821321.296   125181896.679          20.793          44.000    23821352.949    95918719.592          15.862          46.000  
E08  25706391.088   135087961.202        1898.354          32.000    25706417.865   103509104.703        1454.583          30.000  
E15  24871776.914   130702070.400         -51.798          39.000    24871808.741   100148484.482         -40.067          34.000  
E05  24501790.142   128757765.227       -2425.271          38.000    24501830.045    98658706.202       -1858.165          39.000  
E34  25112740.856   131968343.880       -1130.687          45.000    25112775.683   101118756.997        -865.907          39.000  
E27  26182698.350   137590978.053       -1537.487          36.000    26182736.900   105427036.945       -1178.628          32.000  
E30  26214577.652   137758505.492       -3079.265          27.000    26214630.377   105555459.360       -2359.550          36.000  
> 2025 04 04 10 33 51.9990000  0 21                     
G25  23394136.775                       -1933.530          26.000    23394176.177    95795242.932       -1502.960          32.000  
G11  21947999.087   115337501.807       -1313.130          47.000    21948021.509    89873485.757       -1023.277          42.000  
G05  20710961.125   108836821.723       -1197.024          44.000    20710981.653    84807993.210        -932.560          39.000  
G06  23606800.337   124054567.444       -2155.383          41.000    23606834.878    96666062.884       -1679.761          37.000  
G13  20810495.172   109359911.343        1472.473          44.000                                                                  
R21  20435842.818   109356318.145         998.883          48.000    20435862.709    85055003.879         776.904          42.000  
R05  23344001.312                       -5035.696          20.000    23343999.017    97056602.3042      -3914.783          30.000  
R06  19157987.705   102230665.294       -1898.119          38.000                                                                  
R07  20062479.199   107396018.900        1785.795          45.000    20062499.957    83530325.098        1389.044          41.000  
G12  23018902.458   120965151.681       -3105.880          40.000    23018930.449    94258642.169       -2419.947          37.000  
G15  22547320.081   118486985.089        2643.436          39.000    22547344.054    92327631.400        2060.049          36.000  
G29  23282623.552   122351007.561        2401.140          35.000    23282649.578    95338558.220        1871.173          29.000  
G20  21499560.642   112980959.999       -2496.850          47.000                                                                  
R20  21166225.321   113185317.935       -1606.338          29.000    21166256.793    88033124.737       -1249.298          44.000  
E03  23821317.191   125181876.509          19.837          45.000    23821349.340    95918704.145          15.168          46.000  
E08  25706022.857   135086062.866        1897.850          35.000    25706056.808   103507650.180        1453.928          31.000  
E15  24871787.085   130702122.715         -52.325          40.000    24871818.964   100148524.552         -39.951          35.000  
E05  24502251.900   128760191.217       -2426.723          40.000    24502291.502    98660565.153       -1859.362          40.000  
E34  25112956.175   131969474.696       -1130.881          44.000    25112990.656   101119623.440        -866.418          39.000  
E27  26182991.298   137592516.018       -1538.708          36.000    26183029.630   105428215.309       -1178.439          30.000  
E30  26215167.518   137761585.331       -3080.010          28.000    26215216.172   105557819.226       -2359.890          37.000  
> 2025 04 04 10 33 52.9990000  0 21                     
G25  23394502.501                       -1927.857          24.000    23394545.055    95796746.316       -1503.949          31.000  
G11  21948248.986   115338814.991       -1313.438          46.000    21948271.425    89874508.995       -1023.253          41.000  
G05  20711189.053   108838018.869       -1197.511          43.000    20711209.420    84808926.048        -932.992          39.000  
G06  23607210.458   124056723.056       -2155.859          39.000    23607245.074    96667742.533       -1679.993          41.000  
G13  20810215.065   109358439.244        1471.877          38.000                                                                  
R21  20435656.134   109355319.313         998.767          50.000    20435675.963    85054227.053         776.819          42.000  
R05  23344942.694                       -5033.109          19.000    23344941.359    97060517.4851      -3915.332          31.000  
R06  19158343.490   102232564.126       -1899.532          38.000                                                                  
R07  20062145.677   107394233.438        1784.998          47.000    20062166.555    83528936.413        1388.313          43.000  
G12  23019493.496   120968257.571       -3106.482          41.000    23019521.484    94261062.398       -2420.720          37.000  
G15  22546817.086   118484341.962        2643.259          42.000    22546840.983    92325571.800        2059.890          36.000  
G29  23282166.737   122348606.499        2400.625          38.000    23282192.775    95336687.439        1870.950          28.000  
G20  21500035.718   112983456.794       -2497.014          47.000                                                                  
R20  21166525.846   113186924.347       -1606.721          31.000    21166557.157    88034374.069       -1249.559          42.000  
E03  23821313.659   125181856.828          19.452          45.000    23821345.413    95918689.071          14.901          46.000  
E08  25705659.876   135084164.746        1897.724          32.000    25705695.629   103506195.739        1454.216          31.000  
E15  24871796.908   130702175.017         -52.309          41.000    24871829.278   100148564.624         -40.097          36.000  
E05  24502713.199   128762617.719       -2426.733          37.000    24502753.284    98662424.350       -1859.559          40.000  
E34  25113171.477   131970605.626       -1131.196          45.000    25113205.745   101120490.019        -866.353          39.000  
E27  26183284.081   137594054.481       -1538.438          36.000    26183322.446   105429394.131       -1178.886          30.000  
E30  26215755.469   137764665.409       -3080.650          30.000    26215802.168   105560179.251       -2360.327          38.000  
> 2025 04 04 10 33 53.9990000  0 21                     
G25  23394868.587   122940863.7553      -1930.835          26.000    23394914.682    95798250.227       -1504.718          31.000  
G11  21948499.142   115340128.769       -1314.269          46.000    21948521.443    89875532.751       -1023.922          41.000  
G05  20711417.076   108839216.798       -1198.533          44.000    20711437.356    84809859.493        -933.954          39.000  
G06  23607620.705   124058879.259       -2156.561          39.000    23607655.267    96669422.673       -1680.481          41.000  
G13  20809935.187   109356968.052        1470.799          37.000                                                                  
R21  20435469.686   109354321.224         997.443          48.000    20435489.483    85053450.760         775.800          42.000  
R05  23345884.313   124797130.7333      -5036.154          24.000    23345878.974    97064433.600       -3916.534          30.000  
R06  19158699.615   102234464.203       -1900.962          36.000                                                                  
R07  20061812.254   107392449.108        1783.682          47.000    20061833.268    83527548.602        1387.427          43.000  
G12  23020084.777   120971364.142       -3107.107          40.000    23020112.685    94263483.102       -2421.566          37.000  
G15  22546314.299   118481699.481        2641.970          42.000    22546338.147    92323512.734        2058.715          38.000  
G29  23281710.151   122346206.206        2400.087          35.000    23281736.040    95334817.096        1869.620          28.000  
G20  21500510.915   112985954.127       -2497.873          47.000                                                                  
R20  21166826.358   113188531.611       -1607.578          33.000    21166857.718    88035624.196       -1250.465          40.000  
E03  23821310.031   125181838.072          17.940          45.000    23821341.901    95918674.691          13.847          46.000  
E08  25705297.699   135082267.095        1897.860          32.000    25705334.438   103504741.737        1453.940          30.000  
E15  24871806.884   130702227.707         -53.037          41.000    24871839.391   100148604.999         -40.554          36.000  
E05  24503174.861   128765045.067       -2427.914          37.000    24503215.330    98664284.252       -1860.226          38.000  
E34  25113386.578   131971737.035       -1131.710          44.000    25113420.903   101121356.961        -867.121          38.000  
E27  26183577.327   137595593.768       -1539.880          37.000    26183615.352   105430573.629       -1180.817          30.000  
E30  26216340.738   137767745.948       -3081.429          31.000    26216388.227   105562539.647       -2360.783          38.000  
> 2025 04 04 10 33 54.9990000  0 21                     
G25  23395235.217                       -1925.786          26.000    23395280.305    95799754.917       -1504.816          31.000  
G11  21948749.269   115341443.275       -1314.837          47.000    21948771.559    89876557.036       -1024.583          40.000  
G05  20711645.097   108840415.625       -1199.357          44.000    20711665.465    84810793.659        -934.344          40.000  
G06  23608031.078   124061036.169       -2157.288          38.000    23608065.769    96671103.399       -1680.927          41.000  
G13  20809655.445   109355497.902        1469.878          37.000                                                                  
R21  20435283.421   109353323.959         996.802          49.000    20435303.174    85052675.105         775.336          42.000  
R05  23346826.351   124802166.4262      -5035.943          24.000    23346818.940    97068350.161       -3916.623          30.000  
R06  19159055.830   102236365.706       -1902.181          36.000                                                                  
R07  20061479.010   107390666.068        1782.294          47.000    20061500.144    83526161.806        1386.169          44.000  
G12  23020676.222   120974471.492       -3108.027          40.000    23020704.034    94265904.380       -2421.155          36.000  
G15  22545811.612   118479057.827        2641.118          42.000    22545835.404    92321454.300        2058.215          38.000  
G29  23281253.714   122343806.726        2398.306          35.000    23281279.383    95332947.294        1869.752          28.000  
G20  21500986.361   112988452.116       -2498.396          47.000                                                                  
R20  21167127.300   113190139.918       -1608.210          33.000    21167158.336    88036875.112       -1251.396          41.000  
E03  23821306.623   125181820.308          17.323          45.000    23821338.702    95918661.102          13.199          46.000  
E08  25704936.995   135080370.331        1896.420          31.000    25704973.633   103503288.403        1452.767          29.000  
E15  24871817.296   130702280.965         -53.825          41.000    24871849.856   100148645.803         -41.177          37.000  
E05  24503636.810   128767473.349       -2428.794          37.000    24503677.260    98666144.902       -1860.889          38.000  
E34  25113602.078   131972869.083       -1132.439          44.000    25113636.239   101122224.400        -867.899          38.000  
E27  26183870.720   137597133.947       -1540.721          36.000    26183908.259   105431753.708       -1180.236          29.000  
E30  26216931.344   137770827.167       -3081.493          32.000    26216974.373   105564900.583       -2361.090          38.000  
> 2025 04 04 10 33 55.9990000  0 21                     
G25  23395602.414                       -1935.982          22.000    23395646.443    95801260.364       -1506.982          30.000  
G11  21948999.543   115342758.443       -1315.633          47.000    21949021.862    89877581.826       -1024.956          40.000  
G05  20711873.351   108841615.329       -1200.454          44.000    20711893.744    84811728.527        -935.495          41.000  
G06  23608441.574   124063193.777       -2158.051          39.000    23608476.396    96672784.650       -1681.500          41.000  
G13  20809375.965   109354028.722        1468.756          40.000                                                                  
R21  20435097.173   109352327.405         996.027          49.000    20435116.810    85051900.006         774.573          41.000  
R05  23347769.257                       -5042.662          23.000    23347759.336    97072267.428       -3917.199          31.000  
R06  19159412.531   102238268.534       -1903.642          37.000                                                                  
R07  20061146.105   107388884.220        1781.093          47.000    20061167.308    83524775.954        1385.070          43.000  
G12  23021267.740   120977579.577       -3108.875          40.000    23021295.365    94268326.267       -2422.203          36.000  
G15  22545309.135   118476416.862        2640.468          42.000    22545332.806    92319396.430        2057.569          38.000  
G29  23280797.138   122341407.919        2398.312          34.000    23280822.830                        1869.456          25.000  
G20  21501461.803   112990950.698       -2499.183          47.000                                                                  
R20  21167428.491   113191749.270       -1610.226          33.000    21167459.255    88038126.776       -1252.332          43.000  
E03  23821303.438   125181803.527          16.026          46.000    23821335.405    95918648.243          12.245          46.000  
E08  25704575.829   135078474.162        1895.860          31.000    25704612.846   103501835.456        1452.619          29.000  
E15  24871827.484   130702334.644         -54.167          39.000    24871860.385   100148686.959         -41.481          36.000  
E05  24504098.860   128769902.557       -2429.854          36.000    24504139.290    98668006.255       -1861.811          39.000  
E34  25113817.712   131974001.663       -1133.066          45.000    25113851.577   101123092.188        -868.296          37.000  
E27  26184163.753   137598675.046       -1542.042          36.000    26184201.597   105432934.564       -1181.366          29.000  
E30  26217519.186   137773908.882       -3081.483          32.000    26217560.783   105567261.965       -2361.896          39.000  
> 2025 04 04 10 33 56.9990000  0 21                     
G25  23395970.897                       -1932.895          25.000    23396014.158    95802766.292       -1506.659          31.000  
G11  21949249.966   115344074.092       -1315.945          46.000    21949272.262    89878607.008       -1025.370          41.000  
G05  20712101.840   108842815.708       -1200.751          44.000    20712122.178    84812663.898        -935.859          40.000  
G06  23608852.277   124065351.837       -2158.411          39.000    23608887.130    96674466.274       -1681.787          41.000  
G13  20809096.485   109352560.448        1467.856          40.000                                                                  
R21  20434910.967   109351331.377         995.654          49.000    20434930.690    85051125.334         774.243          42.000  
R05  23348713.225                       -5039.307          22.000    23348701.745    97076184.947       -3917.548          31.000  
R06  19159769.274   102240172.540       -1904.842          37.000                                                                  
R07  20060813.502   107387103.438        1780.369          46.000    20060834.672    83523390.895        1384.841          42.000  
G12  23021859.420   120980688.156       -3108.989          39.000    23021886.927    94270748.557       -2422.373          37.000  
G15  22544806.844   118473776.493        2640.185          42.000    22544830.387    92317339.008        2057.271          37.000  
G29  23280340.777   122339009.672        2398.578          34.000    23280366.892    95329210.3991       1868.412          26.000  
G20  21501937.411   112993449.678       -2499.159          47.000                                                                  
R20  21167729.671   113193359.294       -1610.736          33.000    21167760.343    88039379.023       -1252.460          43.000  
E03  23821300.341   125181787.527          15.530          45.000    23821332.345    95918635.979          11.828          46.000  
E08  25704214.992   135076578.427        1895.829          31.000    25704252.111   103500382.926        1452.407          29.000  
E15  24871837.987   130702388.590         -54.067          40.000    24871870.851   100148728.277         -41.597          36.000  
E05  24504560.911   128772332.511       -2430.282          36.000    24504601.711    98669868.148       -1862.235          39.000  
E34  25114033.521   131975134.607       -1133.156          45.000    25114067.234   101123960.302        -868.399          38.000  
E27  26184457.296   137600216.819       -1541.889          36.000    26184494.984   105434115.961       -1181.689          29.000  
E30  26218104.079   137776991.161       -3082.356          32.000    26218147.142   105569623.640       -2361.558          38.000  
> 2025 04 04 10 33 57.9990000  0 21                     
G25  23396339.904                       -1931.385          24.000    23396382.285    95804272.822       -1507.123          30.000  
G11  21949500.382   115345390.209       -1316.356          47.000    21949522.752    89879632.558       -1025.881          41.000  
G05  20712330.397   108844016.729       -1201.416          43.000    20712350.796    84813599.782        -936.556          41.000  
G06  23609263.031   124067510.398       -2158.862          38.000    23609297.932    96676148.269       -1682.306          41.000  
G13  20808817.155   109351092.933        1467.056          40.000                                                                  
R21  20434725.062   109350335.899         995.068          49.000    20434744.597    85050351.067         773.895          42.000  
R05  23349654.858                       -5042.831          21.000    23349644.324    97080102.874       -3918.031          31.000  
R06  19160126.246   102242077.708       -1905.811          37.000                                                                  
R07  20060481.056   107385323.707        1779.118          47.000    20060502.177    83522006.666        1383.688          42.000  
G12  23022451.147   120983797.290       -3109.615          40.000    23022478.503    94273171.260       -2423.031          37.000  
G15  22544304.451   118471136.664        2639.685          42.000    22544327.989    92315281.992        2056.788          37.000  
G29  23279884.581   122336611.971        2397.544          35.000    23279912.014    95327342.070        1867.403          27.000  
G20  21502413.035   112995949.061       -2499.623          47.000                                                                  
R20  21168030.986   113194970.115       -1611.097          33.000    21168061.597    88040631.911       -1253.208          43.000  
E03  23821297.665   125181772.277          14.676          45.000    23821329.470    95918624.293          11.430          46.000  
E08  25703854.426   135074683.202        1895.079          31.000    25703891.507   103498930.780        1451.290          29.000  
E15  24871848.099   130702442.803         -54.361          40.000    24871881.467   100148769.825         -41.826          36.000  
E05  24505023.356   128774763.171       -2431.425          36.000    24505064.273    98671730.607       -1862.778          40.000  
E34  25114249.067   131976267.914       -1133.531          45.000    25114282.755   101124828.657        -868.661          37.000  
E27  26184750.793   137601759.314       -1543.140          36.000    26184788.568   105435297.868       -1182.246          29.000  
E30  26218691.914   137780073.805       -3083.198          33.000    26218733.646   105571985.666       -2362.174          39.000  
> 2025 04 04 10 33 58.9990000  0 21                     
G25  23396708.943                       -1932.922          23.000    23396750.269    95805779.926       -1507.574          30.000  
G11  21949750.935   115346706.874       -1316.957          47.000    21949773.263    89880658.546       -1026.747          41.000  
G05  20712559.119   108845218.532       -1202.231          45.000    20712579.502    84814536.211        -936.930          41.000  
G06  23609673.742   124069669.518       -2159.247          38.000    23609708.742    96677830.706       -1682.739          41.000  
G13  20808538.044   109349626.344        1465.957          40.000                                                                  
R21  20434539.248   109349341.062         993.970          48.000    20434558.648    85049577.259         773.431          41.000  
R05  23350599.551                       -5051.239          19.000    23350586.991    97084021.248       -3919.648          31.000  
R06  19160483.461   102243984.169       -1907.175          37.000                                                                  
R07  20060148.763   107383545.145        1777.642          46.000    20060169.907    83520623.323        1382.993          42.000  
G12  23023042.999   120986907.012       -3109.953          41.000    23023070.303    94275594.398       -2423.844          37.000  
G15  22543802.243   118468497.476        2639.056          42.000    22543825.773    92313225.509        2056.496          37.000  
G29  23279428.515   122334214.928        2396.974          36.000    23279456.098    95325474.088        1867.513          27.000  
G20  21502888.836   112998448.909       -2500.223          47.000                                                                  
R20  21168332.340   113196581.835       -1612.645          33.000    21168362.928    88041885.451       -1253.989          42.000  
E03  23821295.195   125181757.891          13.736          46.000    23821326.628    95918613.254          10.536          46.000  
E08  25703494.605   135072788.498        1894.459          35.000    25703530.917   103497478.928        1451.795          30.000  
E15  24871858.626   130702497.328         -54.880          40.000    24871891.988   100148811.613         -42.060          36.000  
E05  24505486.080   128777194.600       -2432.539          36.000    24505526.922    98673593.684       -1863.724          40.000  
E34  25114464.737   131977401.638       -1134.148          45.000    25114498.674   101125697.338        -868.865          37.000  
E27  26185044.479   137603302.603       -1544.194          38.000    26185082.359   105436480.335       -1183.073          29.000  
E30  26219278.117   137783156.893       -3083.914          33.000    26219320.249   105574348.077       -2362.758          38.000  
> 2025 04 04 10 33 59.9990000  0 21                     
G25  23397079.058   122952480.2233      -1934.851          31.000    23397118.626    95807287.679       -1506.519          31.000  
G11  21950001.622   115348024.223       -1317.769          47.000    21950023.955    89881685.036       -1027.254          42.000  
G05  20712787.960   108846421.169       -1202.984          44.000    20712808.435    84815473.350        -937.605          40.000  
G06  23610084.797   124071829.369       -2160.651          40.000    23610119.795    96679513.617       -1683.380          38.000  
G13  20808259.051   109348160.747        1465.309          42.000                                                                  
R21  20434353.447   109348347.062         993.707          48.000    20434372.822    85048804.141         773.041          42.000  
R05  23351541.653                       -5041.716          18.000    23351529.649    97087940.142       -3919.024          32.000  
R06  19160841.102   102245891.988       -1908.839          37.000                                                                  
R07  20059816.674   107381767.703        1776.687          50.000    20059837.868    83519240.882        1381.769          45.000  
G12  23023634.973   120990017.430       -3110.935          40.000    23023662.079    94278018.111       -2423.696          36.000  
G15  22543300.214   118465859.057        2637.828          42.000    22543323.570    92311169.608        2055.514          37.000  
G29  23278972.470   122331818.669        2395.103          33.000    23278998.547    95323606.931        1866.927          31.000  
G20  21503364.688   113000949.398       -2500.740          47.000                                                                  
R20  21168633.894   113198194.419       -1613.688          32.000    21168664.548    88043139.813       -1254.639          41.000  
E03  23821292.621   125181744.473          12.552          44.000    23821324.153    95918602.999           9.857          46.000  
E08  25703135.793   135070894.405        1893.808          33.000    25703170.195   103496027.655        1450.604          32.000  
E15  24871869.319   130702552.391         -55.340          40.000    24871902.498   100148853.815         -42.493          36.000  
E05  24505948.728   128779626.943       -2432.385          36.000    24505989.985    98675457.453       -1864.242          39.000  
E34  25114680.540   131978535.939       -1134.466          45.000    25114714.593   101126566.509        -869.689          39.000  
E27  26185338.252   137604846.800       -1544.453          38.000    26185376.167   105437663.565       -1184.114          30.000  
E30  26219865.581   137786240.688       -3084.449          31.000    26219907.045   105576710.958       -2363.173          38.000  
> 2025 04 04 10 34 00.9990000  0 21                     
G25  23397446.112   122954408.4742      -1937.250          31.000    23397487.235    95808796.420       -1509.534          34.000  
G11  21950252.555   115349342.454       -1318.657          45.000    21950274.874    89882712.215       -1027.480          42.000  
G05  20713016.995   108847624.893       -1204.220          43.000    20713037.561    84816411.300        -938.035          41.000  
G06  23610495.932   124073989.996       -2160.529          40.000    23610530.981    96681197.302       -1683.344          40.000  
G13  20807980.444   109346696.389        1463.763          47.000                                                                  
R21  20434167.962   109347353.995         992.834          49.000    20434187.436    85048031.796         772.144          42.000  
R05  23352482.778                       -5036.967          19.000    23352472.467    97091859.775       -3919.751          30.000  
R06  19161198.780   102247801.323       -1909.727          38.000                                                                  
R07  20059484.971   107379991.786        1774.917          45.000    20059506.194    83517859.658        1380.671          40.000  
G12  23024227.071   120993128.851       -3111.512          40.000    23024254.285    94280442.618       -2425.027          36.000  
G15  22542798.288   118463221.542        2637.064          42.000    22542821.709    92309114.396        2055.251          37.000  
G29  23278516.478   122329423.274        2394.368          34.000    23278542.005    95321740.427        1866.235          30.000  
G20  21503840.670   113003450.666       -2501.553          47.000                                                                  
R20  21168935.710   113199808.275       -1615.144          32.000    21168966.295    88044395.040       -1256.122          42.000  
E03  23821290.253   125181732.237          11.704          43.000    23821321.783    95918593.646           8.950          46.000  
E08  25702776.007   135069001.167        1892.948          36.000    25702809.789   103494576.969        1450.565          31.000  
E15  24871880.000   130702608.084         -55.858          40.000    24871913.096   100148896.514         -42.858          36.000  
E05  24506412.097   128782060.444       -2433.882          39.000    24506452.923    98677322.055       -1864.781          39.000  
E34  25114896.676   131979671.009       -1135.076          45.000    25114930.720   101127436.226        -870.065          40.000  
E27  26185632.263   137606392.071       -1545.209          37.000    26185670.386   105438847.633       -1184.253          32.000  
E30  26220452.516   137789325.179       -3084.588          32.000    26220493.852   105579074.388       -2363.551          38.000  
> 2025 04 04 10 34 01.9990000  0 21                     
G25  23397809.416   122956345.4552      -1936.133          24.000    23397855.985    95810305.822       -1509.790          33.000  
G11  21950503.543   115350661.421       -1318.780          46.000    21950525.853    89883739.998       -1028.549          41.000  
G05  20713246.306   108848829.572       -1205.173          43.000    20713266.776    84817350.021        -938.812          41.000  
G06  23610907.233   124076151.486       -2161.804          41.000    23610942.390    96682881.546       -1684.741          38.000  
G13  20807702.006   109345233.166        1462.598          46.000                                                                  
R21  20433982.602   109346361.808         991.852          49.000    20434001.962    85047260.079         771.503          40.000  
R05  23353423.830                       -5037.149          22.000    23353415.649    97095779.936       -3920.624          30.000  
R06  19161556.823   102249712.172       -1911.789          38.000                                                                  
R07  20059153.564   107378217.221        1774.095          44.000    20059174.736    83516479.413        1379.699          42.000  
G12  23024819.339   120996241.067       -3112.485          41.000    23024846.390    94282867.744       -2425.732          36.000  
G15  22542296.669   118460584.847        2636.667          41.000    22542319.912    92307059.871        2053.444          36.000  
G29  23278060.811   122327028.749        2394.080          34.000    23278086.316    95319874.632        1865.625          29.000  
G20  21504316.715   113005952.664       -2502.509          47.000                                                                  
R20  21169237.568   113201423.151       -1614.148          31.000    21169268.156    88045650.926       -1256.455          39.000  
E03  23821288.194   125181721.039          10.889          43.000    23821319.634    95918585.059           8.351          45.000  
E08  25702416.089   135067108.740        1892.822          33.000    25702449.568   103493126.961        1449.649          31.000  
E15  24871890.822   130702664.360         -56.546          41.000    24871923.691   100148939.629         -43.832          36.000  
E05  24506875.607   128784495.033       -2435.613          38.000    24506916.206    98679187.479       -1865.449          40.000  
E34  25115112.983   131980806.726       -1135.683          45.000    25115146.985   101128306.437        -871.077          40.000  
E27  26185926.462   137607938.354       -1546.948          37.000    26185964.806   105440032.417       -1185.352          33.000  
E30  26221039.498   137792410.304       -3085.133          31.000    26221080.846   105581438.400       -2364.439          38.000  
> 2025 04 04 10 34 02.9990000  0 21                     
G25  23398183.312   122958284.0242      -1939.520          32.000    23398224.884    95811816.432       -1510.907          33.000  
G11  21950754.740   115351981.499       -1320.271          43.000    21950776.930    89884768.632       -1029.099          38.000  
G05  20713475.765   108850035.456       -1206.669          42.000    20713496.275    84818289.691        -939.890          39.000  
G06  23611318.874   124078314.022       -2162.970          41.000    23611353.944    96684566.611       -1685.156          39.000  
G13  20807423.935   109343771.293        1461.336          46.000                                                                  
R21  20433797.521   109345370.699         990.948          50.000    20433816.743    85046489.265         769.934          40.000  
R05  23354368.880                       -5041.872          22.000    23354358.759    97099700.795       -3920.124          29.000  
R06  19161915.271   102251624.731       -1913.654          37.000                                                                  
R07  20058822.373   107376444.003        1772.419          43.000    20058843.516    83515100.278        1378.902          42.000  
G12  23025411.733   120999354.303       -3113.896          41.000    23025438.774    94285293.614       -2426.174          34.000  
G15  22541795.176   118457949.438        2635.046          43.000    22541818.429    92305006.274        2053.007          37.000  
G29  23277605.425   122324635.333        2393.648          37.000    23277633.390    95318016.5651       1865.744          30.000  
G20  21504792.974   113008455.578       -2503.018          46.000                                                                  
R20  21169540.002   113203039.5852      -1617.439          34.000    21169571.806    88046943.7273      -1257.927          43.000  
E03  23821286.456   125181711.195           9.743          44.000    23821317.774    95918577.517           7.001          46.000  
E08  25702056.540   135065217.407        1890.743          36.000    25702089.767   103491677.738        1449.250          31.000  
E15  24871901.770   130702721.514         -57.215          42.000    24871934.602   100148983.319         -42.899          35.000  
E05  24507338.976   128786930.620       -2436.098          32.000    24507379.639    98681053.983       -1868.656          31.000  
E34  25115329.382   131981943.460       -1137.384          42.000    25115363.432   101129177.483        -870.647          37.000  
E27  26186220.975   137609485.874       -1548.328          39.000    26186259.337   105441218.118       -1184.641          33.000  
E30  26221627.005   137795496.673       -3085.998          33.000    26221668.250   105583803.240       -2365.281          38.000  
> 2025 04 04 10 34 03.9990000  0 21                     
G25  23398552.857   122960222.9782      -1938.672          32.000    23398593.652    95813327.318       -1512.012          31.000  
G11  21951006.046   115353301.710       -1320.225          46.000    21951028.203    89885797.291       -1028.349          42.000  
G05  20713705.403   108851241.713       -1206.363          44.000    20713725.867    84819229.621        -940.043          40.000  
G06  23611730.435   124080476.807       -2162.952          41.000    23611765.425    96686251.796       -1684.326          37.000  
G13  20807145.885   109342310.064        1460.747          43.000                                                                  
R21  20433612.489   109344379.903         990.784          49.000    20433631.545    85045718.611         770.471          42.000  
R05  23355312.482                       -5044.296          23.000    23355301.755    97103622.085       -3924.020          29.000  
R06  19162273.711   102253538.217       -1913.955          37.000                                                                  
R07  20058491.273   107374671.708        1771.866          49.000    20058512.444    83513721.780        1378.011          46.000  
G12  23026004.279   121002467.887       -3113.496          40.000    23026031.283    94287719.736       -2426.621          37.000  
G15  22541293.774   118455314.182        2634.731          43.000    22541316.950    92302952.814        2053.694          37.000  
G29  23277150.217   122322242.266        2393.280          36.000    23277176.081                        1861.629          25.000  
G20  21505269.215   113010958.654       -2502.727          48.000                                                                  
R20  21169842.315   113204656.3982      -1618.507          33.000    21169872.069    88048201.2092      -1258.040          38.000  
E03  23821284.676   125181701.811           9.503          46.000    23821316.005    95918570.327           6.977          47.000  
E08  25701697.094   135063326.268        1890.817          36.000    25701729.912   103490228.652        1449.291          31.000  
E15  24871912.797   130702778.593         -57.477          42.000    24871945.337   100149027.086         -43.022          36.000  
E05  24507797.835   128789345.9071      -2435.501          32.000    24507843.568    98682920.621       -1867.216          33.000  
E34  25115545.533   131983080.076       -1136.138          44.000    25115579.863   101130048.328        -871.361          38.000  
E27  26186515.161   137611033.847       -1548.087          38.000    26186554.137   105442404.357       -1187.288          33.000  
E30  26222214.587   137798582.906       -3085.219          27.000    26222255.638   105586168.081       -2364.199          37.000  
> 2025 04 04 10 34 04.9990000  0 21                     
G25  23398921.874   122962162.6862      -1939.099          31.000    23398962.804    95814838.765       -1512.451          32.000  
G11  21951257.290   115354622.601       -1321.603          47.000    21951279.618    89886826.578       -1029.546          42.000  
G05  20713935.139   108852448.834       -1207.933          45.000    20713955.513    84820170.234        -941.203          40.000  
G06  23612142.099   124082643.6643      -2164.502          33.000    23612177.110    96687937.569       -1688.336          28.000  
G13  20806868.079   109340849.834        1459.207          40.000                                                                  
R21  20433427.586   109343389.805         989.252          49.000    20433446.502    85044948.554         769.543          42.000  
R05  23356256.950                       -5033.760          23.000    23356244.963    97107544.1522      -3922.397          28.000  
R06  19162632.573   102255452.996       -1915.917          37.000                                                                  
R07  20058160.328   107372900.622        1770.508          47.000    20058181.567    83512344.311        1376.785          45.000  
G12  23026596.909   121005582.152       -3114.655          41.000    23026624.002    94290146.502       -2427.304          35.000  
G15  22540792.569   118452679.670        2634.146          42.000    22540815.632    92300900.037        2051.937          38.000  
G29  23276694.992   122319849.708        2393.046          33.000    23276720.367    95314278.5241       1863.951          30.000  
G20  21505745.643   113013462.297       -2504.338          46.000                                                                  
R20  21170144.651   113206277.0513      -1618.315          29.000    21170173.600    88049458.9161      -1258.228          38.000  
E03  23821283.123   125181693.400           7.832          46.000    23821314.186    95918563.876           5.792          45.000  
E08  25701337.096   135061435.586        1889.998          35.000    25701370.331   103488779.934        1449.021          35.000  
E15  24871923.540   130702836.169         -58.025          42.000    24871956.000   100149071.208         -43.781          36.000  
E05  24508266.636   128791783.029       -2437.008          41.000    24508307.254    98684788.032       -1868.411          38.000  
E34  25115761.614   131984217.345       -1137.606          44.000    25115796.389   101130919.765        -871.448          40.000  
E27  26186809.757   137612582.674       -1549.178          36.000    26186848.749   105443590.990       -1187.547          33.000  
E30  26222802.768   137801669.989       -3087.260          33.000    26222843.021   105588533.370       -2365.106          37.000  
> 2025 04 04 10 34 05.9990000  0 21                     
G25  23399291.192   122964103.9812      -1941.559          32.000    23399331.893    95816351.524       -1512.476          32.000  
G11  21951508.865   115355944.798       -1322.531          46.000    21951531.228    89887856.923       -1030.422          41.000  
G05  20714165.127   108853657.410       -1208.668          44.000    20714185.477    84821111.968        -941.983          40.000  
G06  23612554.002   124084808.3952      -2164.447          40.000    23612589.153    96689624.459       -1687.189          41.000  
G13  20806590.474   109339391.179        1458.205          37.000                                                                  
R21  20433242.865   109342401.179         988.300          49.000    20433261.738    85044179.626         768.707          41.000  
R05  23357201.238                       -5043.714          22.000    23357187.620    97111429.8343      -3922.296          27.000  
R06  19162991.683   102257369.761       -1917.104          38.000                                                                  
R07  20057829.822   107371131.435        1768.698          49.000    20057851.097    83510968.287        1375.554          46.000  
G12  23027189.844   121008697.755       -3115.864          44.000    23027216.795    94292574.177       -2428.410          36.000  
G15  22540291.454   118450046.572        2632.960          43.000    22540314.501    92298848.239        2051.775          40.000  
G29  23276239.857   122317458.571        2391.327          33.000    23276267.059    95312422.3521       1862.748          25.000  
G20  21506222.300   113015967.178       -2505.092          47.000                                                                  
R20  21170448.845   113207896.3702      -1619.913          35.000    21170475.821    88050718.334       -1260.468          44.000  
E03  23821281.848   125181686.586           6.445          43.000    23821313.305    95918558.656           5.240          40.000  
E08  25700977.553   135059546.373        1888.820          35.000    25701010.841   103487332.360        1447.273          37.000  
E15  24871934.437   130702894.798         -58.908          41.000    24871967.139   100149116.185         -45.317          38.000  
E05  24508733.592   128794221.770       -2439.493          36.000    24508771.445    98686656.561       -1868.041          34.000  
E34  25115978.385   131985355.821       -1138.852          44.000    25116012.965   101131792.222        -872.760          40.000  
E27  26187104.392   137614133.049       -1550.942          37.000    26187143.847   105444778.965       -1189.036          32.000  
E30  26223390.759   137804758.344       -3089.249          29.000    26223430.727   105590899.745       -2366.822          37.000  
> 2025 04 04 10 34 06.9990000  0 21                     
G25  23399661.377   122966045.5671      -1942.365          30.000    23399701.291    95817864.794       -1513.123          31.000  
G11  21951760.560   115357267.521       -1322.570          46.000    21951782.820    89888887.598       -1030.525          43.000  
G05  20714395.258   108854866.724       -1209.283          44.000    20714415.627    84822054.299        -942.283          40.000  
G06  23612966.042   124086973.1981      -2165.320          42.000    23613001.214    96691311.630       -1687.262          40.000  
G13  20806313.075   109337933.289        1457.657          37.000                                                                  
R21  20433058.175   109341413.125         988.281          49.000    20433077.055    85043411.113         768.713          43.000  
R05  23358146.104                       -5045.371          22.000    23358131.367                       -3926.903          25.000  
R06  19163351.166   102259287.712       -1917.954          38.000                                                                  
R07  20057499.612   107369363.313        1768.060          49.000    20057520.822    83509593.082        1375.409          46.000  
G12  23027782.798   121011813.948       -3115.953          44.000    23027809.850    94295002.393       -2428.497          36.000  
G15  22539790.434   118447414.068        2632.707          43.000    22539813.488    92296796.932        2051.265          39.000  
G29  23275785.055   122315068.163        2390.387          28.000    23275815.341                        1863.263          25.000  
G20  21506699.121   113018472.499       -2505.116          47.000                                                                  
R20  21170752.391   113209526.4723      -1619.502          36.000    21170779.656    88051978.439       -1259.766          40.000  
E03  23821280.662   125181680.608           5.856          38.000    23821312.267    95918554.146           4.556          36.000  
E08  25700617.874   135057657.543        1889.072          35.000    25700651.478   103485885.164        1447.475          37.000  
E15  24871945.174   130702953.747         -58.672          40.000    24871978.221   100149161.349         -45.126          37.000  
E05  24509196.352   128796661.205       -2439.636          39.000    24509235.680    98688525.834       -1868.800          37.000  
E34  25116195.177   131986494.705       -1138.645          43.000    25116229.706   101132664.821        -872.419          41.000  
E27  26187399.752   137615684.170       -1551.019          36.000    26187439.032   105445967.442       -1187.997          32.000  
E30  26223979.484   137807846.954       -3088.311          29.000    26224018.482   105593266.354       -2366.144          37.000  
> 2025 04 04 10 34 07.9990000  0 21                     
G25  23400030.937   122967987.965       -1942.432          29.000    23400070.721    95819378.270       -1512.702          31.000  
G11  21952012.216   115358590.194       -1321.793          45.000    21952034.394    89889918.279       -1030.017          42.000  
G05  20714625.438   108856076.182       -1208.383          44.000    20714645.619    84822996.738        -941.910          39.000  
G06  23613378.092   124089138.448       -2164.490          42.000    23613413.166    96692998.837       -1686.212          41.000  
G13  20806035.773   109336475.813        1458.302          37.000                                                                  
R21  20432873.686   109340425.115         988.922          49.000    20432892.413    85042642.674         769.324          43.000  
R05  23359089.953                       -5041.697          23.000    23359076.136    97119281.9853      -3923.265          27.000  
R06  19163710.627   102261206.397       -1918.300          39.000                                                                  
R07  20057169.478   107367595.703        1768.269          49.000    20057190.666    83508218.291        1375.291          45.000  
G12  23028375.851   121014930.170       -3115.498          44.000    23028402.883    94297430.593       -2427.471          35.000  
G15  22539289.504   118444781.584        2633.527          43.000    22539312.419    92294745.666        2051.676          39.000  
G29  23275330.388   122312677.677        2390.507          28.000    23275357.373                        1863.370          25.000  
G20  21507175.800   113020977.725       -2504.326          47.000                                                                  
R20  21171058.288   113211146.9382      -1619.414          36.000    21171081.816    88053238.770       -1259.567          42.000  
E03  23821279.657   125181674.911           6.306          41.000    23821311.204    95918549.734           4.611          38.000  
E08  25700258.124   135055768.814        1889.396          34.000    25700292.053   103484437.926        1447.990          37.000  
E15  24871956.443   130703012.502         -57.798          40.000    24871989.308   100149206.358         -44.344          37.000  
E05  24509661.172   128799100.852       -2438.858          39.000    24509700.154    98690395.151       -1868.962          37.000  
E34  25116412.061   131987633.441       -1138.163          43.000    25116446.543   101133537.359        -871.656          40.000  
E27  26187695.314   137617235.497       -1550.708          36.000    26187734.285   105447156.161       -1188.692          32.000  
E30  26224567.905   137810935.522       -3087.783          30.000    26224606.279   105595632.928       -2365.952          37.000  
> 2025 04 04 10 34 08.9990000  0 21                     
G25  23400400.973                       -1941.272          29.000    23400440.289    95820891.929       -1512.506          31.000  
G11  21952263.943   115359912.879       -1321.611          45.000    21952286.038    89890948.923       -1029.685          42.000  
G05  20714855.712   108857285.836       -1208.741          44.000    20714875.706    84823939.327        -941.849          40.000  
G06  23613790.151   124091303.680       -2164.069          41.000    23613825.064    96694686.032       -1685.992          40.000  
G13  20805758.451   109335018.599        1458.569          37.000                                                                  
R21  20432689.130   109339437.120         989.307          49.000    20432707.786    85041874.267         769.269          43.000  
R05  23360033.232                       -5040.965          23.000    23360023.673    97123222.0262      -3921.631          30.000  
R06  19164070.468   102263125.736       -1918.222          39.000                                                                  
R07  20056839.417   107365828.618        1768.099          49.000    20056860.587    83506843.902        1375.169          46.000  
G12  23028968.848   121018046.426       -3115.067          44.000    23028995.853    94299858.821       -2427.178          36.000  
G15  22538788.545   118442149.198        2633.809          43.000    22538811.306    92292694.458        2052.127          39.000  
G29  23274875.762   122310287.368        2391.216          30.000    23274900.909                        1862.853          25.000  
G20  21507652.529   113023482.865       -2503.961          47.000                                                                  
R20  21171359.279   113212767.680       -1619.770          36.000    21171384.144    88054499.334       -1259.814          42.000  
E03  23821278.742   125181669.489           6.288          41.000    23821310.467    95918545.537           5.166          38.000  
E08  25699898.273   135053880.019        1889.790          34.000    25699932.889   103482990.662        1448.245          38.000  
E15  24871967.308   130703071.004         -57.212          39.000    24872000.662   100149251.210         -44.091          37.000  
E05  24510125.360   128801540.753       -2439.003          39.000    24510164.893    98692264.636       -1868.686          37.000  
E34  25116628.615   131988772.014       -1137.431          43.000    25116663.519   101134409.816        -871.806          40.000  
E27  26187990.306   137618786.988       -1550.897          35.000    26188029.671   105448344.961       -1187.969          31.000  
E30  26225155.532   137814023.960       -3085.803          30.000    26225194.309   105597999.435       -2365.469          37.000  
> 2025 04 04 10 34 09.9990000  0 21                     
G25  23400769.619   122971877.7033      -1940.729          29.000    23400809.597    95822404.519       -1512.818          31.000  
G11  21952515.420   115361234.028       -1321.226          45.000    21952537.493    89891978.371       -1028.960          43.000  
G05  20715085.693   108858494.095       -1208.144          43.000    20715105.581    84824880.837        -941.457          39.000  
G06  23614201.901   124093467.445       -2165.430          37.000    23614236.838    96696372.103       -1686.993          34.000  
G13  20805481.108   109333560.239        1458.677          36.000                                                                  
R21  20432504.263   109338447.674         989.606          49.000    20432522.870    85041104.645         769.641          41.000  
R05  23360977.730                       -5043.494          25.000    23360968.466    97127143.8172      -3921.917          30.000  
R06  19164429.960   102265044.156       -1918.510          39.000                                                                  
R07  20056509.149   107364060.464        1768.096          49.000    20056530.256    83505468.673        1375.379          46.000  
G12  23029561.558   121021161.160       -3114.541          44.000    23029588.573    94302285.935       -2426.820          36.000  
G15  22538287.415   118439515.333        2633.892          43.000    22538310.075    92290642.083        2052.583          38.000  
G29  23274420.410   122307895.639        2392.572          30.000    23274441.798                        1866.238          24.000  
G20  21508128.948   113025986.373       -2503.147          47.000                                                                  
R20  21171661.416   113214387.123       -1619.532          33.000    21171687.190    88055758.919       -1259.570          37.000  
E03  23821277.818   125181662.837           7.030          41.000    23821308.864    95918540.447           5.421          38.000  
E08  25699538.350   135051989.689        1890.044          33.000    25699573.189   103481542.242        1448.583          38.000  
E15  24871978.175   130703127.791         -56.265          39.000    24872011.433   100149294.700         -43.436          37.000  
E05  24510588.512   128803979.289       -2437.945          39.000    24510628.983    98694133.278       -1869.478          37.000  
E34  25116845.016   131989908.979       -1136.980          43.000    25116879.877   101135280.935        -870.605          42.000  
E27  26188285.348   137620337.219       -1549.599          35.000    26188324.700   105449532.796       -1187.627          30.000  
E30  26225742.932   137817110.765       -3085.746          30.000    26225781.848   105600364.674       -2364.776          37.000  
> 2025 04 04 10 34 10.9990000  0 21                     
G25  23401137.827   122973818.5532      -1940.131          31.000    23401178.779    95823916.878       -1510.956          30.000  
G11  21952766.794   115362554.629       -1320.105          46.000    21952788.761    89893007.411       -1028.726          45.000  
G05  20715315.490   108859702.031       -1207.828          43.000    20715335.485    84825822.087        -941.148          40.000  
G06  23614613.585   124095630.493       -2162.708          43.000    23614648.477    96698057.646       -1685.327          38.000  
G13  20805203.526   109332101.503        1459.094          40.000                                                                  
R21  20432319.253   109337457.787         990.448          49.000    20432337.823    85040334.758         769.971          41.000  
R05  23361919.271   124882846.3553      -5041.941          25.000    23361908.359    97131064.7781      -3921.059          30.000  
R06  19164789.552   102266962.740       -1918.632          38.000                                                                  
R07  20056178.950   107362292.382        1768.042          48.000    20056199.887    83504093.503        1375.308          47.000  
G12  23030154.202   121024275.484       -3113.663          43.000    23030181.174    94304712.707       -2426.666          36.000  
G15  22537786.146   118436881.040        2634.790          42.000    22537808.721    92288589.407        2053.164          38.000  
G29  23273964.663   122305503.284        2393.184          31.000    23273987.120    95303086.5701       1864.402          26.000  
G20  21508605.088   113028489.303       -2502.397          48.000                                                                  
R20  21171965.187   113216006.219       -1618.957          33.000    21171990.187    88057018.284       -1259.528          42.000  
E03  23821276.929   125181656.130           7.657          35.000    23821307.522    95918535.398           5.529          38.000  
E08  25699178.636   135050098.799        1890.783          39.000    25699213.314   103480093.396        1448.847          38.000  
E15  24871989.143   130703183.814         -55.331          40.000    24872021.918   100149337.599         -42.341          37.000  
E05  24511052.825   128806417.590       -2438.047          37.000    24511092.528    98696001.566       -1868.043          42.000  
E34  25117061.182   131991045.291       -1135.877          43.000    25117095.941   101136151.592        -870.494          42.000  
E27  26188580.160   137621887.108       -1549.687          37.000    26188619.751   105450720.394       -1188.231          31.000  
E30  26226330.121   137820197.027       -3086.189          29.000    26226369.144   105602729.453       -2364.004          36.000  
> 2025 04 04 10 34 11.9990000  0 22                     
G25  23401505.643   122975758.9512      -1939.764          32.000    23401547.900    95825428.935       -1512.549          31.000  
G11  21953017.931   115363874.449       -1319.553          45.000    21953039.886    89894035.877       -1028.169          42.000  
G05  20715545.176   108860909.349       -1207.355          42.000    20715565.218    84826762.903        -940.639          40.000  
G06  23615025.101   124097792.943       -2162.445          43.000    23615060.039    96699742.657       -1684.924          40.000  
G13  20804925.842   109330642.469        1458.907          43.000                                                                  
R21  20432134.092   109336467.227         990.472          48.000    20432152.724    85039564.309         770.862          43.000  
R05  23362860.946                       -5034.151          22.000    23362854.570    97134985.475       -3920.745          30.000  
R06  19165149.103   102268881.265       -1918.654          38.000                                                                  
R07  20055848.700   107360524.031        1768.381          46.000    20055869.498    83502718.154        1375.305          47.000  
G12  23030746.779   121027389.051       -3113.428          44.000    23030773.648    94307138.843       -2425.998          35.000  
G15  22537284.620   118434246.023        2635.043          43.000    22537307.333    92286536.168        2053.365          38.000  
G29  23273509.054   122303110.417        2392.759          33.000    23273532.121    95301222.000        1864.557          28.000  
G20  21509081.209   113030991.381       -2501.970          47.000                                                                  
R20  21172268.180   113217624.905       -1618.165          34.000    21172293.096    88058277.246       -1258.702          43.000  
E03  23821276.096   125181648.731           7.165          34.000    23821306.089    95918529.730           5.662          39.000  
E08  25698819.193   135048207.153        1891.990          39.000    25698853.200   103478644.003        1449.461          38.000  
E15  24871999.885   130703238.915         -54.513          41.000    24872032.399   100149379.884         -42.188          37.000  
E05  24511516.358   128808855.370       -2437.376          38.000    24511556.375    98697869.467       -1867.993          37.000  
E34  25117277.255   131992180.683       -1135.351          43.000    25117311.834   101137021.601        -869.750          41.000  
E27  26188874.648   137623436.455       -1548.980          37.000    26188914.523   105451907.475       -1187.088          32.000  
E30  26226917.566   137823282.523       -3085.095          23.000    26226956.273   105605093.668       -2364.047          37.000  
E02                                                                  28194301.078                       -2401.077          25.000  
> 2025 04 04 10 34 12.9990000  0 21                     
G25  23401875.255   122977699.669       -1942.120          32.000    23401917.331    95826941.212       -1512.665          31.000  
G11  21953269.049   115365194.397       -1320.899          46.000    21953291.181    89895064.372       -1029.229          45.000  
G05  20715775.003   108862117.006       -1208.949          43.000    20715794.942    84827703.895        -941.779          39.000  
G06  23615436.685   124099955.469       -2163.525          43.000    23615471.573    96701427.707       -1685.846          39.000  
G13  20804648.262   109329184.007        1457.584          38.000                                                                  
R21  20431949.023   109335476.764         989.417          50.000    20431967.677    85038793.928         769.727          41.000  
R05  23363801.267                       -5041.106          25.000    23363799.472    97138906.307       -3921.074          33.000  
R06  19165508.677   102270800.480       -1920.648          38.000                                                                  
R07  20055518.407   107358756.327        1766.317          49.000    20055539.297    83501343.253        1373.799          47.000  
G12  23031339.363   121030502.768       -3114.647          45.000    23031366.100    94309565.076       -2426.900          37.000  
G15  22536783.257   118431611.225        2633.834          44.000    22536805.854    92284483.077        2052.123          38.000  
G29  23273053.760   122300717.527        2392.314          28.000    23273076.460    95299357.481        1864.295          28.000  
G20  21509557.317   113033493.470       -2503.092          48.000                                                                  
R20  21172570.998   113219243.972       -1620.077          34.000    21172596.003    88059536.550       -1259.788          38.000  
E03  23821275.108   125181641.678           6.770          33.000    23821304.756    95918524.364           4.602          35.000  
E08  25698459.366   135046315.554        1890.847          36.000    25698493.433   103477194.541        1448.776          38.000  
E15  24872010.593   130703293.870         -55.528          39.000    24872042.968   100149421.949         -43.028          37.000  
E05  24511980.301   128811293.473       -2438.824          38.000    24512020.016    98699737.607       -1868.787          42.000  
E34  25117493.117   131993316.105       -1136.242          44.000    25117527.608   101137891.562        -870.578          42.000  
E27  26189169.103   137624986.157       -1550.358          37.000    26189209.212   105453094.965       -1188.174          31.000  
E30  26227505.107   137826367.973       -3086.949          31.000    26227543.542   105607457.899       -2364.902          36.000  
> 2025 04 04 10 34 13.9990000  0 21                     
G25  23402243.790   122979640.855       -1939.447          32.000    23402286.430    95828453.794       -1511.389          31.000  
G11  21953520.282   115366514.543       -1318.056          46.000    21953542.344    89896093.069       -1026.928          43.000  
G05  20716004.720   108863325.013       -1206.056          43.000    20716024.899    84828645.209        -939.707          39.000  
G06  23615848.299   124102118.257       -2160.760          43.000    23615883.050    96703112.975       -1683.551          40.000  
G13  20804370.850   109327726.072        1460.083          36.000                                                                  
R21  20431763.922   109334486.577         992.493          49.000    20431782.626    85038023.807         771.741          43.000  
R05  23364744.112                       -5039.511          25.000    23364744.001                       -3919.800          27.000  
R06  19165868.314   102272720.611       -1917.972          39.000                                                                  
R07  20055188.223   107356989.402        1768.693          49.000    20055209.318    83499968.978        1375.762          46.000  
G12  23031932.004   121033616.736       -3111.839          44.000    23031958.651    94311991.552       -2424.879          37.000  
G15  22536281.882   118428976.699        2636.602          44.000    22536304.451    92282430.184        2054.705          38.000  
G29  23272598.135   122298324.905        2395.686          29.000    23272622.292                        1868.094          25.000  
G20  21510033.403   113035995.709       -2500.089          47.000                                                                  
R20  21172873.961   113220863.554       -1616.475          35.000    21172898.916    88060796.125       -1257.764          39.000  
E03  23821273.465   125181635.029           8.673          39.000    23821303.359    95918519.207           6.314          34.000  
E08  25698099.093   135044424.133        1893.832          35.000    25698133.586   103475745.320        1450.997          38.000  
E15  24872020.614   130703348.798         -52.441          39.000    24872053.287   100149464.053         -40.309          37.000  
E05  24512444.282   128813732.050       -2436.166          39.000    24512484.334    98701606.115       -1866.823          39.000  
E34  25117709.300   131994451.570       -1133.254          43.000    25117743.800   101138761.642        -868.241          42.000  
E27  26189464.376   137626536.267       -1547.804          34.000    26189504.089   105454282.707       -1186.335          31.000  
E30  26228092.432   137829453.768       -3084.148          29.000    26228130.725   105609822.178       -2362.167          36.000  
> 2025 04 04 10 34 14.9990000  0 21                     
G25  23402615.476   122981581.466       -1938.611          31.000    23402655.611    95829965.894       -1509.222          30.000  
G11  21953771.342   115367833.892       -1317.223          46.000    21953793.359    89897121.141       -1026.457          43.000  
G05  20716234.459   108864532.434       -1205.287          43.000    20716254.566    84829586.055        -939.388          39.000  
G06  23616259.677   124104280.214       -2159.735          43.000    23616294.440    96704797.631       -1683.051          40.000  
G13  20804093.224   109326267.594        1460.141          35.000                                                                  
R21  20431578.781   109333495.687         992.883          49.000    20431597.379    85037253.094         772.198          42.000  
R05  23365686.101                       -5035.327          24.000    23365689.769    97146779.1773      -3918.981          29.000  
R06  19166228.247   102274640.633       -1917.935          39.000                                                                  
R07  20054858.165   107355222.197        1769.196          49.000    20054879.240    83498594.518        1375.907          46.000  
G12  23032524.531   121036729.983       -3111.155          44.000    23032550.989    94314417.458       -2423.906          36.000  
G15  22535780.345   118426341.480        2637.265          44.000    22535802.939    92280376.764        2054.990          38.000  
G29  23272141.513                        2397.827          28.000    23272167.044                        1872.186          23.000  
G20  21510509.368   113038497.080       -2499.152          47.000                                                                  
R20  21173176.650   113222482.655       -1616.749          36.000    21173201.680    88062055.401       -1257.819          39.000  
E03  23821271.534   125181628.074           9.308          37.000    23821301.891    95918513.835           7.269          34.000  
E08  25697738.922   135042531.972        1894.859          35.000    25697773.590   103474295.470        1452.026          38.000  
E15  24872030.885   130703402.771         -51.084          39.000    24872063.476   100149505.385         -39.160          37.000  
E05  24512908.174   128816170.070       -2435.263          39.000    24512948.359    98703474.209       -1866.145          38.000  
E34  25117925.116   131995586.152       -1131.834          43.000    25117960.043   101139630.983        -867.150          41.000  
E27  26189759.388   137628085.805       -1547.014          34.000    26189799.175   105455469.990       -1184.592          30.000  
E30  26228679.970   137832538.357       -3080.016          29.000    26228718.101   105612185.843       -2361.609          37.000  
> 2025 04 04 10 34 15.9990000  0 21                     
G25  23402982.982   122983519.741       -1937.469          31.000    23403024.340    95831476.338       -1510.138          30.000  
G11  21954021.958   115369150.690       -1316.379          46.000    21954043.960    89898147.219       -1025.688          43.000  
G05  20716463.733   108865737.488       -1204.739          43.000    20716483.868    84830525.050        -938.749          39.000  
G06  23616670.711   124106439.663       -2159.222          43.000    23616705.382    96706480.285       -1682.166          40.000  
G13  20803815.130   109324806.903        1460.912          35.000                                                                  
R21  20431393.213   109332502.268         993.787          49.000    20431411.812    85036480.449         772.949          42.000  
R05  23366629.843   124908027.8983      -5037.529          25.000    23366627.276    97150697.4592      -3917.718          29.000  
R06  19166587.644   102276558.726       -1918.029          39.000                                                                  
R07  20054527.639   107353452.964        1769.377          49.000    20054548.774    83497218.450        1376.109          46.000  
G12  23033116.381   121039840.712       -3110.366          44.000    23033142.992    94316841.414       -2423.375          36.000  
G15  22535278.439   118423703.762        2638.198          44.000    22535300.839    92278321.425        2055.499          38.000  
G29  23271687.650   122293543.5373       2394.801          30.000    23271710.109                        1864.021          20.000  
G20  21510984.910   113040995.817       -2498.267          47.000                                                                  
R20  21173478.958   113224099.359       -1616.025          36.000    21173504.183    88063312.868       -1257.145          40.000  
E03  23821269.812   125181618.848           9.884          39.000    23821300.109    95918506.790           7.444          34.000  
E08  25697378.344   135040637.285        1895.462          35.000    25697412.905   103472843.690        1452.186          37.000  
E15  24872040.675   130703453.998         -50.423          39.000    24872073.195   100149544.656         -38.683          37.000  
E05  24513371.544   128818605.803       -2435.415          39.000    24513411.889    98705340.556       -1866.051          38.000  
E34  25118140.503   131996718.108       -1131.304          43.000    25118175.287   101140498.333        -867.039          41.000  
E27  26190053.958   137629633.002       -1546.101          35.000    26190093.733   105456655.561       -1185.279          30.000  
E30  26229266.652   137835620.593       -3081.591          29.000    26229304.355   105614547.491       -2361.081          37.000  
> 2025 04 04 10 34 16.9990000  0 21                     
G25  23403352.172   122985457.661       -1938.544          32.000    23403393.174    95832986.374       -1510.413          31.000  
G11  21954272.441   115370466.842       -1315.932          46.000    21954294.346    89899172.742       -1025.382          45.000  
G05  20716692.951   108866942.044       -1204.342          44.000    20716713.039    84831463.679        -938.912          39.000  
G06  23617081.550   124108598.380       -2158.466          43.000    23617116.100    96708162.460       -1681.940          40.000  
G13  20803536.885   109323345.856        1461.064          37.000                                                                  
R21  20431207.420   109331508.285         994.122          49.000    20431226.026    85035707.359         773.383          42.000  
R05  23367570.486                       -5035.686          25.000    23367568.758    97154614.7621      -3917.836          30.000  
R06  19166947.047   102278476.820       -1918.066          38.000                                                                  
R07  20054197.046   107351683.623        1769.288          50.000    20054218.241    83495842.279        1376.006          47.000  
G12  23033708.207   121042950.880       -3110.029          43.000    23033734.860    94319264.885       -2423.691          37.000  
G15  22534776.426   118421065.469        2638.417          44.000    22534798.719    92276265.641        2055.600          39.000  
G29  23271229.564   122291147.1452       2395.835          30.000    23271254.634                        1865.604          22.000  
G20  21511460.334   113043493.815       -2497.715          47.000                                                                  
R20  21173781.258   113225715.638       -1616.493          32.000    21173806.583    88064570.108       -1257.076          40.000  
E03  23821268.530   125181609.482           9.253          34.000    23821298.253    95918499.648           7.269          37.000  
E08  25697017.560   135038741.902        1895.599          35.000    25697052.152   103471391.360        1452.471          37.000  
E15  24872050.294   130703504.317         -49.983          39.000    24872082.915   100149583.286         -38.427          36.000  
E05  24513835.285   128821041.089       -2435.136          39.000    24513875.134    98707206.536       -1865.730          42.000  
E34  25118355.912   131997849.260       -1130.855          44.000    25118390.356   101141365.038        -866.526          43.000  
E27  26190347.702   137631179.732       -1546.639          35.000    26190388.244   105457840.744       -1185.334          30.000  
E30  26229853.512   137838701.946       -3081.261          28.000    26229890.743   105616908.623       -2360.582          36.000  
> 2025 04 04 10 34 17.9990000  0 21                     
G25  23403721.182   122987395.797       -1938.989          33.000    23403762.014    95834496.547       -1510.400          30.000  
G11  21954522.696   115371782.990       -1316.795          46.000    21954544.731    89900198.353       -1025.820          38.000  
G05  20716922.110   108868146.842       -1205.552          44.000    20716942.356    84832402.509        -939.351          40.000  
G06  23617492.455   124110757.260       -2159.424          43.000    23617526.854    96709844.710       -1682.806          40.000  
G13  20803258.980   109321885.381        1459.868          39.000                                                                  
R21  20431021.701   109330514.433         993.329          48.000    20431040.311    85034934.428         772.589          42.000  
R05  23368513.114                       -5034.622          25.000    23368509.840    97158532.563       -3918.876          29.000  
R06  19167306.561   102280395.698       -1919.612          38.000                                                                  
R07  20053866.594   107349914.849        1768.120          47.000    20053887.803    83494466.591        1375.125          46.000  
G12  23034300.050   121046061.070       -3110.799          42.000    23034326.675    94321688.454       -2423.420          37.000  
G15  22534274.474   118418427.297        2637.683          42.000    22534296.657    92274209.946        2054.987          38.000  
G29  23270771.381   122288728.9353       2395.446          29.000    23270797.714    95290025.9461       1866.869          26.000  
G20  21511935.773   113045991.771       -2498.575          46.000                                                                  
R20  21174083.730   113227332.437       -1617.167          36.000    21174108.979    88065827.522       -1258.250          42.000  
E03  23821266.900   125181599.952           8.691          39.000    23821296.510    95918492.407           6.592          37.000  
E08  25696657.516   135036846.539        1894.917          41.000    25696691.457   103469939.118        1451.937          40.000  
E15  24872059.802   130703554.528         -50.731          41.000    24872092.464   100149621.634         -38.247          33.000  
E05  24514298.992   128823476.665       -2436.269          39.000    24514338.239    98709072.660       -1866.605          37.000  
E34  25118571.407   131998980.316       -1131.646          45.000    25118605.549   101142231.690        -866.743          38.000  
E27  26190641.597   137632726.865       -1548.024          36.000    26190682.624   105459026.048       -1185.879          33.000  
E30  26230439.746   137841783.369       -3081.847          29.000    26230477.014   105619269.670       -2361.681          36.000  
> 2025 04 04 10 34 18.9990000  0 21                     
G25  23404090.117   122989335.038       -1939.984          33.000    23404131.062    95836007.623       -1511.316          30.000  
G11  21954773.313   115373100.038       -1317.498          47.000    21954795.310    89901224.634       -1026.662          39.000  
G05  20717151.609   108869352.699       -1206.307          44.000    20717171.840    84833342.150        -940.117          39.000  
G06  23617903.570   124112916.981       -2159.967          43.000    23617937.786    96711527.605       -1683.606          40.000  
G13  20802981.300   109320425.980        1458.811          40.000                                                                  
R21  20430836.256   109329521.532         992.438          48.000    20430854.780    85034162.160         771.704          41.000  
R05  23369455.807                       -5040.364          22.000    23369452.027                       -3919.846          26.000  
R06  19167666.390   102282316.136       -1921.304          35.000                                                                  
R07  20053536.457   107348147.496        1766.639          48.000    20053557.547    83493091.973        1374.031          46.000  
G12  23034892.161   121049172.215       -3111.512          43.000    23034918.774    94324112.744       -2424.351          36.000  
G15  22533772.621   118415790.085        2636.884          42.000    22533794.811    92272154.996        2054.023          38.000  
G29  23270313.145   122286333.2221       2395.584          31.000    23270346.317    95288159.590        1865.489          30.000  
G20  21512411.231   113048490.538       -2499.076          47.000                                                                  
R20  21174386.279   113228950.287       -1618.339          36.000    21174411.589    88067085.834       -1258.804          43.000  
E03  23821264.670   125181591.878           7.350          40.000    23821294.999    95918486.233           5.589          37.000  
E08  25696297.472   135034952.036        1894.027          40.000    25696330.733   103468487.483        1451.356          40.000  
E15  24872069.716   130703605.363         -51.043          40.000    24872101.933   100149660.643         -39.311          33.000  
E05  24514762.714   128825913.370       -2437.291          39.000    24514801.410    98710939.701       -1867.382          38.000  
E34  25118786.867   132000112.148       -1132.255          45.000    25118820.719   101143099.005        -868.223          35.000  
E27  26190936.185   137634275.016       -1548.857          36.000    26190977.447   105460212.328       -1186.926          33.000  
E30  26231026.960   137844865.578       -3082.784          32.000    26231063.564   105621631.358       -2362.172          36.000  
> 2025 04 04 10 34 19.9990000  0 21                     
G25  23404459.583   122991275.967       -1941.479          34.000    23404500.253    95837520.196       -1513.306          29.000  
G11  21955024.299   115374418.590       -1318.680          45.000    21955046.346    89902252.106       -1027.482          42.000  
G05  20717381.474   108870560.217       -1207.525          44.000    20717401.656    84834283.030        -940.885          40.000  
G06  23618314.831   124115078.170       -2161.176          43.000    23618349.084    96713211.603       -1684.155          42.000  
G13  20802703.926   109318968.403        1457.274          39.000                                                                  
R21  20430650.974   109328530.197         991.046          49.000    20430669.586    85033391.116         770.874          43.000  
R05  23370399.561                       -5045.978          20.000    23370401.222                       -3930.514          25.000  
R06  19168026.813   102284238.676       -1923.044          38.000                                                                  
R07  20053206.586   107346382.165        1764.811          49.000    20053227.752    83491718.933        1372.821          47.000  
G12  23035484.469   121052284.915       -3113.142          43.000    23035511.044    94326538.137       -2424.828          37.000  
G15  22533271.037   118413154.432        2635.554          43.000    22533293.267    92270101.194        2053.952          38.000  
G29  23269858.292   122283939.464        2394.618          32.000    23269891.192    95286294.309        1864.701          29.000  
G20  21512887.047   113050990.734       -2500.166          47.000                                                                  
R20  21174689.140   113230569.906       -1620.072          37.000    21174714.560    88068345.544       -1259.900          41.000  
E03  23821263.924   125181585.685           6.278          34.000    23821293.987    95918481.453           4.588          35.000  
E08  25695937.256   135033058.977        1893.102          39.000    25695970.619   103467036.971        1450.644          36.000  
E15  24872079.554   130703657.455         -51.650          41.000    24872111.555   100149700.601         -39.867          36.000  
E05  24515226.411   128828351.769       -2438.686          38.000    24515265.373    98712808.252       -1868.827          36.000  
E34  25119002.330   132001245.340       -1133.059          44.000    25119036.314   101143967.292        -868.169          40.000  
E27  26191230.810   137635824.805       -1549.800          35.000    26191272.390   105461399.831       -1187.386          33.000  
E30  26231613.606   137847949.326       -3082.385          27.000    26231650.420   105623994.168       -2363.031          36.000  
> 2025 04 04 10 34 20.9990000  0 21                     
G25  23404829.304   122993217.345       -1941.412          34.000    23404869.682    95839032.904       -1513.031          31.000  
G11  21955275.259   115375737.268       -1318.836          46.000    21955297.112    89903279.590       -1027.541          40.000  
G05  20717611.391   108871768.077       -1207.959          44.000    20717631.375    84835224.242        -941.130          39.000  
G06  23618726.142   124117239.494       -2161.847          38.000    23618760.399    96714895.809       -1684.314          41.000  
G13  20802426.668   109317511.407        1457.232          37.000                                                                  
R21  20430465.741   109327539.049         991.144          48.000    20430484.426    85032620.260         770.685          43.000  
R05  23371342.420                       -5033.667          20.000    23371349.457                       -3919.560          27.000  
R06  19168387.209   102286162.111       -1923.922          39.000                                                                  
R07  20052876.839   107344617.523        1764.301          49.000    20052898.206    83490346.457        1372.182          46.000  
G12  23036076.737   121055397.716       -3112.833          44.000    23036103.393    94328963.735       -2425.031          36.000  
G15  22532769.428   118410518.980        2635.447          44.000    22532791.828    92268047.627        2053.586          39.000  
G29  23269403.898   122281545.929        2394.295          31.000    23269437.263    95284429.148        1864.586          30.000  
G20  21513362.748   113053490.951       -2500.352          46.000                                                                  
R20  21174992.183   113232190.039       -1620.710          36.000    21175017.635    88069605.584       -1260.325          45.000  
E03  23821262.204   125181579.697           5.961          40.000    23821292.799    95918476.797           4.545          40.000  
E08  25695577.139   135031166.096        1892.874          36.000    25695610.302   103465586.536        1450.818          36.000  
E15  24872089.288   130703709.556         -51.973          41.000    24872121.705   100149740.523         -39.963          37.000  
E05  24515690.369   128830790.553       -2439.200          40.000    24515729.487    98714676.787       -1868.967          36.000  
E34  25119218.192   132002378.565       -1133.173          45.000    25119251.986   101144835.546        -867.982          37.000  
E27  26191526.116   137637375.085       -1550.362          35.000    26191567.444   105462587.730       -1188.654          32.000  
E30  26232199.943   137851033.001       -3083.719          28.000    26232237.023   105626357.023       -2363.017          37.000  
> 2025 04 04 10 34 21.9990000  0 21                     
G25  23405198.869   122995158.580       -1940.967          31.000    23405239.379    95840545.519       -1511.817          32.000  
G11  21955526.041   115377055.561       -1317.398          46.000    21955548.011    89904306.815       -1025.958          40.000  
G05  20717841.229   108872975.734       -1206.769          44.000    20717861.228    84836165.287        -940.233          39.000  
G06  23619137.446   124119400.504       -2160.248          42.000    23619171.613    96716579.666       -1683.435          41.000  
G13  20802149.417   109316054.320        1458.033          35.000                                                                  
R21  20430280.455   109326547.602         992.621          48.000    20430299.179    85031849.143         771.875          43.000  
R05  23372285.664                       -5035.064          22.000    23372295.524    97174244.3853      -3919.431          28.000  
R06  19168747.718   102288085.820       -1923.210          39.000                                                                  
R07  20052547.217   107342853.064        1765.247          48.000    20052568.743    83488974.119        1372.897          45.000  
G12  23036669.028   121058510.261       -3111.204          43.000    23036695.672    94331389.140       -2424.747          36.000  
G15  22532267.861   118407883.257        2637.013          44.000    22532290.278    92265993.821        2054.454          39.000  
G29  23268947.660   122279152.170        2395.189          32.000    23268979.887    95282563.769        1867.161          31.000  
G20  21513838.612   113055990.737       -2498.479          47.000                                                                  
R20  21175295.182   113233809.962       -1618.925          32.000    21175320.623    88070865.542       -1258.893          43.000  
E03  23821260.933   125181573.759           6.983          41.000    23821291.722    95918472.259           5.187          40.000  
E08  25695216.697   135029272.840        1894.209          36.000    25695250.203   103464135.859        1451.596          37.000  
E15  24872099.183   130703761.045         -50.519          41.000    24872131.572   100149779.986         -38.617          37.000  
E05  24516154.395   128833229.226       -2437.709          40.000    24516193.253    98716545.393       -1867.506          36.000  
E34  25119433.795   132003511.298       -1131.562          45.000    25119467.742   101145703.512        -867.198          36.000  
E27  26191821.313   137638925.183       -1549.110          34.000    26191862.461   105463775.462       -1187.798          32.000  
E30  26232786.887   137854116.278       -3082.403          29.000    26232823.738   105628719.533       -2362.136          38.000  
> 2025 04 04 10 34 22.9990000  0 21                     
G25  23405568.344   122997099.730       -1941.412          32.000    23405608.894    95842058.115       -1512.824          31.000  
G11  21955776.703   115378373.573       -1318.174          47.000    21955798.852    89905333.833       -1027.278          38.000  
G05  20718070.931   108874183.290       -1207.692          45.000    20718090.988    84837106.247        -941.484          39.000  
G06  23619548.599   124121561.222       -2161.029          41.000    23619582.897    96718263.380       -1684.131          42.000  
G13  20801871.993   109314597.241        1457.067          35.000                                                                  
R21  20430095.261   109325555.974         991.504          49.000    20430113.803    85031077.899         771.088          42.000  
R05  23373229.279                       -5034.797          21.000    23373238.173                       -3919.252          27.000  
R06  19169108.275   102290009.893       -1924.648          39.000                                                                  
R07  20052217.669   107341088.886        1763.848          48.000    20052239.123    83487601.987        1371.786          45.000  
G12  23037261.289   121061622.556       -3112.335          43.000    23037287.977    94333814.315       -2425.489          35.000  
G15  22531766.187   118405247.341        2635.692          44.000    22531788.754    92263939.861        2053.741          39.000  
G29  23268491.712   122276758.142        2393.900          32.000    23268524.807    95280698.334        1864.741          32.000  
G20  21514314.216   113058490.165       -2499.717          48.000                                                                  
R20  21175597.969   113235429.989       -1620.010          34.000    21175623.735    88072125.577       -1260.504          45.000  
E03  23821259.765   125181567.824           5.402          43.000    23821290.440    95918467.694           4.317          42.000  
E08  25694856.263   135027379.268        1893.379          35.000    25694890.011   103462684.927        1450.243          36.000  
E15  24872108.922   130703812.035         -51.146          41.000    24872141.127   100149819.042         -39.210          37.000  
E05  24516618.408   128835667.846       -2438.982          39.000    24516657.102    98718413.943       -1868.850          39.000  
E34  25119649.031   132004643.656       -1132.581          46.000    25119683.108   101146571.130        -867.683          36.000  
E27  26192116.315   137640475.172       -1551.070          33.000    26192157.269   105464963.062       -1187.792          31.000  
E30  26233374.193   137857199.148       -3082.805          30.000    26233410.254   105631081.734       -2362.541          38.000  
> 2025 04 04 10 34 23.9990000  0 21                     
G25  23405937.782   122999041.127       -1940.619          32.000    23405978.717    95843570.812       -1510.980          31.000  
G11  21956027.493   115379691.600       -1317.564          46.000    21956049.689    89906360.866       -1026.375          38.000  
G05  20718300.781   108875391.039       -1207.576          44.000    20718320.801    84838047.315        -940.561          39.000  
G06  23619959.803   124123721.947       -2160.211          41.000    23619994.120    96719947.039       -1683.301          42.000  
G13  20801594.618   109313140.633        1455.906          34.000                                                                  
R21  20429909.990   109324564.457         992.029          49.000    20429928.668    85030306.712         771.497          43.000  
R05  23374169.167                       -5029.489          20.000    23374181.230    97182082.6953      -3919.000          27.000  
R06  19169468.983   102291934.672       -1924.802          39.000                                                                  
R07  20051888.189   107339325.237        1763.803          48.000    20051909.586    83486230.279        1371.831          45.000  
G12  23037853.598   121064734.930       -3111.958          43.000    23037880.264    94336239.528       -2424.816          36.000  
G15  22531264.515   118402611.508        2636.098          44.000    22531287.163    92261885.987        2053.909          39.000  
G29  23268036.301   122274364.214        2394.693          33.000    23268068.370    95278832.925        1865.112          32.000  
G20  21514789.789   113060989.532       -2498.920          46.000                                                                  
R20  21175900.964   113237050.323       -1620.840          34.000    21175926.940    88073385.799       -1260.061          45.000  
E03  23821258.882   125181562.183           5.823          43.000    23821289.262    95918463.374           4.632          42.000  
E08  25694496.092   135025485.701        1893.430          35.000    25694529.580   103461234.022        1450.814          36.000  
E15  24872118.676   130703862.821         -50.479          41.000    24872150.997   100149857.973         -38.371          37.000  
E05  24517082.559   128838106.728       -2438.704          39.000    24517121.126    98720282.708       -1868.557          39.000  
E34  25119864.618   132005775.895       -1131.747          46.000    25119898.408   101147438.688        -867.281          35.000  
E27  26192411.536   137642025.370       -1549.605          33.000    26192452.324   105466150.896       -1187.311          31.000  
E30  26233961.028   137860282.045       -3082.541          31.000    26233996.880   105633443.934       -2361.713          37.000  
> 2025 04 04 10 34 24.9990000  0 21                     
G25  23406307.038   123000981.962       -1940.387          33.000    23406347.924    95845083.261       -1512.268          31.000  
G11  21956278.176   115381008.908       -1316.759          46.000    21956300.358    89907387.349       -1026.260          38.000  
G05  20718530.447   108876598.252       -1206.888          44.000    20718550.587    84838988.015        -940.357          40.000  
G06  23620370.841   124125881.969       -2159.698          40.000    23620405.286    96721630.185       -1683.020          43.000  
G13  20801317.140   109311683.502        1457.508          35.000                                                                  
R21  20429724.564   109323572.244         992.554          49.000    20429743.302    85029535.011         771.960          43.000  
R05  23375107.740                       -5042.792          19.000    23375126.592    97186000.8331      -3918.341          29.000  
R06  19169829.621   102293859.390       -1924.954          39.000                                                                  
R07  20051558.691   107337561.403        1764.088          48.000    20051580.031    83484858.399        1372.027          45.000  
G12  23038445.591   121067846.603       -3111.179          43.000    23038472.260    94338664.199       -2424.308          36.000  
G15  22530762.609   118399975.025        2636.889          44.000    22530785.556    92259831.596        2054.717          39.000  
G29  23267580.873   122271969.632        2395.665          36.000    23267612.400    95276967.003        1867.008          32.000  
G20  21515265.264   113063488.076       -2498.033          46.000                                                                  
R20  21176203.952   113238670.097       -1619.390          34.000    21176229.981    88074645.661       -1259.460          45.000  
E03  23821257.368   125181556.101           6.497          43.000    23821288.090    95918458.735           4.871          42.000  
E08  25694135.655   135023591.337        1895.251          36.000    25694169.046   103459782.535        1451.569          36.000  
E15  24872128.266   130703912.691         -49.319          41.000    24872160.485   100149896.181         -37.654          37.000  
E05  24517546.723   128840545.074       -2437.777          39.000    24517585.105    98722151.082       -1868.197          39.000  
E34  25120079.938   132006907.284       -1130.896          46.000    25120113.578   101148305.571        -866.332          35.000  
E27  26192706.148   137643575.027       -1549.329          33.000    26192747.237   105467338.429       -1188.249          31.000  
E30  26234547.617   137863364.142       -3082.634          30.000    26234583.257   105635805.524       -2361.314          37.000  
> 2025 04 04 10 34 25.9990000  0 21                     
G25  23406676.272   123002921.846       -1940.027          34.000    23406717.063    95846594.816       -1512.476          31.000  
G11  21956528.690   115382324.990       -1316.032          45.000    21956550.887    89908412.896       -1025.654          43.000  
G05  20718759.984   108877804.388       -1206.244          44.000    20718779.993    84839927.830        -939.753          39.000  
G06  23620781.732   124128040.723       -2158.563          44.000    23620816.192    96723312.340       -1682.751          41.000  
G13  20801039.589   109310225.429        1457.151          38.000                                                                  
R21  20429538.852   109322578.843         993.292          49.000    20429557.686    85028762.293         772.668          40.000  
R05  23376048.840                       -5036.366          19.000    23376069.189    97189918.476       -3917.368          29.000  
R06  19170190.195   102295783.483       -1924.738          39.000                                                                  
R07  20051229.169   107335796.854        1764.311          49.000    20051250.497    83483485.972        1372.055          46.000  
G12  23039037.459   121070957.125       -3110.693          43.000    23039064.215    94341088.002       -2424.500          38.000  
G15  22530260.597   118397337.403        2637.575          44.000    22530283.522    92257776.308        2055.040          39.000  
G29  23267125.756   122269573.869        2396.020          35.000    23267156.629    95275100.275        1867.496          27.000  
G20  21515740.439   113065985.363       -2497.217          47.000                                                                  
R20  21176506.702   113240288.827       -1618.862          35.000    21176532.842    88075904.793       -1259.303          41.000  
E03  23821256.194   125181549.253           7.548          33.000    23821286.732    95918453.558           4.991          37.000  
E08  25693774.889   135021695.827        1896.087          36.000    25693808.232   103458330.117        1452.572          37.000  
E15  24872137.700   130703961.092         -48.455          40.000    24872169.809   100149933.276         -37.465          37.000  
E05  24518010.514   128842982.461       -2437.352          39.000    24518049.016    98724018.827       -1867.903          38.000  
E34  25120294.813   132008037.328       -1129.835          45.000    25120328.518   101149171.512        -866.022          40.000  
E27  26193000.729   137645123.770       -1548.856          34.000    26193041.795   105468524.986       -1186.435          32.000  
E30  26235134.027   137866444.812       -3080.890          30.000    26235169.560   105638166.097       -2360.782          37.000  
> 2025 04 04 10 34 26.9990000  0 22                     
G25  23407045.767   123004862.384       -1937.341          35.000    23407086.736                       -1508.793          22.000  
G11  21956779.256   115383641.383       -1313.041          45.000    21956801.401    89909438.566       -1021.852          39.000  
G05  20718989.650   108879011.061       -1203.596          45.000    20719009.690    84840868.127        -938.055          40.000  
G06  23621192.583   124130199.886       -2155.743          41.000    23621227.118    96724994.814       -1679.981          41.000  
G13  20800762.335   109308768.150        1460.631          37.000                                                                  
R27  19524485.131   104149757.590       -2702.197          48.000                                                                  
R21  20429353.230   109321585.844         996.716          47.000    20429372.214    85027990.021         774.933          42.000  
R05  23376988.852                       -5036.834          21.000    23377009.701                       -3915.014          29.000  
R06  19170551.009   102297708.692       -1922.515          38.000                                                                  
R07  20050899.766   107334033.195        1766.811          46.000    20050920.981    83482114.240        1374.351          42.000  
G12  23039629.427   121074068.032       -3107.579          44.000    23039656.235    94343512.040       -2421.421          40.000  
G15  22529758.762   118394700.208        2640.386          41.000    22529781.542    92255721.365        2057.172          34.000  
G29  23266670.616   122267178.472        2398.715          34.000    23266700.860    95273233.646        1870.162          28.000  
G20  21516215.755   113068482.847       -2493.823          47.000                                                                  
R20  21176809.542   113241908.405       -1615.968          35.000    21176835.763    88077164.388       -1257.482          44.000  
E03  23821254.927   125181542.697           9.842          40.000    23821285.863    95918448.486           7.554          40.000  
E08  25693414.480   135019800.543        1899.383          37.000    25693447.820   103456877.922        1455.744          37.000  
E15  24872146.758   130704009.596         -44.281          40.000    24872179.062   100149970.458         -34.043          37.000  
E05  24518474.725   128845420.435       -2434.278          41.000    24518513.046    98725886.706       -1865.103          36.000  
E34  25120509.921   132009167.570       -1126.383          46.000    25120544.014   101150037.474        -862.246          38.000  
E27  26193295.451   137646673.045       -1545.879          35.000    26193336.535   105469712.102       -1184.649          32.000  
E30  26235720.897   137869525.609       -3076.683          34.000    26235756.008   105640526.826       -2357.393          34.000  
> 2025 04 04 10 34 27.9990000  0 21                     
G25  23407415.099   123006801.919       -1945.654          35.000    23407454.323    95849612.0921      -1513.995          25.000  
G11  21957029.539   115384956.556       -1321.050          46.000    21957051.704    89910463.406       -1029.216          43.000  
G05  20719219.200   108880216.723       -1211.361          43.000    20719239.077    84841807.624        -944.387          40.000  
G06  23621603.257   124132357.821       -2163.629          42.000    23621637.814    96726676.248       -1685.608          36.000  
G13  20800484.843   109307309.851        1452.459          45.000                                                                  
R21  20429167.393   109320591.823         988.147          48.000    20429186.546    85027216.867         768.634          42.000  
R05  23377933.500                       -5033.626          22.000    23377955.111                       -3922.483          27.000  
R06  19170911.771   102299633.333       -1931.302          37.000                                                                  
R07  20050570.199   107332269.047        1758.012          43.000    20050591.460    83480742.130        1367.364          40.000  
G12  23040221.178   121077177.754       -3115.455          44.000    23040247.981    94345935.208       -2427.650          40.000  
G15  22529256.726   118392061.792        2632.311          42.000    22529279.501    92253665.406        2050.807          35.000  
G29  23266214.954   122264781.990        2390.774          34.000    23266244.546    95271381.3311       1864.946          28.000  
G20  21516690.820   113070979.109       -2501.854          47.000                                                                  
R20  21177112.194   113243526.955       -1624.989          33.000    21177138.598    88078423.296       -1263.560          42.000  
E03  23821253.121   125181535.483           1.898          44.000    23821284.747    95918442.951           1.686          47.000  
E08  25693053.949   135017904.304        1890.761          35.000    25693087.118   103455424.926        1449.098          32.000  
E15  24872155.819   130704056.780         -52.583          40.000    24872188.142   100150006.542         -39.744          33.000  
E05  24518938.547   128847857.394       -2442.494          34.000    24518976.940    98727754.146       -1872.955          36.000  
E34  25120724.965   132010296.529       -1134.445          46.000    25120759.010   101150902.500        -868.674          41.000  
E27  26193589.997   137648221.339       -1554.044          35.000    26193631.318   105470898.502       -1190.594          33.000  
E30  26236306.650   137872605.401       -3085.352          34.000    26236342.148   105642886.611       -2363.651          35.000  
> 2025 04 04 10 34 28.9990000  0 21                     
G25  23407784.314   123008740.778       -1939.014          35.000    23407821.974    95851122.972       -1510.925          31.000  
G11  21957279.625   115386270.941       -1314.192          46.000    21957301.879    89911487.671       -1024.869          41.000  
G05  20719448.564   108881421.708       -1204.871          43.000    20719468.374    84842746.578        -938.278          39.000  
G06  23622013.815   124134514.938       -2157.422          40.000    23622048.388    96728357.154       -1681.372          40.000  
G13  20800207.282   109305851.211        1458.394          45.000                                                                  
R21  20428981.492   109319596.952         994.635          49.000    20429000.658    85026443.080         773.346          43.000  
R05  23378874.539                       -5035.628          23.000    23378895.079    97201683.0253      -3914.671          27.000  
R06  19171272.387   102301557.763       -1924.565          38.000                                                                  
R07  20050240.620   107330504.265        1765.266          40.000    20050261.889    83479369.613        1372.902          39.000  
G12  23040812.770   121080286.705       -3108.159          42.000    23040839.442    94348357.805       -2422.571          39.000  
G15  22528754.583   118389422.754        2639.152          42.000    22528777.305    92251609.053        2056.281          36.000  
G29  23265759.236   122262384.755        2396.836          37.000    23265789.051    95269513.350        1868.115          27.000  
G20  21517165.760   113073474.425       -2495.193          47.000                                                                  
R20  21177414.815   113245145.491       -1618.837          34.000    21177441.523    88079675.2643      -1259.163          41.000  
E03  23821251.896   125181527.682           8.109          44.000    23821282.920    95918436.978           5.789          47.000  
E08  25692693.504   135016006.997        1897.428          35.000    25692726.194   103453971.209        1453.507          32.000  
E15  24872164.677   130704102.889         -45.379          41.000    24872197.018   100150041.919         -34.955          37.000  
E05  24519402.131   128850293.859       -2436.751          39.000    24519440.714    98729620.962       -1866.829          38.000  
E34  25120939.455   132011424.535       -1127.557          45.000    25120974.166   101151766.917        -865.084          38.000  
E27  26193884.491   137649768.957       -1546.973          35.000    26193925.915   105472084.4071      -1186.146          33.000  
E30  26236892.843   137875684.312       -3078.172          32.000    26236928.049   105645245.818       -2358.933          36.000  
> 2025 04 04 10 34 29.9990000  0 21                     
G25  23408153.601   123010679.802       -1937.353          35.000    23408191.929    95852633.870       -1510.413          31.000  
G11  21957529.668   115387585.186       -1313.162          46.000    21957551.956    89912511.731       -1023.082          41.000  
G05  20719677.855   108882626.783       -1203.848          45.000    20719697.764    84843685.622        -938.303          37.000  
G06  23622424.328   124136671.898       -2155.096          42.000    23622458.861    96730037.960       -1680.438          38.000  
G13  20799929.815   109304392.920        1459.461          40.000                                                                  
R21  20428795.504   109318601.999         996.393          49.000    20428814.682    85025669.245         775.024          43.000  
R05  23379815.640                       -5035.802          23.000    23379834.617                       -3917.668          26.000  
R06  19171633.170   102303482.766       -1924.142          38.000                                                                  
R07  20049910.932   107328739.978        1764.987          48.000    20049932.357    83477997.321        1373.256          46.000  
G12  23041404.393   121083395.560       -3107.338          43.000    23041430.998    94350780.255       -2421.189          37.000  
G15  22528252.363   118386783.638        2640.336          44.000    22528275.143    92249552.609        2057.647          39.000  
G29  23265303.297   122259987.334        2399.998          35.000    23265332.984    95267645.404        1867.460          28.000  
G20  21517640.573   113075969.544       -2493.647          48.000                                                                  
R20  21177717.585   113246763.531       -1617.086          33.000    21177744.022    88080933.8622      -1258.257          40.000  
E03  23821250.165   125181519.937           8.996          46.000    23821281.870    95918431.035           6.923          45.000  
E08  25692332.703   135014109.400        1898.216          36.000    25692364.990   103452517.229        1454.775          39.000  
E15  24872173.278   130704148.692         -44.584          41.000    24872205.821   100150077.035         -34.249          37.000  
E05  24519865.726   128852730.424       -2435.414          39.000    24519904.150    98731487.948       -1866.948          38.000  
E34  25121154.144   132012552.291       -1126.480          45.000    25121188.738   101152631.008        -863.235          40.000  
E27  26194179.177   137651316.800       -1546.483          36.000    26194220.309   105473270.289       -1184.481          32.000  
E30  26237478.893   137878763.054       -3078.776          29.000    26237514.053   105647604.786       -2357.647          34.000  
> 2025 04 04 10 34 30.9990000  0 21                     
G25  23408522.643   123012617.966       -1937.115          35.000    23408562.435    95854144.143       -1510.016          30.000  
G11  21957779.450   115388898.331       -1311.900          46.000    21957801.822    89913534.957       -1022.330          40.000  
G05  20719907.039   108883830.942       -1203.218          45.000    20719926.891    84844623.939        -937.491          40.000  
G06  23622834.685   124138827.862       -2154.785          43.000    23622869.087    96731717.877       -1678.790          40.000  
G13  20799652.067   109302933.574        1460.305          43.000                                                                  
R21  20428609.395   109317606.024         997.241          49.000    20428628.676    85024894.598         775.555          42.000  
R05  23380757.853                       -5033.171          25.000    23380777.263                       -3925.914          24.000  
R06  19171993.812   102305407.385       -1923.731          38.000                                                                  
R07  20049581.261   107326975.185        1765.703          47.000    20049602.773    83476624.744        1373.487          45.000  
G12  23041995.829   121086503.368       -3106.489          43.000    23042022.419    94353201.941       -2421.013          38.000  
G15  22527749.913   118384143.472        2641.113          43.000    22527772.761    92247495.356        2057.857          38.000  
G29  23264846.985   122257589.018        2401.745          32.000    23264878.196    95265776.559        1869.363          29.000  
G20  21518115.075   113078463.525       -2492.681          47.000                                                                  
R20  21178019.987   113248389.4521      -1616.470          33.000    21178046.432    88082191.1721      -1256.937          44.000  
E03  23821248.785   125181511.650           9.825          37.000    23821280.356    95918424.739           7.165          39.000  
E08  25691970.659   135012210.926        1899.746          40.000    25692003.816   103451062.573        1455.366          39.000  
E15  24872181.763   130704193.126         -43.339          41.000    24872214.450   100150111.040         -33.248          37.000  
E05  24520329.534   128855166.105       -2434.559          39.000    24520367.769    98733354.157       -1865.452          41.000  
E34  25121368.174   132013678.853       -1125.296          45.000    25121402.990   101153494.178        -862.405          38.000  
E27  26194473.352   137652863.680       -1545.670          36.000    26194514.575   105474455.560       -1183.210          32.000  
E30  26238063.716   137881840.630       -3076.481          33.000    26238099.895   105649962.904       -2357.551          37.000  
> 2025 04 04 10 34 31.9990000  0 21                     
G25  23408891.579   123014555.248       -1936.786          36.000    23408930.820    95855653.695       -1509.064          29.000  
G11  21958029.062   115390210.417       -1311.379          46.000    21958051.471    89914557.333       -1022.185          40.000  
G05  20720136.105   108885034.168       -1202.970          45.000    20720155.745    84845561.506        -937.725          39.000  
G06  23623244.792   124140982.712       -2154.529          44.000    23623279.190    96733396.978       -1678.564          41.000  
G13  20799374.373   109301473.697        1460.172          46.000                                                                  
R21  20428422.911   109316609.020         997.260          47.000    20428442.439    85024119.114         775.873          40.000  
R05  23381699.139   124988581.3903      -5032.755          25.000    23381718.648                       -3913.666          24.000  
R06  19172354.366   102307331.521       -1923.939          37.000                                                                  
R07  20049251.582   107325209.846        1765.336          48.000    20049272.960    83475251.677        1373.333          46.000  
G12  23042587.027   121089610.151       -3106.443          43.000    23042613.618    94355622.807       -2420.491          38.000  
G15  22527247.369   118381502.339        2641.309          43.000    22527270.167    92245437.304        2057.892          38.000  
G29  23264390.756   122255189.778        2399.214          33.000    23264419.338    95263906.982        1868.408          32.000  
G20  21518589.443   113080956.337       -2492.106          46.000                                                                  
R20  21178322.236   113250005.926       -1615.824          33.000    21178348.098    88083448.488       -1256.722          43.000  
E03  23821247.649   125181502.415           9.709          41.000    23821278.382    95918417.647           7.450          42.000  
E08  25691609.216   135010311.369        1900.027          38.000    25691642.104   103449607.065        1455.683          39.000  
E15  24872189.851   130704236.309         -42.891          39.000    24872222.552   100150144.087         -32.368          36.000  
E05  24520792.858   128857600.895       -2434.927          37.000    24520831.070    98735219.853       -1865.178          38.000  
E34  25121582.032   132014804.198       -1124.335          45.000    25121616.951   101154356.484        -862.326          38.000  
E27  26194767.237   137654409.724       -1545.963          36.000    26194808.509   105475640.263       -1184.210          31.000  
E30  26238649.209   137884916.984       -3076.010          32.000    26238685.122   105652320.123       -2356.979          36.000  
> 2025 04 04 10 34 32.9990000  0 21                     
G25  23409260.677   123016492.716       -1936.499          36.000    23409298.032    95857163.470       -1509.625          30.000  
G11  21958278.598   115391522.472       -1311.628          46.000    21958301.146    89915579.750       -1022.109          42.000  
G05  20720365.152   108886237.589       -1202.704          45.000    20720384.662    84846499.222        -937.259          39.000  
G06  23623654.888   124143137.553       -2154.089          44.000    23623689.290    96735076.023       -1679.193          39.000  
G13  20799096.562   109300014.302        1459.994          42.000                                                                  
R21  20428236.737   109315612.057         997.491          48.000    20428256.151    85023343.747         775.519          41.000  
R05  23382641.215   124993617.0132      -5032.979          27.000    23382660.718                       -3914.269          25.000  
R06  19172715.081   102309256.317       -1924.507          38.000                                                                  
R07  20048921.953   107323445.060        1764.785          47.000    20048943.201    83473879.062        1372.792          45.000  
G12  23043178.280   121092716.972       -3105.875          44.000    23043204.875    94358043.725       -2420.363          38.000  
G15  22526744.787   118378861.227        2641.574          43.000    22526767.687    92243379.343        2058.120          38.000  
G29  23263933.284                        2399.140          28.000    23263964.732    95262037.537        1868.687          29.000  
G20  21519063.900   113083449.019       -2491.855          47.000                                                                  
R20  21178624.596   113251622.745       -1615.920          33.000    21178652.090    88084705.972       -1257.177          39.000  
E03  23821245.671   125181493.333           9.314          42.000    23821276.586    95918410.681           7.228          43.000  
E08  25691247.486   135008411.682        1899.913          40.000    25691280.566   103448151.477        1455.792          40.000  
E15  24872198.278   130704279.237         -42.564          38.000    24872230.892   100150177.037         -31.994          36.000  
E05  24521255.818   128860035.952       -2434.602          39.000    24521294.227    98737085.699       -1866.081          39.000  
E34  25121796.455   132015929.434       -1124.886          45.000    25121830.979   101155218.671        -861.713          40.000  
E27  26195061.356   137655955.972       -1546.201          36.000    26195102.375   105476825.096       -1184.992          31.000  
E30  26239234.528   137887993.302       -3075.163          32.000    26239270.556   105654677.229       -2356.893          37.000  
> 2025 04 04 10 34 33.9990000  0 21                     
G25  23409629.620   123018430.446       -1936.078          34.000    23409665.803    95858673.359       -1509.180          30.000  
G11  21958528.282   115392834.422       -1310.295          46.000    21958550.761    89916602.033       -1021.458          41.000  
G05  20720594.112   108887441.102       -1202.130          45.000    20720613.670    84847437.007        -936.730          37.000  
G06  23624064.985   124145292.263       -2153.241          42.000    23624099.411    96736755.104       -1678.070          40.000  
G13  20798818.795   109298554.888        1461.208          37.000                                                                  
R21  20428050.375   109314615.084         998.132          47.000    20428069.779    85022568.338         776.624          41.000  
R05  23383581.349   124998649.6612      -5031.495          29.000    23383601.828    97221251.5793      -3914.273          25.000  
R06  19173075.859   102311181.681       -1924.515          37.000                                                                  
R07  20048592.311   107321680.651        1765.735          49.000    20048613.570    83472506.710        1373.504          47.000  
G12  23043769.520   121095823.730       -3105.115          44.000    23043796.090    94360464.559       -2419.711          36.000  
G15  22526242.209   118376220.088        2642.556          44.000    22526265.121    92241321.322        2059.002          39.000  
G29  23263475.121   122250386.1553       2400.307          33.000    23263506.092    95260167.872        1869.503          29.000  
G20  21519538.173   113085941.540       -2491.257          47.000                                                                  
R20  21178927.052   113253239.754       -1616.012          34.000    21178955.515    88085963.649       -1256.676          44.000  
E03  23821243.764   125181484.642           9.677          43.000    23821274.844    95918404.009           7.194          46.000  
E08  25690885.685   135006512.097        1898.274          28.000    25690918.998   103446695.910        1455.839          32.000  
E15  24872206.051   130704321.844         -40.776          35.000    24872239.101   100150209.812         -31.758          36.000  
E05  24521719.576   128862471.171       -2434.064          41.000    24521757.484    98738951.672       -1865.127          40.000  
E34  25122010.976   132017054.490       -1124.015          46.000    25122045.047   101156080.675        -861.071          38.000  
E27  26195355.575   137657502.367       -1545.043          36.000    26195396.665   105478009.960       -1183.982          32.000  
E30  26239820.586   137891069.540       -3075.719          26.000    26239855.811   105657034.317       -2356.075          37.000  
> 2025 04 04 10 34 34.9990000  0 21                     
G25  23409998.551   123020368.427       -1938.885          36.000    23410034.622    95860183.511       -1510.620          31.000  
G11  21958777.953   115394146.513       -1312.303          46.000    21958800.362    89917624.421       -1022.764          40.000  
G05  20720823.171   108888644.950       -1204.326          44.000    20720842.796    84848375.093        -938.153          39.000  
G06  23624475.167   124147447.173       -2155.145          42.000    23624509.565    96738434.232       -1679.608          40.000  
G13  20798541.227   109297095.964        1458.321          45.000                                                                  
R21  20427864.173   109313618.343         996.405          47.000    20427883.522    85021793.100         775.091          39.000  
R05  23384521.138   125003681.8421      -5032.416          28.000    23384542.036    97225160.9473      -3915.009          25.000  
R06  19173436.793   102313107.871       -1926.808          37.000                                                                  
R07  20048262.797   107319916.962        1763.034          47.000    20048284.054    83471134.996        1371.152          44.000  
G12  23044360.738   121098930.712       -3107.120          43.000    23044387.253    94362885.630       -2421.755          37.000  
G15  22525739.825   118373579.238        2640.342          43.000    22525762.614    92239263.496        2057.477          38.000  
G29  23263019.261   122247987.1362       2398.091          34.000    23263047.383    95258298.464        1869.956          29.000  
G20  21520012.542   113088434.138       -2492.973          46.000                                                                  
R20  21179229.706   113254857.226       -1618.442          34.000    21179258.167    88087221.636       -1258.286          40.000  
E03  23821242.100   125181476.316           7.850          44.000    23821272.990    95918397.663           6.142          46.000  
E08  25690524.618   135004612.523        1899.071          37.000    25690557.675   103445240.362        1455.246          32.000  
E15  24872213.749   130704364.506         -42.706          35.000    24872247.034   100150242.403         -32.450          36.000  
E05  24522182.854   128864906.734       -2435.688          39.000    24522220.760    98740817.876       -1866.357          40.000  
E34  25122224.845   132018179.488       -1125.141          45.000    25122259.162   101156942.728        -862.190          38.000  
E27  26195649.977   137659049.122       -1546.564          34.000    26195691.079   105479195.095       -1185.444          32.000  
E30  26240406.772   137894145.572       -3076.509          33.000    26240441.262   105659391.376       -2357.117          37.000  
> 2025 04 04 10 34 35.9990000  0 21                     
G25  23410367.531   123022306.739       -1938.867          35.000    23410403.493    95861693.838       -1509.998          31.000  
G11  21959027.561   115395458.692       -1312.177          46.000    21959050.134    89918646.893       -1022.460          41.000  
G05  20721052.291   108889849.006       -1204.049          43.000    20721071.947    84849313.324        -938.215          38.000  
G06  23624885.299   124149602.186       -2155.090          43.000    23624919.766    96740113.411       -1679.132          39.000  
G13  20798263.900   109295637.670        1458.248          40.000                                                                  
R21  20427677.917   109312621.793         996.320          45.000    20427697.396    85021018.005         774.982          41.000  
R05  23385462.379   125008714.662       -5032.135          27.000    23385479.599    97229075.4662      -3914.337          27.000  
R06  19173797.977   102315034.815       -1927.267          37.000                                                                  
R07  20047933.448   107318153.939        1762.756          49.000    20047954.688    83469763.765        1371.071          46.000  
G12  23044951.971   121102037.806       -3107.196          43.000    23044978.543    94365306.725       -2421.288          36.000  
G15  22525237.314   118370938.490        2640.645          44.000    22525260.168    92237205.778        2057.421          39.000  
G29  23262563.165   122245588.1712       2399.532          33.000    23262592.843    95256428.2451       1867.977          30.000  
G20  21520486.800   113090926.754       -2492.521          46.000                                                                  
R20  21179532.395   113256474.947       -1618.353          34.000    21179560.287    88088479.987       -1258.442          43.000  
E03  23821240.452   125181468.367           7.965          46.000    23821271.283    95918391.549           6.055          46.000  
E08  25690163.131   135002712.942        1899.727          30.000    25690196.142   103443784.807        1455.674          31.000  
E15  24872221.763   130704406.944         -42.170          39.000    24872255.007   100150274.910         -32.232          35.000  
E05  24522646.395   128867342.659       -2435.776          41.000    24522684.270    98742684.346       -1866.523          39.000  
E34  25122438.881   132019304.489       -1124.681          45.000    25122473.156   101157804.763        -861.926          39.000  
E27  26195943.560   137660596.148       -1547.585          31.000    26195985.213   105480380.508       -1185.408          32.000  
E30  26240992.195   137897221.845       -3076.332          33.000    26241026.615   105661748.504       -2357.057          37.000  
> 2025 04 04 10 34 36.9990000  0 21                     
G25  23410736.733   123024245.597       -1939.148          35.000    23410772.943    95863204.711       -1511.115          30.000  
G11  21959277.357   115396771.152       -1312.820          46.000    21959299.857    89919669.588       -1022.657          41.000  
G05  20721281.428   108891053.550       -1204.988          43.000    20721301.148    84850251.938        -939.059          37.000  
G06  23625295.609   124151757.451       -2155.621          42.000    23625330.030    96741792.860       -1679.443          39.000  
G13  20797986.476   109294179.778        1457.082          39.000                                                                  
R21  20427491.531   109311625.550         995.880          46.000    20427511.284    85020243.176         774.561          41.000  
R05  23386402.430   125013747.762       -5033.143          28.000    23386420.768    97232989.5971      -3915.094          27.000  
R06  19174159.351   102316962.703       -1928.596          37.000                                                                  
R07  20047604.172   107316391.727        1761.480          48.000    20047625.493    83468393.161        1369.979          45.000  
G12  23045543.198   121105145.196       -3107.693          43.000    23045569.810    94367728.068       -2421.614          36.000  
G15  22524734.885   118368298.125        2640.088          43.000    22524757.573    92235148.342        2057.336          38.000  
G29  23262107.311   122243189.615        2398.215          34.000    23262136.322    95254559.149        1868.680          29.000  
G20  21520961.086   113093419.546       -2493.011          46.000                                                                  
R20  21179835.174   113258093.362       -1618.673          33.000    21179862.826    88089738.706       -1258.992          42.000  
E03  23821239.307   125181461.040           6.761          46.000    23821269.937    95918385.923           5.344          46.000  
E08  25689800.703   135000813.728        1898.901          30.000    25689834.707   103442329.560        1455.470          29.000  
E15  24872229.604   130704449.507         -42.624          39.000    24872263.157   100150307.523         -32.803          34.000  
E05  24523109.938   128869779.088       -2436.856          40.000    24523147.850    98744551.228       -1867.174          39.000  
E34  25122652.949   132020429.667       -1125.445          45.000    25122687.195   101158666.895        -862.172          39.000  
E27  26196237.551   137662143.663       -1547.828          31.000    26196279.696   105481566.289       -1186.107          33.000  
E30  26241577.439   137900298.167       -3076.518          33.000    26241611.960   105664105.719       -2357.211          37.000  
> 2025 04 04 10 34 37.9990000  0 21                     
G25  23411106.124   123026185.425       -1940.619          35.000    23411142.033    95864716.203       -1512.885          30.000  
G11  21959527.190   115398084.337       -1313.927          46.000    21959549.756    89920692.849       -1023.561          41.000  
G05  20721510.747   108892259.017       -1206.053          43.000    20721530.593    84851191.244        -939.622          38.000  
G06  23625706.009   124153913.499       -2156.714          42.000    23625740.294    96743472.887       -1680.798          37.000  
G13  20797709.269   109292723.172        1455.883          41.000                                                                  
R21  20427305.533   109310630.179         994.769          45.000    20427325.225    85019468.990         773.438          39.000  
R05  23387342.589   125018781.503       -5034.729          26.000    23387366.322    97236904.804       -3916.058          28.000  
R06  19174520.835   102318892.047       -1930.518          37.000                                                                  
R07  20047275.125   107314630.835        1760.071          48.000    20047296.625    83467023.593        1368.780          47.000  
G12  23046134.626   121108253.376       -3108.653          42.000    23046161.308    94370150.018       -2422.006          36.000  
G15  22524232.606   118365658.573        2638.862          44.000    22524255.339    92233091.556        2056.582          39.000  
G29  23261650.904   122240791.876        2397.010          37.000    23261680.600    95252690.722        1868.219          30.000  
G20  21521435.499   113095913.014       -2494.220          45.000                                                                  
R20  21180138.096   113259712.802       -1620.416          32.000    21180165.493    88090998.222       -1260.013          43.000  
E03  23821237.763   125181454.651           5.648          45.000    23821268.578    95918381.042           4.293          47.000  
E08  25689438.322   134998914.998        1898.044          34.000    25689473.339   103440874.786        1454.057          34.000  
E15  24872237.673   130704492.501         -43.322          39.000    24872271.254   100150340.504         -33.527          34.000  
E05  24523573.924   128872216.459       -2438.004          41.000    24523611.647    98746418.836       -1868.193          38.000  
E34  25122867.524   132021555.446       -1126.485          46.000    25122901.477   101159529.517        -863.089          39.000  
E27  26196530.878   137663692.184       -1549.719          34.000    26196574.544   105482752.770       -1186.325          30.000  
E30  26242163.625   137903375.292       -3076.732          34.000    26242197.434   105666463.471       -2358.097          36.000  
> 2025 04 04 10 34 38.9990000  0 21                     
G25  23411475.624   123028126.546       -1943.658          35.000    23411511.548    95866228.723       -1514.087          32.000  
G11  21959777.327   115399398.540       -1316.300          47.000    21959799.859    89921716.910       -1025.501          41.000  
G05  20721740.274   108893465.737       -1209.321          44.000    20721760.232    84852131.510        -941.700          38.000  
G06  23626116.493   124156070.551       -2159.387          41.000    23626150.689    96745153.700       -1682.666          37.000  
G13  20797432.442   109291267.833        1453.209          43.000                                                                  
R21  20427119.705   109309635.881         992.053          46.000    20427139.312    85018695.683         771.368          39.000  
R05  23388285.487                       -5037.495          25.000    23388305.375    97240820.829       -3917.505          29.000  
R06  19174882.688   102320823.080       -1933.541          37.000                                                                  
R07  20046946.442   107312871.514        1757.000          48.000    20046968.056    83465655.236        1366.535          46.000  
G12  23046726.349   121111362.690       -3111.660          42.000    23046752.979    94372572.864       -2425.123          36.000  
G15  22523730.597   118363020.144        2636.098          43.000    22523753.161    92231035.657        2053.868          38.000  
G29  23261195.310   122238395.070        2395.126          32.000    23261224.663    95250826.1981       1866.001          29.000  
G20  21521910.007   113098407.412       -2496.471          46.000                                                                  
R20  21180441.189   113261333.508       -1623.169          33.000    21180468.456    88092258.806       -1262.234          43.000  
E03  23821236.522   125181449.635           2.782          44.000    23821267.744    95918377.203           2.082          46.000  
E08  25689077.416   134997017.491        1895.150          34.000    25689112.180   103439420.837        1452.567          35.000  
E15  24872246.238   130704536.423         -46.165          37.000    24872279.599   100150374.137         -34.827          29.000  
E05  24524038.062   128874655.132       -2440.590          41.000    24524075.745    98748287.440       -1870.102          38.000  
E34  25123081.703   132022682.142       -1128.660          45.000    25123116.015   101160392.820        -864.801          39.000  
E27  26196825.466   137665241.954       -1552.287          35.000    26196869.379   105483940.250       -1188.070          30.000  
E30  26242749.965   137906453.301       -3079.664          29.000    26242783.233   105668821.999       -2360.597          36.000  
> 2025 04 04 10 34 39.9990000  0 21                     
G25  23411845.126   123030068.183       -1941.644          35.000    23411881.052    95867741.778       -1512.897          30.000  
G11  21960027.575   115400713.166       -1314.905          45.000    21960050.020    89922741.293       -1024.952          41.000  
G05  20721969.903   108894672.997       -1207.727          44.000    20721989.937    84853072.263        -940.931          38.000  
G06  23626527.103   124158228.022       -2157.635          41.000    23626561.106    96746834.879       -1681.299          39.000  
G13  20797155.579   109289813.034        1454.181          44.000                                                                  
R21  20426934.017   109308642.152         993.353          49.000    20426953.504    85017922.706         772.559          40.000  
R06  19175244.732   102322755.261       -1933.011          37.000                                                                  
R07  20046617.931   107311113.122        1757.884          48.000    20046639.454    83464287.597        1367.107          46.000  
G12  23047318.130   121114472.389       -3109.623          42.000    23047344.693    94374996.011       -2423.770          39.000  
G15  22523228.469   118360382.139        2637.813          44.000    22523251.153    92228980.079        2055.615          39.000  
G29  23260740.840   122235998.845        2396.195          39.000    23260767.490    95248958.938        1866.048          30.000  
G20  21522384.808   113100902.179       -2495.223          48.000                                                                  
R20  21180744.525   113262954.940       -1622.240          33.000    21180771.631    88093519.924       -1261.588          42.000  
E03  23821236.011   125181445.327           3.874          43.000    23821266.881    95918373.939           2.899          45.000  
E08  25688716.603   134995120.436        1896.235          28.000    25688751.093   103437967.259        1453.221          30.000  
E15  24872254.799   130704580.646         -44.207          39.000    24872288.001   100150408.015         -34.138          35.000  
E05  24524501.881   128877094.429       -2439.756          39.000    24524540.103    98750156.542       -1869.733          38.000  
E34  25123296.215   132023809.128       -1127.369          45.000    25123330.484   101161256.320        -863.282          39.000  
E27  26197119.932   137666792.313       -1550.620          31.000    26197164.504   105485128.229       -1188.667          30.000  
E30  26243336.320                       -3078.129          21.000    26243368.888   105671180.751       -2359.127          37.000  
R05                                                                  23389244.691    97244737.067       -3916.559          28.000  
> 2025 04 04 10 34 40.9990000  0 21                     
G25  23412214.852   123032010.810       -1945.038          35.000    23412250.865    95869255.471       -1515.338          30.000  
G11  21960277.873   115402028.383       -1316.496          47.000    21960300.238    89923766.096       -1025.566          41.000  
G05  20722199.717   108895881.039       -1209.112          41.000    20722219.736    84854013.621        -941.703          38.000  
G06  23626937.768   124160386.111       -2159.589          41.000    23626971.797    96748516.504       -1682.764          38.000  
G13  20796878.988   109288359.421        1452.812          46.000                                                                  
R21  20426748.477   109307649.072         991.730          49.000    20426767.908    85017150.337         771.423          43.000  
R06  19175607.104   102324688.753       -1935.748          37.000                                                                  
R07  20046289.630   107309355.923        1755.474          48.000    20046311.194    83462920.883        1365.439          45.000  
G12  23047910.083   121117582.769       -3111.101          43.000    23047936.522    94377419.662       -2424.040          37.000  
G15  22522726.512   118357744.865        2636.153          44.000    22522749.290    92226925.041        2054.281          38.000  
G29  23260285.680   122233603.293        2393.388          32.000    23260309.297    95247092.245        1866.760          29.000  
G20  21522859.651   113103397.438       -2496.256          46.000                                                                  
R20  21181047.681   113264577.223       -1623.845          33.000    21181074.948    88094781.768       -1262.591          42.000  
E03  23821235.191   125181441.887           3.004          44.000    23821266.587    95918371.286           2.063          46.000  
E08  25688356.447   134993223.908        1895.983          41.000    25688390.295   103436514.123        1452.658          40.000  
E15  24872263.175   130704624.996         -44.710          37.000    24872296.484   100150442.053         -34.397          35.000  
E05  24524966.135   128879534.597       -2440.892          40.000    24525004.614    98752026.256       -1870.504          39.000  
E34  25123510.558   132024936.572       -1127.518          45.000    25123545.107   101162120.211        -864.322          39.000  
E27  26197414.182   137668343.433       -1552.250          32.000    26197459.640   105486316.665       -1187.964          31.000  
E30  26243920.489                       -3080.322          32.000    26243954.809   105673539.875       -2359.065          36.000  
R05                                                                  23390185.192                       -3912.262          25.000  
> 2025 04 04 10 34 41.9990000  0 21                     
G25  23412584.559   123033953.424       -1942.719          35.000    23412620.557    95870769.212       -1512.689          30.000  
G11  21960528.080   115403343.513       -1315.092          47.000    21960550.520    89924790.911       -1024.496          41.000  
G05  20722429.539   108897089.173       -1208.077          42.000    20722449.581    84854955.045        -941.429          37.000  
G06  23627348.370   124162544.091       -2157.520          40.000    23627382.410    96750198.015       -1680.896          38.000  
G13  20796602.448   109286906.001        1453.355          45.000                                                                  
R21  20426562.979   109306655.914         993.488          48.000    20426582.269    85016377.898         773.059          41.000  
R06  19175969.546   102326622.750       -1934.266          37.000                                                                  
R07  20045961.340   107307599.150        1757.078          48.000    20045982.994    83461554.534        1366.505          46.000  
G12  23048502.105   121120693.084       -3110.240          42.000    23048528.337    94379843.322       -2423.783          37.000  
G15  22522224.602   118355107.569        2637.655          44.000    22522247.441    92224870.067        2055.095          38.000  
G29  23259834.146                        2393.796          26.000    23259853.533                        1867.797          22.000  
G20  21523334.541   113105892.523       -2494.720          46.000                                                                  
R20  21181351.011   113266199.813       -1622.004          33.000    21181378.371    88096043.706       -1262.120          42.000  
E03  23821234.609   125181438.675           3.628          43.000    23821266.094    95918368.823           2.757          45.000  
E08  25687995.652   134991327.262        1896.929          38.000    25688029.584   103435060.896        1453.588          38.000  
E15  24872271.358   130704669.202         -43.797          41.000    24872304.969   100150475.837         -33.129          35.000  
E05  24525430.625   128881974.915       -2440.230          39.000    24525469.241    98753896.081       -1869.640          40.000  
E34  25123724.941   132026063.856       -1126.713          44.000    25123759.904   101162984.017        -863.499          39.000  
E27  26197709.451   137669894.850       -1551.869          32.000    26197754.961   105487505.422       -1188.686          32.000  
E30  26244506.970   137915814.2851      -3078.294          32.000    26244540.727   105675898.964       -2358.914          36.000  
R05                                                                  23391124.430                       -3918.165          25.000  
> 2025 04 04 10 34 42.9990000  0 21                     
G25  23412953.988   123035895.605       -1938.757          35.000    23412990.130    95872282.611       -1511.078          32.000  
G11  21960778.333   115404657.891       -1311.029          46.000    21960800.583    89925815.084       -1021.686          40.000  
G05  20722659.274   108898296.773       -1204.311          43.000    20722679.394    84855896.032        -938.471          38.000  
G06  23627758.703   124164701.395       -2154.675          42.000    23627792.858    96751879.030       -1677.948          39.000  
G13  20796325.874   109285452.254        1457.297          45.000                                                                  
R21  20426377.286   109305662.122         997.308          48.000    20426396.489    85015604.909         775.305          40.000  
R05  23392058.649                       -5040.941          22.000    23392066.870                       -3908.092          25.000  
R06  19176331.927   102328556.726       -1930.964          37.000                                                                  
R07  20045633.180   107305842.216        1760.240          47.000    20045654.822    83460188.016        1368.883          45.000  
G12  23049093.780   121123802.717       -3105.995          43.000    23049119.969    94382266.391       -2420.040          36.000  
G15  22521722.676   118352469.593        2641.735          44.000    22521745.370    92222814.485        2058.266          38.000  
G29  23259375.906   122228844.4333       2399.521          35.000    23259398.627                        1867.175          22.000  
G20  21523809.196   113108386.786       -2490.809          47.000                                                                  
R20  21181654.507   113267821.876       -1618.372          33.000    21181681.671    88097305.353       -1258.879          43.000  
E03  23821233.854   125181435.014           7.405          44.000    23821265.322    95918366.004           6.015          46.000  
E08  25687635.077   134989429.920        1901.276          41.000    25687668.615   103433607.030        1456.848          39.000  
E15  24872279.664   130704712.399         -39.607          42.000    24872313.187   100150509.010         -30.413          35.000  
E05  24525894.847   128884414.699       -2436.156          41.000    24525933.443    98755765.492       -1866.179          39.000  
E34  25123939.221   132027190.243       -1122.348          45.000    25123974.274   101163847.060        -859.711          39.000  
E27  26198005.282   137671445.495       -1546.167          37.000    26198050.081   105488693.692       -1186.020          32.000  
E30  26245092.321   137918892.223       -3073.112          31.000    26245126.574   105678257.329       -2355.128          37.000  
> 2025 04 04 10 34 43.9990000  0 21                     
G25  23413323.173   123037835.946       -1944.324          37.000    23413359.371    95873794.577       -1515.833          33.000  
G11  21961028.030   115405970.263       -1315.501          46.000    21961050.325    89926837.724       -1024.979          41.000  
G05  20722888.683   108899502.524       -1208.610          43.000    20722908.904    84856835.607        -941.623          38.000  
G06  23628168.787   124166856.662       -2158.459          42.000    23628202.865    96753558.443       -1681.604          37.000  
G13  20796048.915   109283996.680        1452.338          45.000                                                                  
R21  20426191.218   109304666.369         992.535          48.000    20426210.284    85014830.456         772.070          41.000  
R05  23393000.120                       -5028.680          23.000    23393007.520                       -3914.806          24.000  
R06  19176694.024   102330489.313       -1935.991          38.000                                                                  
R07  20045304.641   107304083.780        1755.154          47.000    20045326.349    83458820.343        1364.983          46.000  
G12  23049685.084   121126910.284       -3110.435          42.000    23049711.332    94384687.935       -2424.157          38.000  
G15  22521220.256   118349829.690        2637.098          44.000    22521243.078    92220757.420        2054.708          37.000  
G29  23258919.718   122226447.4283       2395.054          44.000    23258943.342                        1867.920          31.000  
G20  21524283.491   113110878.973       -2495.042          47.000                                                                  
R20  21181957.430   113269442.265       -1623.960          33.000    21181984.565    88098565.576       -1262.375          42.000  
E03  23821232.886   125181429.658           3.076          44.000    23821264.440    95918361.906           2.251          45.000  
E08  25687273.738   134987530.575        1897.188          35.000    25687307.234   103432151.741        1453.296          34.000  
E15  24872287.250   130704753.445         -43.648          42.000    24872320.908   100150540.478         -33.176          34.000  
E05  24526358.604   128886852.728       -2440.799          39.000    24526397.494    98757633.630       -1869.897          39.000  
E34  25124153.053   132028314.543       -1126.462          46.000    25124188.396   101164708.550        -863.044          40.000  
E27  26198300.546   137672994.556       -1551.850          37.000    26198344.782   105489880.519       -1188.360          35.000  
E30  26245680.008   137921968.157       -3078.453          35.000    26245711.891   105680614.134       -2358.477          37.000  
> 2025 04 04 10 34 44.9990000  0 21                     
G25  23413692.198   123039774.866       -1937.775          35.000    23413728.438    95875305.382       -1510.437          32.000  
G11  21961277.332   115407280.879       -1310.293          46.000    21961299.780    89927859.005       -1021.326          42.000  
G05  20723117.779   108900706.712       -1204.380          43.000    20723138.099    84857773.893        -937.975          39.000  
G06  23628578.616   124169010.166       -2153.491          41.000    23628612.575    96755236.521       -1677.808          38.000  
G13  20795771.720   109282539.809        1456.702          46.000                                                                  
R21  20426004.907   109303669.4102        997.772          47.000    20426023.896    85014054.669         775.977          41.000  
R05  23393940.018                       -5027.125          25.000    23393947.273                       -3911.205          23.000  
R06  19177056.064   102332420.779       -1931.512          37.000                                                                  
R07  20044975.972   107302324.5542       1759.771          44.000    20044997.722    83457451.680        1368.490          41.000  
G12  23050276.165   121130016.354       -3105.969          42.000    23050302.443    94387108.206       -2420.426          37.000  
G15  22520717.613   118347188.119        2641.752          38.000    22520740.398    92218699.073        2058.657          36.000  
G29  23258463.858   122224051.5612       2399.556          43.000    23258487.388    95239614.7221       1869.983          31.000  
G20  21524757.362   113113369.301       -2490.173          46.000                                                                  
R20  21182260.168   113271061.030       -1618.419          34.000    21182287.259    88099824.673       -1258.853          43.000  
E03  23821231.812   125181422.827           6.877          44.000    23821262.994    95918356.697           5.228          45.000  
E08  25686912.205   134985629.502        1900.823          37.000    25686945.448   103430695.049        1457.114          34.000  
E15  24872294.770   130704792.478         -38.620          43.000    24872328.206   100150570.364         -29.878          35.000  
E05  24526821.861   128889289.325       -2436.930          38.000    24526861.009    98759500.549       -1866.774          40.000  
E34  25124366.816   132029436.982       -1122.246          45.000    25124402.159   101165568.589        -860.048          41.000  
E27  26198595.627   137674542.121       -1547.843          39.000    26198639.265   105491066.279       -1185.516          33.000  
E30  26246262.969   137925042.159       -3074.451          35.000    26246296.839   105682969.539       -2355.375          35.000  
> 2025 04 04 10 34 45.9990000  0 21                     
G25  23414061.327   123041713.378       -1938.885          28.000    23414097.220    95876815.872       -1509.698          27.000  
G11  21961526.651   115408590.808       -1309.650          46.000    21961549.175    89928879.707       -1020.729          42.000  
G05  20723346.795   108901910.403       -1203.500          43.000    20723367.023    84858711.828        -937.731          36.000  
G06  23628988.238   124171162.994       -2152.692          41.000    23629022.223    96756914.067       -1677.576          39.000  
G13  20795494.385   109281082.561        1457.438          46.000                                                                  
R21  20425818.298   109302671.3012        998.145          45.000    20425837.282    85013278.354         776.538          40.000  
R06  19177417.984   102334352.146       -1931.629          38.000                                                                  
R07  20044647.189   107300564.7582       1759.773          44.000    20044669.107    83456082.985        1368.292          42.000  
G12  23050867.145   121133121.667       -3104.839          40.000    23050893.324    94389527.920       -2419.725          37.000  
G15  22520214.713   118344545.895        2642.445          38.000    22520237.496    92216640.197        2059.292          31.000  
G29  23258005.130   122221641.1163       2400.716          40.000    23258027.281    95237744.084        1870.504          26.000  
G20  21525231.151   113115858.893       -2489.335          45.000                                                                  
R20  21182562.735   113272679.496       -1618.943          33.000    21182589.914    88101083.438       -1258.878          42.000  
E03  23821230.389   125181415.602           7.297          44.000    23821261.308    95918351.163           5.654          45.000  
E08  25686550.825   134983727.642        1902.014          37.000    25686583.569   103429237.812        1457.143          34.000  
E15  24872302.159   130704830.654         -37.587          44.000    24872335.321   100150599.618         -28.763          37.000  
E05  24527285.566   128891725.276       -2435.800          38.000    24527324.604    98761367.222       -1867.053          36.000  
E34  25124580.222   132030558.589       -1121.124          45.000    25124615.370   101166427.978        -859.504          39.000  
E27  26198890.638   137676089.178       -1546.823          34.000    26198933.670   105492251.714       -1184.897          33.000  
E30  26246846.689   137928115.387       -3072.680          35.000    26246881.435   105685324.345       -2354.323          37.000  
R05                                                                  23394891.434                       -3921.860          22.000  
> 2025 04 04 10 34 46.9990000  0 21                     
G25  23414430.222   123043651.605       -1938.647          34.000    23414466.016    95878326.223       -1510.760          26.000  
G11  21961775.814   115409900.351       -1309.628          46.000    21961798.481    89929900.104       -1020.454          42.000  
G05  20723575.819   108903113.838       -1203.719          42.000    20723595.972    84859649.606        -937.826          39.000  
G06  23629397.752   124173315.443       -2152.332          42.000    23629431.735    96758591.305       -1677.899          34.000  
G13  20795216.950   109279625.309        1457.263          46.000                                                                  
R21  20425631.713   109301672.421         998.260          49.000    20425650.624    85012501.820         776.288          41.000  
R06  19177779.988   102336283.845       -1932.208          37.000                                                                  
R07  20044318.552   107298804.571        1758.780          40.000    20044340.383    83454714.294        1368.796          42.000  
G12  23051457.876   121136226.663       -3105.163          38.000    23051484.151    94391947.398       -2419.368          36.000  
G15  22519711.907   118341903.482        2642.428          40.000    22519734.603    92214581.235        2058.070          32.000  
G29  23257549.518   122219247.3293       2400.990          41.000    23257571.789    95235873.457        1870.189          31.000  
G20  21525704.900   113118347.998       -2489.091          46.000                                                                  
R20  21182865.409   113274297.769       -1618.457          33.000    21182892.612    88102342.118       -1258.397          44.000  
E03  23821228.687   125181408.250           7.609          43.000    23821259.695    95918345.563           5.687          45.000  
E08  25686189.017   134981825.372        1902.707          36.000    25686221.715   103427780.248        1458.269          34.000  
E15  24872309.353   130704868.230         -37.319          43.000    24872341.906   100150628.404         -28.685          39.000  
E05  24527748.757   128894161.128       -2435.884          40.000    24527787.709    98763233.587       -1866.870          37.000  
E34  25124793.463   132031679.646       -1120.531          45.000    25124828.628   101167287.031        -858.877          42.000  
E27  26199185.413   137677636.031       -1546.533          36.000    26199228.026   105493437.019       -1185.044          33.000  
E30  26247432.253   137931188.254       -3072.975          36.000    26247465.880   105687678.896       -2354.550          34.000  
R05                                                                  23395834.297                       -3915.062          19.000  
> 2025 04 04 10 34 47.9990000  0 21                     
G25  23414799.372   123045590.437       -1940.784          32.000    23414834.910    95879836.867       -1509.778          26.000  
G11  21962025.115   115411210.242       -1310.013          43.000    21962047.762    89930920.879       -1020.997          39.000  
G05  20723804.913   108904317.777       -1204.391          43.000    20723825.026    84860587.742        -938.009          38.000  
G06  23629807.384   124175468.234       -2153.400          42.000    23629841.442    96760268.806       -1677.911          38.000  
G13  20794939.734   109278168.693        1456.017          46.000                                                                  
R21  20425445.248   109300674.429         997.375          48.000    20425464.060    85011725.600         776.373          41.000  
R06  19178142.227   102338216.539       -1933.669          37.000                                                                  
R07  20043989.919   107297045.713        1758.020          45.000    20044011.947    83453346.304        1367.400          45.000  
G12  23052048.797   121139331.982       -3105.828          38.000    23052075.092    94394367.125       -2419.942          37.000  
G15  22519209.149   118339261.457        2641.296          41.000    22519231.842    92212522.461        2058.546          36.000  
G29  23257091.426   122216839.9222       2400.278          41.000    23257114.594    95234003.123        1869.533          27.000  
G20  21526178.495   113120837.379       -2489.555          47.000                                                                  
R20  21183168.070   113275916.692       -1619.573          35.000    21183195.381    88103601.298       -1259.260          43.000  
E03  23821227.666   125181401.553           6.306          43.000    23821258.330    95918340.433           4.850          45.000  
E08  25685827.435   134979923.429        1901.874          36.000    25685859.839   103426322.954        1456.685          32.000  
E15  24872316.591   130704905.954         -38.568          43.000    24872348.953   100150657.336         -29.465          39.000  
E05  24528212.622   128896597.725       -2435.919          32.000    24528251.511    98765100.648       -1866.475          35.000  
E34  25125006.838   132032801.056       -1121.248          42.000    25125041.776   101168146.300        -859.556          38.000  
E27  26199479.875   137679183.369       -1547.829          38.000    26199522.517   105494622.682       -1186.238          33.000  
E30  26248014.487   137934261.278       -3073.357          34.000    26248050.689   105690033.588       -2354.535          35.000  
R05                                                                  23396773.341    97276014.9813      -3912.451          24.000  
> 2025 04 04 10 34 48.9990000  0 21                     
G25  23415168.719   123047530.035       -1940.186          33.000    23415203.957    95881348.542       -1511.963          26.000  
G11  21962274.533   115412520.657       -1310.538          47.000    21962297.136    89931941.879       -1021.382          42.000  
G05  20724034.071   108905522.477       -1204.969          43.000    20724054.173    84861526.498        -939.081          38.000  
G06  23630217.187   124177621.744       -2153.522          36.000    23630251.315    96761946.874       -1677.893          38.000  
G13  20794662.640   109276713.017        1455.275          46.000                                                                  
R21  20425258.895   109299677.090         997.369          47.000    20425277.632    85010949.867         775.940          42.000  
R05  23397697.750                       -5025.763          24.000    23397714.613                       -3915.633          23.000  
R06  19178504.685   102340150.504       -1934.716          37.000                                                                  
R07  20043661.478   107295287.970        1757.371          45.000    20043683.564    83451979.206        1367.110          43.000  
G12  23052639.888   121142437.900       -3105.946          40.000    23052666.213    94396787.294       -2419.831          36.000  
G15  22518706.431   118336619.979        2641.055          40.000    22518729.081    92210464.110        2058.491          35.000  
G29  23256633.506   122214433.2062       2399.640          40.000    23256658.700    95232129.1311       1869.652          26.000  
G20  21526652.432   113123327.232       -2489.804          46.000                                                                  
R20  21183471.034   113277536.527       -1620.098          26.000    21183498.235    88104861.176       -1259.614          38.000  
E03  23821226.802   125181395.723           5.811          43.000    23821257.251    95918335.952           4.265          46.000  
E08  25685465.828   134978022.102        1900.458          36.000    25685497.914   103424866.060        1457.248          32.000  
E15  24872323.628   130704943.969         -37.840          42.000    24872356.159   100150686.457         -28.990          37.000  
E05  24528676.359   128899035.041       -2438.342          39.000    24528715.304    98766968.116       -1867.043          39.000  
E34  25125220.144   132033922.777       -1121.543          45.000    25125255.239   101169005.766        -859.964          40.000  
E27  26199774.864   137680731.625       -1548.662          38.000    26199817.351   105495808.871       -1186.722          33.000  
E30  26248599.901   137937334.864       -3073.594          35.000    26248635.336   105692388.685       -2355.562          37.000  
> 2025 04 04 10 34 49.9990000  0 21                     
G25  23415538.082   123049470.647       -1940.436          33.000    23415573.122    95882860.543       -1511.804          26.000  
G11  21962524.100   115413831.804       -1310.458          44.000    21962546.585    89932963.577       -1021.091          41.000  
G05  20724263.428   108906728.110       -1205.427          43.000    20724283.540    84862465.914        -939.029          38.000  
G06  23630627.059   124179775.745       -2154.144          41.000    23630661.191    96763625.360       -1678.094          38.000  
G13  20794385.797   109275258.410        1454.802          47.000                                                                  
R21  20425072.721   109298680.619         996.704          48.000    20425091.413    85010174.845         775.391          40.000  
R05  23398638.785                       -5030.834          30.000    23398656.476                       -3914.194          24.000  
R06  19178867.371   102342085.862       -1935.458          37.000                                                                  
R07  20043333.336   107293531.551        1756.371          44.000    20043355.538    83450613.096        1366.155          42.000  
G12  23053231.186   121145544.661       -3106.786          39.000    23053257.536    94399208.170       -2421.282          35.000  
G15  22518203.930   118333979.347        2641.233          39.000    22518226.658    92208406.511        2058.704          34.000  
G29  23256177.557   122212034.4202       2399.594          37.000    23256202.471                        1869.630          27.000  
G20  21527126.448   113125817.741       -2490.223          47.000                                                                  
R20  21183774.144   113279157.319       -1621.825          32.000    21183801.265    88106121.803       -1260.873          45.000  
E03  23821225.911   125181390.885           5.652          44.000    23821256.534    95918332.245           4.201          45.000  
E08  25685104.298   134976121.391        1902.096          36.000    25685136.094   103423409.730        1456.799          33.000  
E15  24872331.093   130704982.543         -37.883          44.000    24872363.388   100150715.977         -28.640          39.000  
E05  24529140.222   128901473.339       -2437.878          35.000    24529179.317    98768836.436       -1867.386          37.000  
E34  25125433.909   132035045.163       -1121.585          44.000    25125468.914   101169865.800        -859.674          40.000  
E27  26200069.465   137682280.764       -1548.589          35.000    26200112.265   105496995.879       -1186.265          33.000  
E30  26249184.626   137940409.063       -3072.824          35.000    26249220.411   105694744.246       -2355.322          37.000  
> 2025 04 04 10 34 50.9990000  0 21                     
G25  23415907.588   123051412.044       -1942.902          34.000    23415942.713    95884370.3551      -1514.032          26.000  
G11  21962773.736   115415143.619       -1313.590          45.000    21962796.296    89933985.726       -1023.263          40.000  
G05  20724492.892   108907934.508       -1208.079          43.000    20724513.114    84863405.977        -941.311          38.000  
G06  23631037.184   124181930.635       -2156.409          35.000    23631071.287    96765304.405       -1680.377          35.000  
G13  20794109.182   109273804.758        1451.718          47.000                                                                  
R21  20424886.622   109297684.815         994.098          48.000    20424905.258    85009400.340         773.492          41.000  
R05  23399580.213   125084166.5663      -5032.831          29.000    23399596.985                       -3916.579          26.000  
R06  19179230.239   102344022.574       -1938.497          37.000                                                                  
R07  20043005.355   107291776.308        1753.271          43.000    20043027.531    83449247.941        1364.001          42.000  
G12  23053822.359   121148652.084       -3109.128          39.000    23053848.828    94401629.535       -2422.590          35.000  
G15  22517701.592   118331339.498        2638.149          38.000    22517724.275    92206349.454        2056.216          33.000  
G29  23255721.144   122209636.0372       2398.523          29.000    23255750.491                        1872.778          25.000  
G20  21527600.363   113128308.792       -2492.778          45.000                                                                  
R20  21184077.444   113280779.003       -1622.754          32.000    21184104.497    88107383.173       -1263.086          42.000  
E03  23821225.128   125181387.027           2.177          44.000    23821255.832    95918329.298           1.799          45.000  
E08  25684743.029   134974221.379        1898.421          36.000    25684774.666   103421953.863        1454.367          34.000  
E15  24872338.379   130705021.617         -41.040          41.000    24872370.830   100150745.912         -31.083          36.000  
E05  24529604.541   128903912.323       -2440.623          39.000    24529643.544    98770705.276       -1870.657          35.000  
E34  25125647.676   132036168.045       -1124.314          44.000    25125682.659   101170726.137        -861.567          38.000  
E27  26200364.243   137683830.743       -1551.522          34.000    26200407.393   105498183.528       -1189.144          33.000  
E30  26249769.490   137943483.932       -3076.588          35.000    26249805.288   105697100.260       -2357.234          37.000  
> 2025 04 04 10 34 51.9990000  0 21                     
G25  23416277.341   123053353.927       -1941.754          36.000    23416312.173    95885883.496       -1512.384          27.000  
G11  21963023.271   115416455.556       -1311.155          42.000    21963045.865    89935008.049       -1022.002          41.000  
G05  20724722.503   108909141.377       -1205.790          44.000    20724742.885    84864346.432        -940.748          40.000  
G06  23631447.102   124184085.524       -2155.505          39.000    23631481.405    96766983.580       -1679.077          39.000  
G13  20793832.708   109272351.699        1453.468          47.000                                                                  
R21  20424700.676   109296689.330         997.211          40.000    20424718.957    85008619.1583        776.093          34.000  
R05  23400520.219                       -5039.268          27.000    23400539.790                       -3903.816          25.000  
R06  19179593.201   102345960.188       -1937.794          36.000                                                                  
R07  20042677.562   107290021.854        1754.932          43.000    20042699.811    83447883.376        1364.415          41.000  
G12  23054413.742   121151759.737       -3107.142          40.000    23054440.268    94404051.052       -2420.415          36.000  
G15  22517199.292   118328699.868        2640.296          38.000    22517221.825    92204292.624        2058.252          32.000  
G29  23255265.023   122207238.2052       2397.814          41.000    23255291.338                        1867.357          30.000  
G20  21528074.461   113130799.993       -2489.392          37.000                                                                  
R20  21184380.391   113282401.8513      -1623.206          32.000    21184407.869    88108644.904       -1261.355          43.000  
E03  23821224.489   125181383.695           3.088          44.000    23821255.308    95918326.748           2.760          45.000  
E08  25684381.422   134972321.562        1900.456          36.000    25684413.169   103420498.177        1455.577          33.000  
E15  24872345.716   130705060.562         -38.470          43.000    24872378.331   100150775.794         -30.905          37.000  
E05  24530068.820   128906351.881       -2439.377          39.000    24530107.790    98772574.711       -1869.877          31.000  
E34  25125861.471   132037291.037       -1121.996          43.000    25125896.372   101171586.618        -860.171          40.000  
E27  26200659.493   137685381.199       -1550.852          35.000    26200702.516   105499371.485       -1187.234          33.000  
E30  26250354.589   137946558.889       -3074.337          35.000    26250390.465   105699456.382       -2355.824          37.000  
> 2025 04 04 10 34 52.9990000  0 21                     
G25  23416647.091   123055296.363       -1943.671          35.000    23416681.821    95887397.084       -1514.459          29.000  
G11  21963272.929   115417767.953       -1312.187          44.000    21963295.721    89936030.840       -1023.895          43.000  
G05  20724952.248   108910348.735       -1208.767          42.000    20724972.654    84865287.218        -942.220          36.000  
G06  23631857.254   124186240.752       -2155.804          39.000    23631891.605    96768662.914       -1678.680          35.000  
G13  20793556.352   109270899.270        1451.723          47.000                                                                  
R21  20424514.775   109295694.220         993.958          47.000    20424532.020    85007845.1172        774.640          40.000  
R05  23401462.632                       -5033.777          27.000    23401479.174                       -3912.774          26.000  
R06  19179956.500   102347898.810       -1939.926          36.000                                                                  
R07  20042350.091   107288268.309        1752.918          42.000    20042372.254    83446519.523        1363.123          42.000  
G12  23055005.147   121154867.800       -3108.960          40.000    23055031.851    94406472.935       -2421.699          36.000  
G15  22516697.133   118326060.709        2638.593          40.000    22516719.580    92202236.190        2055.585          33.000  
G29  23254808.797   122204840.6032       2397.288          39.000    23254836.349    95224666.4051       1868.096          29.000  
G20  21528548.637   113133291.427       -2491.984          47.000                                                                  
R20  21184685.581                       -1622.876          27.000    21184711.402    88109907.045       -1262.740          33.000  
E03  23821224.081   125181380.913           2.201          41.000    23821254.620    95918324.619           1.393          42.000  
E08  25684020.676   134970422.051        1899.085          35.000    25684051.701   103419042.644        1454.731          33.000  
E15  24872353.338   130705099.667         -39.237          43.000    24872385.784   100150805.819         -31.082          36.000  
E05  24530532.813   128908792.067       -2440.468          39.000    24530572.311    98774444.330       -1870.168          41.000  
E34  25126075.020   132038414.270       -1123.247          45.000    25126110.439   101172447.404        -861.782          41.000  
E27  26200954.484   137686932.145       -1552.072          35.000    26200997.782   105500559.882       -1188.086          33.000  
E30  26250939.503   137949634.055       -3075.336          36.000    26250975.542   105701812.706       -2356.440          37.000  
> 2025 04 04 10 34 53.9990000  0 21                     
G25  23417016.955   123057239.267       -1942.712          35.000    23417051.484    95888910.953       -1514.050          29.000  
G11  21963522.751   115419080.567       -1312.452          45.000    21963545.500    89937053.501       -1022.744          41.000  
G05  20725182.064   108911556.477       -1207.976          44.000    20725202.475    84866228.278        -941.323          37.000  
G06  23632267.436   124188396.407       -2155.487          41.000    23632301.811    96770342.704       -1680.261          39.000  
G13  20793280.123   109269447.485        1451.432          48.000                                                                  
R21  20424328.943   109294699.504         994.238          48.000    20424344.296    85007071.4922        773.358          40.000  
R05  23402405.441   125099268.7033      -5031.885          27.000    23402419.539                       -3913.623          24.000  
R06  19180319.944   102349838.354       -1940.083          37.000                                                                  
R07  20042022.684   107286515.615        1752.038          36.000    20042044.828    83445156.318        1362.827          39.000  
G12  23055596.632   121157976.161       -3108.429          41.000    23055623.466    94408895.021       -2422.192          39.000  
G15  22516194.940   118323421.909        2638.833          38.000    22516217.471    92200179.993        2056.141          32.000  
G29  23254352.765   122202443.4182       2396.834          40.000    23254380.893    95222798.418        1867.282          29.000  
G20  21529022.834   113135783.088       -2491.795          47.000                                                                  
R20  21184986.715   113285657.6453      -1624.479          33.000    21185015.058    88111169.829       -1263.138          42.000  
E03  23821223.410   125181378.762           1.908          43.000    23821254.220    95918322.960           1.472          46.000  
E08  25683659.017   134968522.791        1899.332          37.000    25683690.255   103417587.414        1454.741          36.000  
E15  24872360.964   130705138.890         -39.190          43.000    24872393.168   100150835.823         -30.502          38.000  
E05  24530997.464   128911232.780       -2440.877          39.000    24531036.609    98776314.419       -1869.750          39.000  
E34  25126288.550   132039537.680       -1123.480          45.000    25126324.081   101173308.085        -860.827          41.000  
E27  26201249.579   137688483.637       -1552.153          35.000    26201293.020   105501748.643       -1188.304          33.000  
E30  26251524.626   137952709.407       -3075.693          35.000    26251560.790   105704169.167       -2356.542          33.000  
> 2025 04 04 10 34 54.9990000  0 21                     
G25  23417386.789   123059182.633       -1944.049          35.000    23417422.359                       -1516.525          19.000  
G11  21963772.598   115420393.336       -1312.950          45.000    21963795.304    89938076.470       -1023.049          41.000  
G05  20725411.917   108912764.596       -1208.588          43.000    20725432.289    84867169.703        -941.532          38.000  
G06  23632677.609   124190552.165       -2155.817          41.000    23632711.952    96772022.455       -1679.657          39.000  
G13  20793003.948   109267996.142        1451.001          47.000                                                                  
R21  20424143.199   109293704.974         994.080          47.000    20424158.827    85006297.994         773.114          40.000  
R05  23403338.772                       -5029.073          25.000    23403360.454                       -3910.294          24.000  
R06  19180683.541   102351778.720       -1941.280          37.000                                                                  
R07  20041695.352   107284763.474        1751.774          36.000    20041717.612    83443793.632        1361.939          38.000  
G12  23056188.235   121161084.719       -3108.784          41.000    23056214.874    94411317.275       -2422.299          39.000  
G15  22515692.894   118320783.260        2638.036          38.000    22515715.331    92198123.904        2055.730          32.000  
G29  23253896.624   122200046.446        2396.542          40.000    23253923.856    95220930.665        1867.703          30.000  
G20  21529496.998   113138274.782       -2492.152          47.000                                                                  
R20  21185290.493   113287268.4983      -1624.181          33.000    21185318.703    88112432.810       -1263.848          42.000  
E03  23821223.033   125181377.012           1.231          43.000    23821253.766    95918321.630           0.918          45.000  
E08  25683297.516   134966623.704        1898.603          37.000    25683328.811   103416132.278        1454.650          32.000  
E15  24872368.322   130705178.005         -39.230          43.000    24872400.530   100150865.811         -30.246          38.000  
E05  24531462.283   128913673.814       -2441.486          39.000    24531501.149    98778184.820       -1870.534          40.000  
E34  25126502.409   132040661.095       -1123.823          45.000    25126537.718   101174168.897        -861.321          39.000  
E27  26201544.913   137690035.418       -1552.482          37.000    26201588.316   105502937.699       -1189.595          33.000  
E30  26252110.024   137955784.897       -3075.294          37.000    26252146.205   105706525.728       -2356.920          33.000  
> 2025 04 04 10 34 55.9990000  0 21                     
G25  23417756.556   123061126.446       -1944.629          34.000    23417792.549                       -1514.840          23.000  
G11  21964022.443   115421706.402       -1313.480          45.000    21964045.146    89939099.614       -1023.335          42.000  
G05  20725641.846   108913973.196       -1208.906          43.000    20725662.297    84868111.478        -942.183          39.000  
G06  23633087.946   124192708.272       -2156.219          42.000    23633122.167    96773702.551       -1680.420          38.000  
G13  20792727.995   109266545.711        1449.884          42.000                                                                  
R21  20423957.550   109292710.895         993.842          48.000    20423973.155    85005524.831         772.778          41.000  
R05  23404280.690                       -5030.855          24.000    23404300.685                       -3915.458          24.000  
R06  19181047.393   102353720.143       -1942.193          38.000                                                                  
R07  20041368.198   107283012.426        1750.461          46.000    20041390.429    83442431.584        1361.516          46.000  
G12  23056779.844   121164193.623       -3109.641          39.000    23056806.406    94413739.766       -2422.743          37.000  
G15  22515190.807   118318145.090        2637.949          42.000    22515213.235    92196068.212        2055.160          37.000  
G29  23253440.600   122197649.859        2396.184          41.000    23253465.084    95219063.129        1867.860          29.000  
G20  21529971.137   113140766.740       -2492.187          47.000                                                                  
R20  21185594.509   113288892.9942      -1625.067          33.000    21185622.400    88113696.300       -1263.688          44.000  
E03  23821222.601   125181375.864           0.620          45.000    23821253.612    95918320.753           0.356          46.000  
E08  25682936.296   134964724.797        1899.287          33.000    25682967.451   103414677.265        1454.824          32.000  
E15  24872375.591   130705217.246         -39.534          42.000    24872407.954   100150895.948         -30.120          38.000  
E05  24531927.058   128916115.442       -2442.051          39.000    24531965.471    98780055.706       -1871.287          39.000  
E34  25126716.078   132041784.687       -1123.877          45.000    25126751.620   101175029.818        -861.019          41.000  
E27  26201840.019   137691587.752       -1552.486          36.000    26201883.808   105504127.219       -1188.868          33.000  
E30  26252695.557   137958860.719       -3075.718          36.000    26252731.488   105708882.519       -2356.974          34.000  
> 2025 04 04 10 34 56.9990000  0 22                     
G25  23418126.512   123063071.428       -1947.327          34.000    23418163.362    95893463.5291      -1516.602          27.000  
G11  21964272.427   115423020.349       -1314.778          45.000    21964295.238    89940123.456       -1024.613          41.000  
G05  20725872.058   108915182.863       -1210.555          42.000    20725892.477    84869054.078        -943.592          38.000  
G06  23633498.425   124194865.242       -2157.721          42.000    23633532.519    96775383.290       -1681.403          37.000  
G13  20792452.088   109265096.092        1448.347          43.000                                                                  
R27  19539732.085   104231089.6811      -2722.194          48.000                                                                  
R21  20423771.907   109291717.756         992.249          48.000    20423788.760    85004752.384         771.527          40.000  
R05  23405221.379                       -5048.694          21.000    23405241.046                       -3919.148          23.000  
R06  19181411.474   102355663.027       -1943.433          37.000                                                                  
R07  20041041.323   107281262.671        1748.758          46.000    20041063.496    83441070.672        1360.167          46.000  
G12  23057371.607   121167303.412       -3110.677          39.000    23057398.187    94416163.024       -2424.366          36.000  
G15  22514688.884   118315507.790        2636.789          43.000    22514711.482    92194013.180        2054.130          39.000  
G29  23252984.790   122195254.205        2394.593          41.000    23253012.259    95217196.423        1866.724          29.000  
G20  21530445.353   113143259.501       -2493.527          46.000                                                                  
R20  21185898.287   113290518.658       -1626.947          36.000    21185926.355    88114960.656       -1264.889          40.000  
E03  23821222.670   125181375.928          -0.885          44.000    23821253.667    95918320.803          -0.541          46.000  
E08  25682574.876   134962826.988        1897.136          33.000    25682606.281   103413223.021        1453.497          32.000  
E15  24872383.214   130705257.170         -40.525          43.000    24872415.560   100150926.463         -31.189          38.000  
E05  24532391.817   128918558.111       -2443.362          40.000    24532430.348    98781927.347       -1871.972          39.000  
E34  25126930.105   132042909.083       -1125.566          44.000    25126965.454   101175891.355        -862.482          40.000  
E27  26202135.739   137693141.184       -1555.094          36.000    26202179.605   105505317.559       -1191.584          33.000  
E30  26253281.057   137961937.224       -3077.348          34.000    26253316.987   105711239.859       -2357.695          37.000  
> 2025 04 04 10 34 57.9990000  0 21                     
G25  23418496.888   123065017.270       -1945.654          34.000    23418534.056    95894979.845       -1516.858          29.000  
G11  21964522.633   115424334.944       -1314.421          45.000    21964545.351    89941147.816       -1024.168          43.000  
G05  20726102.408   108916393.311       -1210.203          43.000    20726122.768    84869997.246        -942.854          38.000  
G06  23633909.017   124197022.825       -2157.159          42.000    23633942.995    96777064.504       -1680.933          39.000  
G13  20792176.402   109263647.650        1448.428          46.000                                                                  
R21  20423586.444   109290725.356         992.719          47.000    20423602.998    85003980.507         772.101          40.000  
R05  23406164.134                       -5028.993          21.000    23406181.450                       -3918.171          22.000  
R06  19181775.840   102357607.277       -1944.064          37.000                                                                  
R07  20040714.701   107279514.137        1748.572          47.000    20040736.928    83439710.735        1359.950          46.000  
G12  23057963.449   121170413.880       -3109.999          40.000    23057990.123    94418586.760       -2424.007          34.000  
G15  22514187.143   118312871.258        2636.878          43.000    22514209.848    92191958.734        2054.687          38.000  
G29  23252529.130   122192859.229        2395.311          42.000    23252556.597    95215330.334        1866.385          28.000  
G20  21530919.820   113145752.773       -2492.958          47.000                                                                  
R20  21186202.126   113292145.222       -1626.854          35.000    21186230.526    88116225.812       -1264.810          43.000  
E03  23821222.992   125181376.870          -1.132          44.000    23821254.035    95918321.523          -0.604          45.000  
E08  25682214.256   134960929.709        1897.602          34.000    25682245.176   103411769.326        1454.136          31.000  
E15  24872390.934   130705297.502         -39.885          43.000    24872423.348   100150957.391         -30.660          38.000  
E05  24532856.866   128921001.711       -2443.611          40.000    24532895.295    98783799.722       -1872.375          39.000  
E34  25127143.919   132044033.940       -1124.721          43.000    25127179.710   101176753.259        -861.695          42.000  
E27  26202431.301   137694695.489       -1554.189          37.000    26202475.556   105506508.515       -1190.577          34.000  
E30  26253866.803   137965014.192       -3076.143          29.000    26253902.499   105713597.651       -2357.835          36.000  
> 2025 04 04 10 34 58.9990000  0 21                     
G25  23418867.068   123066963.079       -1945.270          33.000    23418903.992    95896496.046       -1517.035          29.000  
G11  21964772.803   115425649.399       -1314.629          45.000    21964795.471    89942172.068       -1024.256          41.000  
G05  20726332.725   108917603.859       -1210.917          43.000    20726353.069    84870940.538        -943.552          38.000  
G06  23634319.647   124199180.334       -2157.788          42.000    23634353.619    96778745.688       -1681.171          39.000  
G13  20791900.841   109262199.450        1447.805          46.000                                                                  
R21  20423400.922   109289732.914         992.322          48.000    20423417.171    85003208.585         772.040          40.000  
R05  23407105.448                       -5034.292          24.000    23407122.992                       -3918.190          21.000  
R06  19182140.368   102359552.111       -1945.505          37.000                                                                  
R07  20040388.065   107277766.004        1747.710          47.000    20040410.192    83438351.049        1359.356          45.000  
G12  23058555.296   121173524.348       -3110.900          39.000    23058582.089    94421010.564       -2424.185          36.000  
G15  22513685.343   118310234.657        2636.753          41.000    22513708.100    92189904.258        2054.248          36.000  
G29  23252073.525   122190464.254        2395.058          42.000    23252101.519    95213464.103        1866.815          27.000  
G20  21531394.241   113148245.888       -2493.119          47.000                                                                  
R20  21186507.070   113293771.978       -1627.118          34.000    21186534.714    88117491.110       -1265.729          43.000  
E03  23821223.005   125181377.999          -1.486          44.000    23821254.271    95918322.408          -0.828          45.000  
E08  25681853.076   134959032.311        1896.984          35.000    25681884.341   103410315.536        1453.100          31.000  
E15  24872398.536   130705337.523         -39.858          43.000    24872431.109   100150988.031         -30.724          38.000  
E05  24533321.919   128923445.378       -2444.002          40.000    24533360.070    98785672.164       -1872.800          39.000  
E34  25127357.810   132045158.578       -1124.809          44.000    25127393.615   101177615.012        -862.122          41.000  
E27  26202727.074   137696249.831       -1554.294          36.000    26202771.374   105507699.461       -1191.186          34.000  
E30  26254452.152   137968091.226       -3077.266          36.000    26254488.091   105715955.184       -2357.134          35.000  
> 2025 04 04 10 34 59.9990000  0 21                     
G25  23419237.296   123068909.829       -1946.277          34.000    23419277.517    95898012.969       -1516.998          29.000  
G11  21965023.065   115426964.401       -1315.470          45.000    21965045.597    89943196.737       -1024.976          43.000  
G05  20726563.231   108918815.106       -1211.906          43.000    20726583.625    84871884.374        -944.438          37.000  
G06  23634730.289   124201338.378       -2158.167          41.000    23634764.287    96780427.279       -1681.873          38.000  
G13  20791625.422   109260752.127        1446.743          48.000                                                                  
R21  20423215.549   109288741.045         991.492          48.000    20423232.058    85002437.161         770.972          40.000  
R05  23408046.777                       -5034.963          25.000    23408063.460                       -3922.856          21.000  
R06  19182505.056   102361498.126       -1946.825          37.000                                                                  
R07  20040061.822   107276019.001        1746.485          46.000    20040083.870    83436992.299        1358.318          46.000  
G12  23059147.369   121176635.335       -3111.456          42.000    23059173.984    94423434.656       -2424.162          36.000  
G15  22513183.643   118307598.727        2635.524          41.000    22513206.434    92187850.267        2053.556          36.000  
G29  23251617.970   122188069.905        2393.487          42.000    23251646.160    95211598.295        1866.833          26.000  
G20  21531868.697   113150739.452       -2493.843          47.000                                                                  
R20  21186811.648   113295399.588       -1628.276          33.000    21186839.150    88118757.058       -1266.359          43.000  
E03  23821223.297   125181379.993          -2.337          43.000    23821254.620    95918323.940          -1.985          46.000  
E08  25681491.995   134957135.422        1896.708          38.000    25681523.192   103408862.067        1453.453          35.000  
E15  24872406.281   130705377.850         -40.438          43.000    24872438.866   100151018.945         -31.381          38.000  
E05  24533787.243   128925889.845       -2444.819          40.000    24533825.111    98787545.216       -1873.380          39.000  
E34  25127571.916   132046283.658       -1125.272          44.000    25127607.624   101178477.084        -862.366          41.000  
E27  26203023.121   137697804.992       -1555.744          37.000    26203067.223   105508891.071       -1191.697          34.000  
E30  26255037.736   137971168.560       -3077.728          35.000    26255073.927   105718313.225       -2358.064          35.000  
> 2025 04 04 10 35 00.9990000  0 21                     
G25  23419607.982   123070858.574       -1949.182          33.000    23419645.367    95899531.562       -1519.879          30.000  
G11  21965273.705   115428281.257       -1318.025          45.000    21965296.244    89944222.847       -1027.052          41.000  
G05  20726794.264   108920028.442       -1214.986          43.000    20726814.494    84872829.791        -945.677          37.000  
G06  23635141.384   124203498.279       -2160.199          41.000    23635175.269    96782110.360       -1684.967          37.000  
G13  20791350.505   109259307.002        1443.913          47.000                                                                  
R21  20423030.639   109287751.162         989.441          49.000    20423047.174    85001667.251         769.659          41.000  
R05  23408988.357   125134458.4663      -5038.282          26.000    23409002.974                       -3918.916          23.000  
R06  19182870.167   102363446.689       -1949.355          37.000                                                                  
R07  20039735.955   107274274.432        1743.939          46.000    20039757.823    83435635.446        1355.759          43.000  
G12  23059739.683   121179748.266       -3114.039          41.000    23059766.495    94425860.327       -2426.674          36.000  
G15  22512682.385   118304964.695        2633.497          42.000    22512705.169    92185797.761        2052.324          38.000  
G29  23251162.791   122185677.465        2392.153          39.000    23251191.981    95209734.014        1864.408          27.000  
G20  21532343.633   113153234.788       -2496.036          46.000                                                                  
R20  21187116.358   113297029.363       -1630.747          33.000    21187143.996    88120024.671       -1269.055          42.000  
E03  23821224.271   125181384.140          -5.356          44.000    23821255.731    95918327.111          -4.451          46.000  
E08  25681131.411   134955240.367        1893.903          36.000    25681162.656   103407410.051        1451.473          33.000  
E15  24872414.518   130705419.841         -42.494          43.000    24872446.934   100151051.127         -33.551          38.000  
E05  24534252.730   128928336.514       -2449.262          36.000    24534291.064    98789419.985       -1878.014          32.000  
E34  25127786.501   132047410.479       -1127.958          43.000    25127822.241   101179340.486        -864.887          41.000  
E27  26203319.596   137699362.226       -1558.740          39.000    26203363.446   105510084.262       -1193.673          34.000  
E30  26255623.689   137974247.705       -3080.656          32.000    26255660.034   105720672.602       -2360.486          34.000  
> 2025 04 04 10 35 01.9990000  0 21                     
G25  23419978.707   123072806.498       -1948.553          30.000    23420017.521    95901049.263       -1518.408          26.000  
G11  21965524.020   115429596.945       -1317.410          44.000    21965546.595    89945248.076       -1026.039          42.000  
G05  20727024.971   108921240.656       -1213.864          43.000    20727045.284    84873774.422        -945.619          37.000  
G06  23635552.164   124205657.029       -2159.766          42.000    23635585.824    96783772.4301      -1682.666          36.000  
G13  20791075.266   109257860.992        1444.593          47.000                                                                  
R21  20422845.432   109286760.214         989.270          48.000    20422862.109    85000896.510         769.659          41.000  
R05  23409929.781                       -5036.109          26.000    23409943.512                       -3924.587          22.000  
R06  19183235.317   102365394.754       -1949.837          37.000                                                                  
R07  20039409.997   107272529.207        1743.132          39.000    20039431.842    83434278.110        1356.036          39.000  
G12  23060331.799   121182860.045       -3113.200          41.000    23060358.596    94428285.090       -2426.036          37.000  
G15  22512180.974   118302329.578        2633.271          40.000    22512203.655    92183744.442        2052.578          31.000  
G29  23250707.322   122183283.932        2391.766          42.000    23250737.956                        1856.694          26.000  
G20  21532818.113   113155728.873       -2495.351          47.000                                                                  
R20  21187420.525   113298658.8013      -1630.682          30.000    21187448.667    88121291.594       -1268.552          44.000  
E03  23821224.863   125181387.362          -4.219          44.000    23821256.474    95918329.586          -3.434          45.000  
E08  25680770.482   134953344.121        1895.339          39.000    25680801.996   103405956.964        1453.269          36.000  
E15  24872422.477   130705460.470         -41.676          43.000    24872454.771   100151082.244         -31.652          37.000  
E05  24534718.139   128930782.050       -2446.932          40.000    24534756.556    98791293.819       -1874.985          40.000  
E34  25128000.553   132048535.977       -1126.417          44.000    25128036.225   101180202.868        -863.123          41.000  
E27  26203615.870   137700918.517       -1558.020          34.000    26203659.553   105511276.809       -1194.332          35.000  
E30  26256209.491   137977325.552       -3078.255          35.000    26256245.946   105723030.910       -2358.388          35.000  
> 2025 04 04 10 35 02.9990000  0 21                     
G25  23420349.108   123074754.709       -1948.346          34.000    23420388.991                       -1517.365          26.000  
G11  21965774.386   115430912.800       -1315.594          45.000    21965797.086    89946273.410       -1025.141          41.000  
G05  20727255.783   108922453.324       -1212.439          43.000    20727276.093    84874719.319        -944.721          37.000  
G06  23635962.902   124207815.965       -2158.704          41.000    23635997.203    96785454.769       -1682.233          36.000  
G13  20790800.170   109256415.609        1445.561          47.000                                                                  
R21  20422660.323   109285769.553         990.985          48.000    20422677.034    85000126.002         770.538          41.000  
R05  23410872.549                       -5034.001          25.000    23410886.394                       -3890.813          19.000  
R06  19183600.550   102367343.677       -1949.181          37.000                                                                  
R07  20039084.131   107270784.778        1744.566          40.000    20039105.938    83432921.297        1356.931          38.000  
G12  23060923.966   121185972.038       -3111.775          42.000    23060950.633    94430710.036       -2424.804          39.000  
G15  22511679.631   118299694.753        2635.018          38.000    22511702.143    92181691.346        2053.266          31.000  
G29  23250251.904   122180890.641        2393.375          40.000    23250282.847                        1865.783          26.000  
G20  21533292.877   113158223.059       -2493.695          46.000                                                                  
R20  21187723.802   113300280.1012      -1629.214          32.000    21187753.204    88122558.862       -1267.340          43.000  
E03  23821225.535   125181391.128          -3.490          44.000    23821257.018    95918332.464          -2.704          46.000  
E08  25680409.672   134951448.048        1896.573          36.000    25680441.343   103404504.161        1453.395          35.000  
E15  24872429.890   130705501.053         -40.186          43.000    24872462.409   100151113.339         -30.726          37.000  
E05  24535183.575   128933228.109       -2445.619          40.000    24535222.193    98793168.066       -1874.058          39.000  
E34  25128214.938   132049661.579       -1125.197          44.000    25128250.503   101181065.370        -862.340          41.000  
E27  26203911.968   137702475.190       -1556.575          38.000    26203955.610   105512469.521       -1192.351          35.000  
E30  26256795.333   137980403.571       -3077.263          33.000    26256831.620   105725389.404       -2358.483          33.000  
> 2025 04 04 10 35 03.9990000  0 21                     
G25  23420719.719   123076702.558       -1947.577          34.000    23420762.163    95904105.1281      -1517.847          26.000  
G11  21966024.703   115432228.004       -1315.249          45.000    21966047.328    89947298.245       -1024.707          42.000  
G05  20727486.572   108923665.508       -1212.430          43.000    20727506.730    84875663.894        -944.351          38.000  
G06  23636373.562   124209974.244       -2158.124          41.000    23636407.053    96787136.550       -1682.025          36.000  
G13  20790525.088   109254969.877        1445.604          47.000                                                                  
R21  20422475.151   109284778.264         991.339          48.000    20422491.932    84999355.020         770.856          41.000  
R05  23411815.721   125149571.8683      -5035.114          27.000    23411826.746                       -3915.393          20.000  
R06  19183965.824   102369292.582       -1948.990          37.000                                                                  
R07  20038758.255   107269040.146        1744.679          40.000    20038780.022    83431564.355        1356.925          37.000  
G12  23061515.921   121189083.462       -3111.378          43.000    23061542.648    94433134.512       -2424.751          39.000  
G15  22511178.167   118297059.306        2635.231          35.000    22511200.623    92179637.748        2054.369          30.000  
G29  23249796.409   122178496.778        2394.067          41.000    23249826.510                        1865.088          26.000  
G20  21533767.430   113160716.519       -2493.340          47.000                                                                  
R20  21188029.576   113301909.1082      -1628.511          34.000    21188057.804    88123825.871       -1267.075          44.000  
E03  23821226.266   125181394.476          -3.554          44.000    23821257.448    95918335.040          -2.516          45.000  
E08  25680048.670   134949551.295        1897.271          36.000    25680080.633   103403050.884        1453.177          34.000  
E15  24872437.441   130705540.787         -39.534          43.000    24872469.794   100151143.798         -30.527          38.000  
E05  24535648.954   128935673.752       -2445.903          40.000    24535687.473    98795041.985       -1874.002          39.000  
E34  25128428.997   132050786.417       -1124.838          44.000    25128464.518   101181927.243        -861.815          41.000  
E27  26204208.081   137704031.433       -1556.183          37.000    26204251.528   105513661.982       -1192.687          32.000  
E30  26257381.039   137983480.832       -3077.294          34.000    26257417.148   105727747.349       -2358.233          32.000  
> 2025 04 04 10 35 04.9990000  0 21                     
G25  23421090.327   123078650.649       -1948.431          33.000    23421133.550    95905623.314       -1518.982          26.000  
G11  21966274.910   115433543.204       -1315.128          45.000    21966297.532    89948323.109       -1025.057          42.000  
G05  20727717.300   108924877.838       -1212.301          43.000    20727737.430    84876608.587        -944.764          38.000  
G06  23636784.185   124212132.562       -2158.301          42.000    23636816.394    96788818.311       -1681.891          38.000  
G13  20790249.961   109253524.467        1445.018          46.000                                                                  
R21  20422289.917   109283787.008         991.034          48.000    20422306.719    84998584.037         770.837          40.000  
R05  23412759.058   125154614.3322      -5036.230          27.000    23412768.295                       -3919.479          21.000  
R06  19184331.168   102371242.173       -1949.883          37.000                                                                  
R07  20038432.510   107267296.029        1743.655          39.000    20038454.245    83430207.898        1355.658          37.000  
G12  23062107.992   121192194.908       -3111.698          43.000    23062134.666    94435558.993       -2424.173          39.000  
G15  22510676.536   118294423.914        2635.258          36.000    22510699.040    92177584.332        2053.008          31.000  
G29  23249340.939   122176102.969        2394.010          41.000    23249370.472    95202285.4141       1865.345          27.000  
G20  21534241.836   113163209.893       -2493.535          46.000                                                                  
R20  21188334.154   113303538.0111      -1630.701          33.000    21188362.481    88125093.055       -1267.271          42.000  
E03  23821226.981   125181398.153          -3.765          44.000    23821258.075    95918337.865          -3.058          45.000  
E08  25679687.670   134947654.600        1896.882          37.000    25679719.694   103401597.558        1453.583          34.000  
E15  24872444.694   130705580.284         -39.363          43.000    24872477.231   100151174.054         -30.351          37.000  
E05  24536114.131   128938119.597       -2445.567          40.000    24536152.721    98796916.072       -1874.229          39.000  
E34  25128642.914   132051911.113       -1124.707          44.000    25128678.500   101182789.042        -861.835          41.000  
E27  26204504.245   137705587.884       -1556.392          36.000    26204547.507   105514854.585       -1192.842          33.000  
E30  26257966.551   137986558.060       -3076.749          36.000    26258002.675   105730105.187       -2357.742          33.000  
> 2025 04 04 10 35 05.9990000  0 21                     
G25  23421461.120   123080599.355       -1948.846          36.000    23421501.664    95907141.827       -1518.597          31.000  
G11  21966525.232   115434858.870       -1315.780          45.000    21966547.811    89949348.292       -1025.049          42.000  
G05  20727948.081   108926090.845       -1213.581          43.000    20727968.233    84877553.813        -945.412          38.000  
G06  23637194.972   124214291.320       -2158.942          43.000    23637226.278    96790500.464       -1682.300          38.000  
G13  20789975.076   109252079.875        1444.122          46.000                                                                  
R21  20422104.719   109282796.325         990.521          47.000    20422121.711    84997813.529         770.197          40.000  
R05  23413703.170   125159650.2342      -5036.365          27.000    23413710.098                       -3903.354          18.000  
R06  19184696.757   102373192.884       -1951.360          38.000                                                                  
R07  20038106.897   107265552.991        1742.265          37.000    20038128.571    83428852.196        1355.307          37.000  
G12  23062700.125   121195306.829       -3112.140          43.000    23062726.758    94437983.871       -2425.046          39.000  
G15  22510175.140   118291789.086        2634.827          34.000    22510197.560    92175531.258        2052.897          29.000  
G29  23248885.571   122173709.718        2392.930          41.000    23248915.714                        1867.352          24.000  
G20  21534716.406   113165703.635       -2493.756          47.000                                                                  
R20  21188638.840   113305167.983       -1629.915          34.000    21188667.316    88126360.878       -1268.007          42.000  
E03  23821227.647   125181402.559          -4.698          44.000    23821258.989    95918341.248          -3.495          45.000  
E08  25679326.871   134945758.331        1895.766          36.000    25679358.941   103400144.593        1452.845          34.000  
E15  24872452.316   130705620.035         -39.808          43.000    24872484.649   100151204.554         -30.696          36.000  
E05  24536579.645   128940566.205       -2447.010          40.000    24536618.073    98798790.728       -1875.030          39.000  
E34  25128857.020   132053036.148       -1125.142          45.000    25128892.522   101183651.060        -861.825          40.000  
E27  26204800.740   137707145.057       -1557.660          37.000    26204843.809   105516047.716       -1193.264          33.000  
E30  26258552.287   137989635.698       -3077.878          36.000    26258588.317   105732463.376       -2358.391          33.000  
> 2025 04 04 10 35 06.9990000  0 21                     
G25  23421832.006   123082549.088       -1950.330          33.000    23421875.294                       -1520.621          23.000  
G11  21966775.753   115436175.294       -1316.997          45.000    21966798.457    89950374.049       -1026.090          42.000  
G05  20728179.117   108927304.793       -1214.749          43.000    20728199.336    84878499.735        -946.969          37.000  
G06  23637605.930   124216450.874       -2160.260          42.000    23637636.934    96792183.238       -1683.258          38.000  
G13  20789700.288   109250636.405        1442.696          47.000                                                                  
R21  20421919.830   109281806.549         989.331          48.000    20421936.861    84997043.673         769.427          41.000  
R05  23414645.168   125164686.628       -5036.584          27.000    23414652.888                       -3920.775          18.000  
R06  19185062.584   102375145.048       -1953.287          38.000                                                                  
R07  20037781.609   107263811.288        1741.266          39.000    20037803.195    83427497.521        1353.791          38.000  
G12  23063292.442   121198419.560       -3113.229          43.000    23063319.062    94440409.379       -2425.841          39.000  
G15  22509673.978   118289155.182        2633.269          37.000    22509696.235    92173478.774        2052.100          29.000  
G29  23248430.324   122171317.299        2391.813          40.000    23248459.564                        1863.708          25.000  
G20  21535190.949   113168198.079       -2494.916          47.000                                                                  
R20  21188944.837   113306799.066       -1632.054          34.000    21188972.454    88127629.550       -1269.315          44.000  
E03  23821228.904   125181408.043          -6.441          44.000    23821259.743    95918345.463          -4.961          45.000  
E08  25678966.216   134943862.814        1894.798          36.000    25678997.843   103398692.171        1451.979          34.000  
E15  24872460.084   130705660.375         -40.766          43.000    24872492.347   100151235.452         -31.741          36.000  
E05  24537045.309   128943013.786       -2448.442          39.000    24537083.894    98800666.137       -1875.875          39.000  
E34  25129071.255   132054161.849       -1126.349          45.000    25129106.644   101184513.613        -862.946          41.000  
E27  26205096.978   137708703.146       -1558.694          37.000    26205140.063   105517241.607       -1193.967          34.000  
E30  26259137.969   137992713.982       -3078.675          35.000    26259174.076   105734822.120       -2359.304          33.000  
> 2025 04 04 10 35 07.9990000  0 21                     
G25  23422203.167   123084500.285       -1951.733          35.000    23422241.091    95910161.4231      -1521.124          32.000  
G11  21967026.502   115437492.996       -1318.459          45.000    21967049.234    89951400.845       -1027.087          41.000  
G05  20728410.388   108928520.179       -1216.266          43.000    20728430.581    84879446.796        -947.787          37.000  
G06  23638017.046   124218611.654       -2161.444          42.000    23638049.283    96793866.964       -1684.070          38.000  
G13  20789425.880   109249194.530        1440.944          48.000                                                                  
R21  20421735.087   109280818.129         987.854          48.000    20421752.264    84996274.926         767.883          41.000  
R05  23415589.378   125169724.549       -5037.830          26.000    23415597.443                       -3923.826          17.000  
R06  19185428.795   102377099.148       -1954.658          38.000                                                                  
R07  20037456.602   107262071.437        1739.130          40.000    20037478.182    83426144.290        1352.278          39.000  
G12  23063885.169   121201533.598       -3114.802          43.000    23063911.645    94442835.905       -2427.260          39.000  
G15  22509172.965   118286522.546        2632.407          33.000    22509195.250    92171427.414        2050.426          29.000  
G29  23247975.392   122168926.227        2390.304          40.000    23248005.618                        1861.140          24.000  
G20  21535665.898   113170693.718       -2496.230          46.000                                                                  
R20  21189250.842   113308431.807       -1633.873          34.000    21189277.843    88128899.413       -1270.941          43.000  
E03  23821229.882   125181415.084          -8.056          44.000    23821260.942    95918350.868          -6.143          45.000  
E08  25678606.014   134941968.545        1893.078          35.000    25678637.429   103397240.752        1450.715          33.000  
E15  24872468.130   130705701.766         -42.116          43.000    24872500.251   100151267.173         -32.156          36.000  
E05  24537511.679   128945462.831       -2449.977          39.000    24537549.974    98802542.707       -1877.233          40.000  
E34  25129285.507   132055288.711       -1127.425          43.000    25129321.042   101185377.072        -864.054          40.000  
E27  26205393.565   137710262.784       -1560.490          37.000    26205436.997   105518436.687       -1195.818          33.000  
E30  26259724.307   137995793.485       -3080.601          35.000    26259760.220   105737181.719       -2360.415          32.000  
> 2025 04 04 10 35 08.9990000  0 21                     
G25  23422574.426   123086452.467       -1953.015          35.000    23422613.233    95911682.670       -1522.272          31.000  
G11  21967277.363   115438811.395       -1319.000          44.000    21967300.089    89952428.148       -1027.641          41.000  
G05  20728641.837   108929736.441       -1216.817          43.000    20728661.956    84880394.510        -948.056          38.000  
G06  23638428.247   124220773.196       -2161.823          40.000    23638460.862    96795551.277       -1684.686          37.000  
G13  20789151.692   109247753.689        1440.069          46.000                                                                  
R21  20421550.429   109279830.486         986.981          47.000    20421567.773    84995506.747         767.761          41.000  
R05  23416533.317   125174763.204       -5038.489          27.000    23416542.478                       -3928.857          15.000  
R06  19185795.278   102379054.705       -1956.465          37.000                                                                  
R07  20037131.810   107260332.696        1737.805          38.000    20037153.399    83424791.980        1351.837          34.000  
G12  23064477.878   121204648.433       -3115.421          44.000    23064504.365    94445263.049       -2427.351          40.000  
G15  22508672.028   118283890.693        2631.201          35.000    22508694.413    92169376.513        2050.939          29.000  
G29  23247520.611   122166535.934        2390.210          40.000    23247549.168                        1854.856          22.000  
G20  21536140.901   113173189.974       -2496.715          46.000                                                                  
R20  21189556.083   113310065.460       -1634.137          35.000    21189583.409    88130170.084       -1270.776          41.000  
E03  23821231.060   125181423.113          -8.814          44.000    23821262.631    95918357.025          -6.692          46.000  
E08  25678245.978   134940074.998        1892.987          36.000    25678277.216   103395789.833        1450.208          33.000  
E15  24872476.142   130705743.638         -42.272          43.000    24872508.168   100151299.272         -32.669          37.000  
E05  24537977.899   128947912.847       -2450.260          39.000    24538016.068    98804420.001       -1877.390          39.000  
E34  25129500.071   132056416.137       -1127.952          43.000    25129535.585   101186240.968        -864.294          42.000  
E27  26205690.511   137711823.312       -1561.005          37.000    26205733.967   105519632.385       -1195.590          34.000  
E30  26260310.571   137998873.652       -3080.529          35.000    26260346.432   105739541.784       -2360.169          33.000  
> 2025 04 04 10 35 09.9990000  0 21                     
G25  23422946.061   123088405.037       -1951.740          35.000    23422985.734                       -1521.521          25.000  
G11  21967528.311   115440129.967       -1317.787          46.000    21967551.000    89953455.627       -1026.621          41.000  
G05  20728873.229   108930953.067       -1216.041          43.000    20728893.458    84881342.519        -947.492          38.000  
G06  23638839.689   124222934.921       -2161.023          42.000    23638872.294    96797235.741       -1683.936          38.000  
G13  20788877.598   109246313.381        1440.967          44.000                                                                  
R21  20421365.891   109278843.087         988.220          48.000    20421383.379    84994738.786         768.427          40.000  
R05  23417476.967                       -5033.622          24.000    23417486.362                       -3920.676          17.000  
R06  19186161.891   102381011.080       -1956.107          38.000                                                                  
R07  20036807.111   107258594.816        1738.621          46.000    20036828.712    83423440.189        1352.141          41.000  
G12  23065070.717   121207763.465       -3114.185          41.000    23065097.090    94447690.362       -2426.921          37.000  
G15  22508171.159   118281259.161        2632.547          41.000    22508193.586    92167326.037        2050.814          35.000  
G29  23247065.821   122164145.896        2390.723          40.000    23247094.101                        1857.732          22.000  
G20  21536615.920   113175686.313       -2495.451          46.000                                                                  
R20  21189861.749   113311699.643       -1632.920          34.000    21189889.031    88131441.066       -1270.542          41.000  
E03  23821232.876   125181431.648          -7.896          44.000    23821264.202    95918363.541          -5.938          46.000  
E08  25677885.382   134938181.615        1894.096          36.000    25677916.631   103394339.054        1450.845          32.000  
E15  24872484.187   130705785.482         -41.040          43.000    24872516.119   100151331.303         -31.751          37.000  
E05  24538443.933   128950363.275       -2449.596          41.000    24538482.426    98806297.582       -1876.984          39.000  
E34  25129714.662   132057543.658       -1126.904          44.000    25129750.182   101187104.879        -863.385          41.000  
E27  26205987.673   137713384.225       -1560.251          37.000    26206030.940   105520828.442       -1195.698          35.000  
E30  26260896.720   138001953.946       -3079.808          35.000    26260932.674   105741902.052       -2359.662          34.000  
> 2025 04 04 10 35 10.9990000  0 21                     
G25  23423317.331   123090356.826       -1951.672          35.000    23423357.581                       -1521.961          31.000  
G11  21967779.100   115441447.570       -1317.480          44.000    21967801.678    89954482.312       -1026.543          42.000  
G05  20729104.677   108932168.914       -1215.785          43.000    20729124.783    84882289.952        -947.206          38.000  
G06  23639250.813   124225095.689       -2160.968          40.000    23639283.531    96798919.442       -1683.551          38.000  
G13  20788603.469   109244872.472        1440.984          47.000                                                                  
R21  20421181.210   109277854.782         988.550          47.000    20421198.687    84993970.113         768.817          40.000  
R05  23418418.099                       -5036.317          23.000    23418427.717                       -3921.386          18.000  
R06  19186528.481   102382967.144       -1956.252          37.000                                                                  
R07  20036482.321   107256856.541        1737.999          40.000    20036503.949    83422088.325        1351.616          34.000  
G12  23065663.330   121210877.509       -3113.890          44.000    23065689.730    94450116.863       -2426.200          38.000  
G15  22507670.114   118278626.699        2632.384          35.000    22507692.472    92165274.826        2050.613          29.000  
G29  23246610.741   122161754.960        2391.468          40.000    23246639.763                        1854.011          22.000  
G20  21537090.818   113178181.627       -2495.150          46.000                                                                  
R20  21190167.216   113313333.093       -1633.164          34.000    21190194.413    88132711.563       -1270.333          41.000  
E03  23821234.215   125181439.453          -7.869          44.000    23821265.595    95918369.555          -5.960          46.000  
E08  25677525.065   134936287.171        1894.891          36.000    25677556.008   103392887.532        1451.365          33.000  
E15  24872491.795   130705826.152         -40.353          43.000    24872523.817   100151362.504         -30.972          37.000  
E05  24538910.188   128952812.987       -2449.728          40.000    24538948.565    98808174.668       -1877.360          39.000  
E34  25129928.969   132058670.034       -1126.239          44.000    25129964.587   101187967.975        -862.879          41.000  
E27  26206285.010   137714944.419       -1560.111          37.000    26206327.760   105522023.899       -1195.436          35.000  
E30  26261482.602   138005033.025       -3078.306          34.000    26261518.573   105744261.368       -2359.207          34.000  
> 2025 04 04 10 35 11.9990000  0 21                     
G25  23423688.676   123092309.140       -1952.167          31.000    23423728.943    95916254.2191      -1521.729          30.000  
G11  21968029.959   115442765.416       -1317.895          44.000    21968052.515    89955509.208       -1026.724          41.000  
G05  20729336.202   108933385.214       -1216.520          43.000    20729356.191    84883237.697        -947.809          38.000  
G06  23639661.964   124227256.729       -2161.298          41.000    23639694.846    96800603.368       -1684.442          38.000  
G13  20788329.366   109243432.159        1440.040          46.000                                                                  
R21  20420996.582   109276866.849         987.885          47.000    20421014.114    84993201.704         768.225          41.000  
R05  23419361.735   125189910.1493      -5038.428          26.000    23419371.151                       -3921.386          15.000  
R06  19186895.235   102384924.185       -1957.616          37.000                                                                  
R07  20036157.730   107255118.967        1737.370          40.000    20036179.221    83420736.880        1351.310          37.000  
G12  23066256.047   121213991.894       -3114.718          44.000    23066282.310    94452543.648       -2426.872          38.000  
G15  22507169.103   118275994.633        2632.620          34.000    22507191.615    92163223.909        2050.748          29.000  
G29  23246155.895   122159364.339        2390.498          41.000    23246184.482                        1859.710          21.000  
G20  21537565.662   113180677.112       -2495.538          45.000                                                                  
R20  21190472.880   113314967.122       -1634.266          34.000    21190500.065    88133982.492       -1271.008          41.000  
E03  23821235.998   125181447.856          -8.770          44.000    23821267.351    95918376.000          -6.721          46.000  
E08  25677164.384   134934393.087        1893.902          36.000    25677195.548   103391436.210        1451.167          33.000  
E15  24872499.682   130705866.881         -40.820          43.000    24872531.657   100151393.663         -31.002          38.000  
E05  24539376.590   128955263.193       -2450.315          39.000    24539414.913    98810052.075       -1877.583          39.000  
E34  25130143.175   132059796.607       -1126.585          43.000    25130178.939   101188831.179        -863.371          41.000  
E27  26206582.103   137716505.082       -1561.076          36.000    26206624.841   105523219.708       -1196.039          35.000  
E30  26262068.978   138008112.470       -3080.153          32.000    26262104.603   105746620.903       -2358.918          33.000  
> 2025 04 04 10 35 12.9990000  0 21                     
G25  23424060.414   123094262.367       -1954.211          34.000    23424100.412    95917776.209       -1522.260          29.000  
G11  21968280.776   115444083.909       -1318.798          45.000    21968303.361    89956536.580       -1027.390          42.000  
G05  20729567.772   108934602.236       -1217.362          42.000    20729587.839    84884186.065        -948.606          39.000  
G06  23640073.297   124229418.378       -2162.054          41.000    23640106.304    96802287.711       -1684.796          36.000  
G13  20788055.568   109241992.936        1438.505          39.000                                                                  
R21  20420812.166   109275879.629         986.865          47.000    20420829.651    84992433.892         767.725          41.000  
R05  23420304.301                       -5046.336          25.000                                                                  
R06  19187262.178   102386882.459       -1959.182          38.000                                                                  
R07  20035833.355   107253382.586        1735.590          49.000    20035854.704    83419386.243        1349.879          45.000  
G12  23066848.764   121217106.907       -3115.669          41.000    23066875.095    94454970.992       -2427.445          36.000  
G15  22506668.239   118273363.252        2630.932          41.000    22506690.872    92161173.397        2049.795          37.000  
G29  23245701.168   122156974.406        2389.407          40.000    23245729.773                        1860.475          21.000  
G20  21538040.647   113183173.118       -2496.272          46.000                                                                  
R20  21190778.624   113316602.088       -1635.934          33.000    21190805.798    88135254.097       -1271.549          42.000  
E03  23821237.429   125181457.129          -9.570          44.000    23821269.216    95918383.109          -7.481          46.000  
E08  25676804.169   134932499.570        1893.345          35.000    25676835.206   103389985.242        1450.782          33.000  
E15  24872507.258   130705908.017         -41.265          43.000    24872539.433   100151425.203         -32.001          36.000  
E05  24539843.240   128957714.232       -2451.399          39.000    24539881.082    98811930.139       -1878.373          39.000  
E34  25130357.881   132060923.660       -1127.163          44.000    25130393.412   101189694.738        -863.580          41.000  
E27  26206879.226   137718066.577       -1561.503          37.000    26206921.845   105524416.150       -1196.239          32.000  
E30  26262654.924   138011192.555       -3080.281          32.000    26262690.572   105748980.945       -2360.312          36.000  
> 2025 04 04 10 35 13.9990000  0 21                     
G25  23424432.453   123096216.565       -1954.919          33.000    23424473.068                       -1524.163          28.000  
G11  21968531.812   115445403.219       -1319.959          45.000    21968554.400    89957564.631       -1028.813          42.000  
G05  20729799.585   108935820.321       -1218.762          44.000    20729819.716    84885135.232        -949.644          39.000  
G06  23640484.746   124231580.868       -2162.708          42.000    23640517.882    96803972.747       -1685.040          35.000  
G13  20787781.952   109240554.712        1437.897          39.000                                                                  
R21  20420627.805   109274893.373         985.559          47.000    20420645.320    84991666.796         766.742          40.000  
R05  23421244.625                       -5039.502          25.000                                                                  
R06  19187629.457   102388842.229       -1960.601          38.000                                                                  
R07  20035509.079   107251647.616        1734.344          49.000    20035530.442    83418036.822        1348.824          46.000  
G12  23067441.688   121220222.866       -3116.821          40.000    23067467.994    94457399.016       -2428.380          35.000  
G15  22506167.655   118270732.738        2629.809          42.000    22506190.370    92159123.650        2049.102          38.000  
G29  23245246.560   122154585.394        2388.397          41.000    23245274.916                        1854.175          21.000  
G20  21538515.722   113185669.893       -2497.378          46.000                                                                  
R20  21191084.511   113318238.166       -1636.838          32.000    21191111.796    88136526.647       -1273.207          43.000  
E03  23821239.515   125181467.579         -11.189          44.000    23821271.300    95918391.110          -8.634          46.000  
E08  25676443.705   134930606.903        1892.058          34.000    25676474.839   103388535.081        1449.401          34.000  
E15  24872515.060   130705949.802         -42.401          42.000    24872547.325   100151457.203         -32.429          37.000  
E05  24540309.970   128960166.360       -2452.726          40.000    24540347.616    98813809.061       -1879.287          38.000  
E34  25130572.383   132062051.446       -1128.124          44.000    25130607.952   101190558.893        -864.560          42.000  
E27  26207176.541   137719629.124       -1563.174          36.000    26207219.091   105525613.489       -1197.894          33.000  
E30  26263240.960   138014273.183       -3080.390          32.000    26263276.672   105751341.430       -2360.714          36.000  
> 2025 04 04 10 35 14.9990000  0 21                     
G25  23424804.628   123098171.899       -1956.049          37.000    23424842.636    95920814.6131      -1524.091          32.000  
G11  21968783.041   115446723.470       -1320.608          44.000    21968805.530    89958593.393       -1029.089          41.000  
G05  20730031.658   108937039.542       -1219.653          42.000    20730051.696    84886085.263        -950.320          38.000  
G06  23640896.541   124233744.298       -2163.824          40.000    23640929.462    96805653.6171      -1685.938          36.000  
G13  20787508.490   109239117.747        1436.114          46.000                                                                  
R21  20420443.628   109273908.120         984.943          48.000    20420461.170    84990900.510         765.784          40.000  
R05  23422187.126   125205012.7253      -5040.674          26.000                                                                  
R06  19187997.000   102390803.623       -1962.209          38.000                                                                  
R07  20035185.225   107249914.160        1732.426          37.000    20035206.631    83416688.744        1347.192          32.000  
G12  23068034.789   121223339.770       -3117.295          43.000    23068061.064    94459827.732       -2429.061          39.000  
G15  22505667.227   118268103.223        2628.578          36.000    22505690.070    92157074.648        2049.293          31.000  
G29  23244792.078   122152197.389        2387.645          41.000    23244819.376                        1849.619          22.000  
G20  21538990.903   113188167.512       -2497.957          46.000                                                                  
R20  21191390.600   113319875.520       -1638.170          33.000    21191417.918    88137800.139       -1273.921          42.000  
E03  23821241.663   125181479.248         -12.100          45.000    23821273.438    95918400.053          -9.446          46.000  
E08  25676083.938   134928715.153        1891.270          34.000    25676114.888   103387085.573        1449.857          33.000  
E15  24872523.417   130705992.274         -42.984          44.000    24872555.540   100151489.783         -33.097          38.000  
E05  24540776.808   128962619.664       -2454.142          40.000    24540814.393    98815688.868       -1880.119          38.000  
E34  25130786.948   132063180.028       -1128.762          43.000    25130822.771   101191423.667        -865.092          42.000  
E27  26207473.790   137721192.805       -1564.120          37.000    26207516.718   105526811.627       -1198.282          33.000  
E30  26263825.637   138017354.580       -3081.531          33.000    26263862.915   105753702.558       -2361.345          34.000  
> 2025 04 04 10 35 15.9990000  0 21                     
G25  23425176.895   123100128.237       -1957.343          37.000    23425215.305    95922339.067       -1525.775          32.000  
G11  21969034.386   115448044.475       -1322.366          44.000    21969056.909    89959622.777       -1030.490          42.000  
G05  20730263.781   108938259.680       -1221.876          44.000    20730283.889    84887036.037        -951.885          38.000  
G06  23641308.239   124235908.504       -2165.387          40.000    23641341.290    96807339.998       -1687.445          37.000  
G13  20787235.266   109237681.993        1434.203          47.000                                                                  
R21  20420259.679   109272923.740         983.160          48.000    20420277.174    84990134.869         764.569          40.000  
R05  23423131.300   125210053.6852      -5041.999          27.000                                                                  
R06  19188364.880   102392766.474       -1964.680          38.000                                                                  
R07  20034861.710   107248182.061        1730.920          38.000    20034883.063    83415341.577        1346.138          35.000  
G12  23068627.961   121226457.468       -3118.903          44.000    23068654.239    94462257.108       -2430.118          39.000  
G15  22505167.014   118265474.629        2627.270          35.000    22505189.726    92155026.459        2047.365          30.000  
G29  23244337.895   122149810.234        2385.833          41.000    23244366.082                        1863.478          22.000  
G20  21539466.305   113190665.828       -2499.618          46.000                                                                  
R20  21191697.077   113321513.915       -1639.642          34.000    21191724.292    88139074.433       -1275.638          41.000  
E03  23821244.262   125181491.963         -14.546          44.000    23821275.928    95918409.821         -11.286          46.000  
E08  25675723.893   134926824.128        1889.866          35.000    25675755.260   103385636.617        1448.110          34.000  
E15  24872531.452   130706035.303         -44.262          43.000    24872563.653   100151522.761         -34.019          37.000  
E05  24541243.827   128965073.953       -2456.238          39.000    24541281.521    98817569.455       -1881.928          38.000  
E34  25131002.143   132064309.295       -1130.698          44.000    25131037.699   101192288.955        -866.452          41.000  
E27  26207771.580   137722757.507       -1566.251          37.000    26207814.646   105528010.523       -1199.809          33.000  
E30  26264410.581   138020436.867       -3083.706          33.000    26264449.442   105756064.268       -2363.091          31.000  
> 2025 04 04 10 35 16.9990000  0 21                     
G25  23425549.296   123102085.424       -1957.367          36.000    23425590.261    95923864.096       -1525.732          30.000  
G11  21969285.830   115449366.050       -1321.890          44.000    21969308.289    89960652.545       -1030.412          39.000  
G05  20730496.069   108939480.529       -1221.444          43.000    20730516.260    84887987.351        -951.979          38.000  
G06  23641720.229   124238073.276       -2165.137          40.000    23641753.138    96809026.810       -1687.250          36.000  
G13  20786962.237   109236247.103        1433.994          44.000                                                                  
R21  20420075.812   109271939.981         983.203          48.000    20420093.317    84989369.719         764.886          40.000  
R05  23424076.430                       -5042.700          27.000                                                                  
R06  19188732.944   102394730.582       -1964.633          37.000                                                                  
R07  20034538.319   107246451.043        1730.241          43.000    20034559.611    83413995.095        1345.268          31.000  
G12  23069221.258   121229575.769       -3118.610          43.000    23069247.570    94464686.985       -2430.661          39.000  
G15  22504666.885   118262846.635        2627.518          38.000    22504689.713    92152978.629        2047.723          30.000  
G29  23243883.732   122147423.683        2386.179          40.000    23243911.427                        1868.922          21.000  
G20  21539941.816   113193164.593       -2499.365          47.000                                                                  
R20  21192003.640   113323153.169       -1639.661          33.000    21192030.802    88140349.450       -1275.668          42.000  
E03  23821246.888   125181505.539         -14.298          44.000    23821278.619    95918420.205         -10.820          46.000  
E08  25675364.110   134924933.722        1890.010          36.000    25675395.634   103384188.129        1448.135          34.000  
E15  24872539.612   130706078.717         -43.882          43.000    24872572.098   100151556.034         -33.306          37.000  
E05  24541711.020   128967529.026       -2455.869          41.000    24541748.757    98819450.576       -1881.062          39.000  
E34  25131217.195   132065438.996       -1129.872          43.000    25131252.767   101193154.530        -866.072          42.000  
E27  26208069.664   137724322.956       -1566.110          37.000    26208112.448   105529210.005       -1199.764          33.000  
E30  26264995.871   138023519.565       -3083.272          29.000    26265036.121   105758426.373       -2362.206          33.000  
> 2025 04 04 10 35 17.9990000  0 21                     
G25  23425921.781   123104043.297       -1958.112          34.000    23425961.016    95925389.667       -1526.111          29.000  
G11  21969537.400   115450688.057       -1322.415          44.000    21969559.816    89961682.695       -1030.173          42.000  
G05  20730728.492   108940702.025       -1221.951          43.000    20730748.794    84888939.142        -952.033          38.000  
G06  23642132.208   124240238.527       -2165.552          41.000    23642165.162    96810714.039       -1687.659          37.000  
G13  20786689.404   109234813.043        1433.646          41.000                                                                  
R21  20419891.979   109270956.742         982.904          46.000    20419909.747    84988604.993         764.362          40.000  
R05  23425019.101   125220151.8963      -5042.670          26.000                                                                  
R06  19189101.151   102396695.842       -1966.045          37.000                                                                  
R07  20034215.108   107244721.095        1729.470          49.000    20034236.347    83412649.526        1345.227          43.000  
G12  23069814.662   121232694.592       -3119.139          40.000    23069841.119    94467117.208       -2430.205          37.000  
G15  22504166.831   118260219.171        2627.187          41.000    22504189.739    92150931.298        2047.189          36.000  
G29  23243429.668   122145037.664        2385.778          41.000    23243455.920                        1859.590          20.000  
G20  21540417.314   113195663.757       -2499.348          46.000                                                                  
R20  21192310.422   113324793.184       -1640.588          33.000    21192337.523    88141624.980       -1275.830          43.000  
E03  23821249.362   125181519.842         -14.748          44.000    23821281.133    95918431.173         -11.190          46.000  
E08  25675004.507   134923043.743        1889.870          34.000    25675036.011   103382739.945        1447.802          34.000  
E15  24872548.130   130706122.347         -43.833          43.000    24872580.404   100151589.430         -33.520          37.000  
E05  24542178.355   128969984.781       -2456.301          39.000    24542215.993    98821332.283       -1882.070          38.000  
E34  25131432.295   132066569.013       -1130.124          44.000    25131467.802   101194020.426        -866.284          42.000  
E27  26208367.743   137725889.058       -1566.316          37.000    26208410.463   105530410.024       -1200.597          36.000  
E30  26265582.382   138026602.766       -3083.563          31.000    26265622.693   105760788.810       -2362.313          36.000  
> 2025 04 04 10 35 18.9990000  0 21                     
G25  23426294.390   123106001.659       -1958.606          35.000    23426333.712    95926919.7761      -1526.312          29.000  
G11  21969789.026   115452010.428       -1322.431          45.000    21969811.363    89962713.097       -1030.531          41.000  
G05  20730961.031   108941924.055       -1222.507          43.000    20730981.316    84889891.392        -952.415          39.000  
G06  23642544.325   124242404.130       -2165.765          41.000    23642577.256    96812401.527       -1687.817          37.000  
G13  20786416.612   109233379.626        1433.092          45.000                                                                  
R21  20419708.212   109269973.924         982.605          48.000    20419726.187    84987840.579         764.355          40.000  
R05  23425962.045   125225192.2942      -5042.353          27.000                                                                  
R06  19189469.589   102398662.077       -1966.700          37.000                                                                  
R07  20033892.165   107242991.975        1728.859          41.000    20033913.364    83411304.774        1344.492          34.000  
G12  23070408.155   121235813.759       -3119.338          43.000    23070434.779    94469547.741       -2430.651          38.000  
G15  22503666.879   118257592.122        2626.820          38.000    22503689.798    92148884.246        2047.309          29.000  
G29  23242975.759   122142652.079        2385.419          41.000    23243000.843                        1857.008          19.000  
G20  21540892.916   113198163.186       -2499.602          46.000                                                                  
R20  21192617.346   113326433.830       -1641.243          34.000    21192644.456    88142901.062       -1276.173          43.000  
E03  23821252.049   125181534.814         -15.403          44.000    23821284.017    95918442.650         -11.724          46.000  
E08  25674645.010   134921154.026        1889.468          35.000    25674676.492   103381292.019        1448.111          33.000  
E15  24872556.143   130706166.104         -43.601          43.000    24872588.758   100151622.986         -33.313          37.000  
E05  24542645.884   128972441.150       -2456.618          41.000    24542683.385    98823214.464       -1882.359          38.000  
E34  25131647.254   132067699.254       -1130.173          43.000    25131682.946   101194886.443        -866.190          42.000  
E27  26208666.003   137727455.744       -1566.548          37.000    26208708.496   105531610.486       -1200.578          33.000  
E30  26266169.015   138029686.074       -3083.149          32.000    26266209.327   105763151.355       -2362.938          35.000  
> 2025 04 04 10 35 19.9990000  0 21                     
G25  23426667.147   123107960.958       -1959.863          34.000    23426708.246                       -1510.904          23.000  
G11  21970040.648   115453333.442       -1323.559          45.000    21970063.203    89963744.034       -1031.423          40.000  
G05  20731193.650   108943146.877       -1223.210          44.000    20731213.884    84890844.228        -953.317          37.000  
G06  23642956.592   124244570.371       -2166.547          42.000    23642989.555    96814089.504       -1687.030          37.000  
G13  20786144.045   109231947.276        1431.732          47.000                                                                  
R21  20419524.664   109268991.875         981.439          48.000    20419542.645    84987076.773         763.116          40.000  
R05  23426905.514   125230235.2343      -5043.720          27.000                                                                  
R06  19189838.282   102400629.697       -1968.656          37.000                                                                  
R07  20033569.534   107241264.113        1727.305          41.000    20033590.590    83409960.924        1342.816          35.000  
G12  23071001.865   121238933.628       -3120.312          43.000    23071028.461    94471978.814       -2431.466          39.000  
G15  22503166.982   118254965.895        2625.091          35.000    22503190.058    92146837.868        2046.450          29.000  
G29  23242521.905   122140267.228        2384.084          41.000    23242548.075                        1866.997          22.000  
G20  21541368.640   113200663.171       -2500.361          46.000                                                                  
R20  21192924.413   113328075.451       -1642.919          34.000    21192951.375    88144177.859       -1277.432          42.000  
E03  23821255.030   125181550.727         -16.566          44.000    23821287.003    95918454.844         -12.587          45.000  
E08  25674285.478   134919265.039        1888.696          35.000    25674317.213   103379844.626        1446.738          33.000  
E15  24872564.631   130706210.354         -44.753          43.000    24872597.081   100151656.859         -34.153          36.000  
E05  24543113.259   128974898.417       -2457.463          38.000    24543150.843    98825097.241       -1882.914          38.000  
E34  25131862.343   132068830.061       -1131.204          43.000    25131898.135   101195752.888        -866.765          40.000  
E27  26208964.134   137729023.310       -1568.255          36.000    26209006.840   105532811.606       -1202.035          33.000  
E30  26266755.113   138032770.030       -3084.987          32.000    26266796.162   105765514.404       -2363.404          33.000  
> 2025 04 04 10 35 20.9990000  0 21                     
G25  23427040.124   123109921.291       -1960.590          34.000    23427084.285                       -1529.161          24.000  
G11  21970292.626   115454657.298       -1324.056          45.000    21970315.169    89964775.604       -1031.829          40.000  
G05  20731426.489   108944370.728       -1224.123          43.000    20731446.816    84891797.917        -953.735          37.000  
G06  23643369.007   124246737.462       -2167.670          41.000    23643402.035    96815778.166       -1688.934          38.000  
G13  20785871.651   109230516.073        1430.449          47.000                                                                  
R21  20419341.206   109268010.754         980.530          47.000    20419359.301    84986313.659         762.738          40.000  
R05  23427849.521                       -5045.189          26.000                                                                  
R06  19190207.232   102402598.794       -1970.083          37.000                                                                  
R07  20033247.064   107239537.693        1725.610          39.000    20033267.876    83408618.152        1342.263          33.000  
G12  23071595.624   121242054.368       -3121.126          43.000    23071622.133    94474410.553       -2432.045          39.000  
G15  22502667.158   118252340.510        2624.938          35.000    22502690.451    92144792.137        2044.952          30.000  
G29  23242068.281   122137883.250        2383.597          40.000    23242095.332                        1831.397          22.000  
G20  21541844.497   113203163.916       -2501.254          46.000                                                                  
R20  21193231.539   113329718.177       -1642.926          33.000    21193258.547    88145455.523       -1278.275          41.000  
E03  23821258.451   125181567.742         -17.547          42.000    23821290.021    95918467.912         -13.417          45.000  
E08  25673925.983   134917376.857        1887.485          36.000    25673957.762   103378397.781        1446.698          33.000  
E15  24872573.417   130706255.181         -45.155          43.000    24872605.434   100151691.220         -34.496          36.000  
E05  24543581.159   128977356.699       -2458.696          41.000    24543618.629    98826980.884       -1883.640          38.000  
E34  25132077.671   132069961.560       -1131.823          43.000    25132113.444   101196619.892        -867.270          41.000  
E27  26209262.483   137730591.971       -1569.516          36.000    26209305.182   105534013.426       -1201.438          33.000  
E30  26267341.798   138035854.707       -3084.715          32.000    26267383.237   105767878.005       -2363.968          32.000  
