     3.02           OBSERVATION DATA    M (MIXED)           RINEX VERSION / TYPE
NetR9 5.01          Receiver Operator   14-FEB-23 10:23:22  PGM / RUN BY / DATE
TQBL                                                        MARKER NAME
TQBL                                                        MARKER NUMBER
GEODETIC                                                    MARKER TYPE         
TQBL                TQBL                                    OBSERVER / AGENCY   
5034K69681          Trimble NetR9       5.01                REC # / TYPE / VERS
                    TRM59900.00     NONE                    ANT # / TYPE
 -1626343.5660  5730606.2916  2271881.4271                  APPROX POSITION XYZ
        0.0000        0.0000        0.0000                  ANTENNA: DELTA H/E/N
G   12 C1C L1C S1C C2W L2W S2W C2X L2X S2X C5X L5X S5X      SYS / # / OBS TYPES
S    3 C1C L1C S1C                                          SYS / # / OBS TYPES
R   12 C1C L1C S1C C1P L1P S1P C2C L2C S2C C2P L2P S2P      SYS / # / OBS TYPES
E   12 C1X L1X S1X C5X L5X S5X C7X L7X S7X C8X L8X S8X      SYS / # / OBS TYPES
C    6 C1I L1I S1I C7I L7I S7I                              SYS / # / OBS TYPES
     1.000                                                  INTERVAL
  2023     2    14    10    23   22.0000000     GPS         TIME OF FIRST OBS
G L2X -0.25000                                              SYS / PHASE SHIFT   
R L1P  0.25000                                              SYS / PHASE SHIFT   
R L2C -0.25000                                              SYS / PHASE SHIFT   
J L2X -0.25000                                              SYS / PHASE SHIFT   
GIOVE-A if present is mapped to satellite ID 51             COMMENT             
GIOVE-B if present is mapped to satellite ID 52             COMMENT             
DBHZ                                                        SIGNAL STRENGTH UNIT
                                                            END OF HEADER       
> 2023  2 14 10 23 22.0000000  0 33       0.000000000000
G30  21959325.023 7 115397030.20017        45.000    21959344.703 7  89919836.08417        45.800    21959344.895 7  89919790.08017        45.800    21959348.359 8  86173121.39218        50.300
G17  21780383.492 7 114456687.68817        45.300    21780403.199 7  89187110.41917        47.200    21780403.211 7  89187111.41617        44.500
G19  22422285.211 7 117829908.91917        43.000    22422306.996 5  91815604.02415        32.300
G07  23624796.891 6 124149162.46616        37.800    23624815.168 5  96739665.53815        32.100    23624814.832 5  96739663.54315        35.700
G01  23249751.945 6 122178251.72816        37.600    23249779.773 3  95203956.52213        22.600    23249779.102 6  95203873.53216        40.200    23249782.734 7  91237032.90117        44.700
G14  20361133.258 7 106998477.61717        47.900    20361150.000 7  83375507.78117        43.100    20361150.086 8  83375507.76918        52.800    20361157.684 9  79901489.43819        55.700
G03  22440179.125 6 117923932.10116        41.800    22440202.637 6  91888876.26816        41.300    22440203.098 7  91888802.25817        43.800    22440208.395 8  88060091.25318        48.000
G06  21379791.953 7 112351565.63917        45.900    21379812.715 8  87546759.71518        49.800    21379813.070 7  87546761.71017        47.700    21379817.379 8  83898996.14518        51.400
R20  21997001.078 6 117627904.59516        37.300    21997001.316 5 117627847.61815        35.000    21997024.797 6  91488422.64116        37.500    21997024.129 6  91488420.64316        37.600
E33  23644651.063 8 124253479.77818        48.700    23644670.031 8  92786673.27718        51.600    23644665.387 8  95207184.03718        52.700    23644667.750 9  93997037.76719        58.500
E01  23974337.984 8 125985996.48718        49.800    23974357.266 8  94080529.05618        50.700    23974352.859 8  96534785.18218        52.700    23974355.160 9  95307656.72919        57.800
E26  26241140.180 6 137898121.51616        41.400    26241166.848 7 102975955.67317        43.400    26241161.406 7 105662269.90617        43.900    26241164.395 8 104319121.89818        49.700
E31  24491485.477 8 128703627.03318        48.900    24491508.512 8  96109845.64618        48.800    24491503.871 8  98617058.93418        49.700    24491506.184 9  97363474.89919        55.800
R22  22437694.758 7 119773932.12617        42.500    22437694.613 7 119773928.14417        42.900    22437714.906 6  93157512.89616        40.900    22437715.148 6  93157508.89216        41.200
R11  20932894.063 8 111859047.54318        49.600    20932893.465 8 111859033.54718        48.500    20932911.883 7  87001479.16317        47.200    20932911.789 7  87001475.15917        46.300
R21  20547114.094 8 109951755.56218        52.400    20547112.770 8 109951746.57018        50.800    20547131.418 7  85518034.47617        47.800    20547131.859 7  85518031.48017        47.200
R10  19277938.539 7 102762260.62217        46.600    19277937.402 7 102762243.62217        45.100
R09  21606454.094 7 115377239.75717        45.900    21606453.180 7 115377249.76817        44.600    21606468.262 7  89737870.36417        44.900    21606468.504 7  89737864.36717        43.900
R05  24234305.953 5 129546330.05715        35.400    24234305.332 5 129546229.02615        33.600    24234334.227 5 100758290.89015        34.700    24234334.289 5 100758296.88915        33.500
C14  25151868.430 6 130972381.09316        36.600    25151878.293 6 101276191.12216        40.700
C13  36992798.836 7 192631212.07717        45.600    36992811.125 7 148954724.92017        43.900
C11  23462632.547 7 122176082.84317        44.100    23462644.945 7  94474345.75317        46.000
C10  36631571.836 7 190750206.58217        44.900    36631581.738 7 147500202.46517        46.200
C09  38392137.711 6 199917931.27816        37.600    38392147.773 6 154589271.23116        39.900
C08  36486340.188 7 189993947.76417        43.800    36486344.957 7 146915394.81617        46.000
C07  36336204.648 7 189212150.96117        45.800    36336210.598 7 146310865.18117        46.600
C05  38398966.586 6 199953492.23916        36.200    38398977.621 6 154616772.34916        39.600
C04  38987724.797 5 203019308.80315        35.500    38987736.605 6 156987462.02516        39.500
C03  36231707.125 7 188668006.31717        43.900    36231712.539 7 145890093.04217        47.000
C02  36960627.492 6 192463685.50416        40.700    36960632.609 7 148825152.83817        45.400
C01  37504626.906 6 195296433.03316        39.900    37504636.859 7 151015633.37317        42.500
S27  38724136.391 6 203496710.11816        39.900
S37  36742888.906 6 193085199.38216        41.700
> 2023  2 14 10 23 23.0000000  0 33       0.000000000000
G30  21959798.555 7 115399518.848 7        45.300    21959818.133 7  89921775.289 7        45.900    21959818.160 7  89921729.285 7        45.800    21959821.789 8  86174979.797 8        49.900
G17  21780398.266 7 114456765.953 7        45.200    21780418.285 7  89187171.414 7        47.200    21780418.051 7  89187172.409 7        44.500
G19  22422076.422 7 117828813.733 7        43.000    22422098.695 5  91814750.631 5        32.600
G07  23625454.359 6 124152620.936 6        37.300    23625473.195 5  96742360.451 5        32.300    23625473.191 6  96742358.447 6        36.200
G01  23250417.945 6 122181747.746 6        37.700    23250444.898 3  95206680.692 3        23.000    23250444.473 6  95206597.699 6        39.900    23250448.035 7  91239643.557 7        44.600
G14  20361002.898 7 106997793.154 7        47.500    20361020.230 7  83374974.438 7        43.200    20361020.367 8  83374974.426 8        53.200    20361027.738 9  79900978.316 9        55.700
G03  22440174.094 6 117923908.157 6        41.900    22440197.883 6  91888857.607 6        41.500    22440198.289 7  91888783.601 7        43.600    22440203.582 8  88060073.370 8        48.400
G06  21379423.352 7 112349627.982 7        46.000    21379443.820 8  87545249.862 8        49.500    21379444.234 7  87545251.857 7        47.600    21379448.539 8  83897549.193 8        51.300
R20  21997556.703 6 117630870.721 6        36.900    21997556.238 5 117630813.745 5        35.200    21997578.730 6  91490729.628 6        37.600    21997578.586 6  91490727.624 6        37.400
E33  23644832.102 8 124254431.334 8        48.400    23644851.285 8  92787383.855 8        51.500    23644846.688 8  95207913.152 8        52.900    23644848.957 9  93997757.614 9        58.500
E01  23974468.508 8 125986682.144 8        49.400    23974488.055 8  94081041.076 8        50.800    23974483.508 8  96535310.555 8        52.600    23974485.777 9  95308175.427 9        57.800
E26  26241610.422 6 137900590.828 6        41.300    26241636.891 7 102977799.638 7        43.100    26241631.453 7 105664161.978 7        44.000    26241634.422 8 104320989.919 8        49.600
E31  24491142.180 8 128701823.192 8        48.800    24491165.086 8  96108498.627 8        48.800    24491160.539 8  98615676.778 8        50.000    24491162.902 9  97362110.312 9        55.800
R22  22437335.297 7 119772011.296 7        43.100    22437334.801 7 119772007.326 7        43.100    22437355.203 6  93156018.915 6        40.900    22437355.211 6  93156014.916 6        40.700
R11  20932302.289 8 111855882.839 8        49.400    20932301.574 8 111855868.842 8        48.700    20932319.914 7  86999017.737 7        47.000    20932319.547 7  86999013.726 7        45.800
R21  20547178.617 8 109952100.823 8        52.100    20547177.762 8 109952091.824 8        50.500    20547196.645 7  85518303.012 7        47.900    20547196.832 7  85518300.015 7        47.200
R10  19278100.930 7 102763128.080 7        46.500    19278099.441 7 102763111.083 7        45.100
R09  21607155.109 7 115380983.077 7        45.800    21607154.898 7 115380993.049 7        44.500    21607170.336 7  89740781.835 7        45.000    21607170.059 7  89740775.832 7        43.700
R05  24233999.555 5 129544689.621 5        35.800    24233998.816 5 129544588.615 5        33.700    24234027.023 5 100757014.993 5        34.900    24234027.254 5 100757020.982 5        33.700
C14  25151468.656 6 130970303.873 6        36.700    25151479.211 6 101274584.884 6        40.400
C13  36992582.406 7 192630085.582 7        45.400    36992594.801 7 148953853.842 7        44.100
C11  23462948.922 7 122177729.091 7        44.100    23462961.086 7  94475618.735 7        46.400
C10  36631462.438 7 190749636.395 7        45.100    36631472.211 7 147499761.564 7        46.500
C09  38392446.258 6 199919539.846 6        37.900    38392456.539 6 154590515.074 6        40.000
C08  36486124.461 7 189992823.263 7        44.000    36486129.324 7 146914525.277 7        46.200
C07  36336118.133 7 189211701.658 7        45.600    36336124.109 7 146310517.753 7        47.000
C05  38398961.680 6 199953467.134 6        36.100    38398972.984 6 154616752.931 6        40.000
C04  38987721.609 5 203019292.008 5        35.500    38987733.012 6 156987449.041 6        40.200
C03  36231700.391 7 188667971.712 7        43.900    36231706.074 7 145890066.281 7        47.000
C02  36960624.445 6 192463669.982 6        40.600    36960629.754 7 148825140.836 7        45.300
C01  37504621.016 6 195296401.645 6        39.700    37504630.574 7 151015609.103 7        42.000
S27  38724138.297 6 203496720.069 6        40.100
S37  36742890.234 6 193085203.833 6        41.800
> 2023  2 14 10 23 24.0000000  0 33       0.000000000000
G30  21960272.211 7 115402007.881 7        45.000    21960291.707 7  89923714.794 7        45.900    21960291.832 7  89923668.790 7        46.000    21960295.484 8  86176838.490 8        50.200
G17  21780412.977 7 114456844.242 7        45.400    21780432.945 7  89187232.420 7        47.200    21780432.711 7  89187233.415 7        44.900
G19  22421868.219 7 117827718.634 7        43.200    22421890.191 5  91813897.312 5        32.100
G07  23626112.844 6 124156079.508 6        37.100    23626131.594 5  96745055.445 5        30.800    23626131.840 6  96745053.442 6        36.100
G01  23251082.453 6 122185243.920 6        37.900    23251110.168 3  95209404.986 3        22.500    23251109.586 6  95209321.989 6        40.200    23251113.418 7  91242254.338 7        44.900
G14  20360873.227 7 106997109.188 7        47.500    20360889.922 7  83374441.474 7        43.100    20360889.773 8  83374441.470 8        53.100    20360897.492 9  79900467.565 9        55.700
G03  22440169.641 6 117923884.838 6        41.700    22440193.598 6  91888839.437 6        41.600    22440194.094 7  91888765.428 7        43.800    22440199.297 8  88060055.957 8        48.000
G06  21379055.070 7 112347690.827 7        45.900    21379075.387 8  87543740.388 8        49.600    21379075.777 7  87543742.383 7        47.900    21379080.051 8  83896102.618 8        51.400
R20  21998111.273 6 117633836.861 6        36.400    21998111.395 5 117633779.875 5        35.300    21998134.559 6  91493036.625 6        37.400    21998133.969 6  91493034.629 6        37.200
E33  23645013.367 8 124255383.217 8        48.800    23645032.426 8  92788094.679 8        51.700    23645027.785 8  95208642.517 8        52.400    23645030.137 9  93998477.707 9        58.500
E01  23974599.086 8 125987368.200 8        49.500    23974618.715 8  94081553.390 8        50.900    23974613.934 8  96535836.242 8        52.700    23974616.363 9  95308694.424 9        57.900
E26  26242080.047 6 137903060.206 6        41.500    26242106.609 7 102979643.650 7        43.000    26242101.215 7 105666054.089 7        44.000    26242104.242 8 104322857.981 8        49.700
E31  24490799.078 8 128700019.574 8        49.000    24490822.008 8  96107151.784 8        49.100    24490817.504 8  98614294.796 8        49.800    24490819.805 9  97360745.895 9        55.800
R22  22436975.367 7 119770090.959 7        43.200    22436975.105 7 119770086.943 7        42.900    22436994.961 6  93154525.317 6        41.300    22436995.484 6  93154521.321 6        41.300
R11  20931709.594 8 111852718.698 8        49.500    20931709.234 8 111852704.686 8        48.400    20931727.188 7  86996556.744 7        46.900    20931727.180 7  86996552.740 7        46.100
R21  20547243.422 8 109952446.506 8        51.900    20547241.980 8 109952437.529 8        50.900    20547261.008 7  85518571.876 7        47.600    20547261.309 7  85518568.880 7        47.100
R10  19278263.641 7 102763996.442 7        46.700    19278262.270 7 102763979.443 7        45.400
R09  21607856.406 7 115384726.826 7        46.000    21607855.375 7 115384736.837 7        44.100    21607870.992 7  89743693.644 7        45.000    21607870.969 7  89743687.640 7        43.400
R05  24233693.617 6 129543049.612 6        36.200    24233692.406 5 129542948.576 5        33.400    24233721.004 5 100755739.412 5        34.600    24233720.793 5 100755745.400 5        33.400
C14  25151069.531 6 130968226.665 6        36.700    25151080.172 6 101272978.656 6        40.600
C13  36992366.000 7 192628959.227 7        45.400    36992378.555 7 148952982.876 7        44.000
C11  23463265.188 7 122179375.364 7        44.000    23463277.430 7  94476891.732 7        46.000
C10  36631353.219 7 190749066.212 7        44.900    36631362.594 7 147499320.665 7        46.600
C09  38392755.906 6 199921148.479 6        37.300    38392765.727 6 154591758.977 6        39.900
C08  36485908.430 7 189991698.957 7        44.100    36485913.457 7 146913655.896 7        46.400
C07  36336031.734 7 189211252.367 7        45.800    36336037.938 7 146310170.340 7        47.300
C05  38398957.156 6 199953442.093 6        36.300    38398967.930 6 154616733.572 6        39.700
C04  38987718.461 5 203019275.240 5        35.400    38987730.309 6 156987436.078 6        40.000
C03  36231694.109 7 188667937.177 7        43.900    36231699.379 7 145890039.579 7        46.700
C02  36960621.180 6 192463654.532 6        40.800    36960626.348 7 148825128.892 7        45.100
C01  37504615.242 6 195296370.282 6        39.700    37504624.680 7 151015584.857 7        42.000
S27  38724140.063 6 203496730.003 6        39.900
S37  36742891.078 6 193085208.299 6        41.900
> 2023  2 14 10 23 25.0000000  0 33       0.000000000000
G30  21960745.750 7 115404497.186 7        45.200    21960765.418 7  89925654.516 7        45.800    21960765.840 7  89925608.512 7        46.400    21960769.195 8  86178697.392 8        49.900
G17  21780428.555 7 114456922.456 7        45.300    21780448.059 7  89187293.371 7        47.300    21780447.961 7  89187294.368 7        44.500
G19  22421660.711 7 117826623.558 7        43.200    22421681.813 5  91813044.022 5        32.200
G07  23626770.633 6 124159537.978 6        37.300    23626789.668 5  96747750.355 5        31.800    23626789.766 6  96747748.348 6        36.300
G01  23251747.773 6 122188740.170 6        37.900    23251775.613 3  95212129.335 3        22.900    23251775.289 6  95212046.345 6        40.600    23251778.922 7  91244865.175 7        44.700
G14  20360743.141 7 106996425.628 7        47.400    20360759.797 7  83373908.834 7        43.200    20360759.598 8  83373908.829 8        52.700    20360767.250 9  79899957.118 9        56.100
G03  22440165.102 6 117923862.105 6        41.500    22440189.559 6  91888821.718 6        41.600    22440189.816 7  91888747.716 7        43.800    22440195.258 8  88060038.980 8        48.000
G06  21378685.914 7 112345754.157 7        45.900    21378707.066 8  87542231.301 8        49.500    21378707.441 7  87542233.295 7        47.500    21378711.844 8  83894656.406 8        51.300
R20  21998665.570 6 117636802.944 6        36.600    21998666.398 5 117636745.954 5        35.000    21998688.535 6  91495343.578 6        37.500    21998688.465 6  91495341.575 6        37.300
E33  23645194.508 8 124256335.340 8        48.500    23645213.535 8  92788805.682 8        51.600    23645208.801 8  95209372.068 8        52.300    23645211.227 9  93999197.980 9        58.600
E01  23974729.781 8 125988054.558 8        49.900    23974749.305 8  94082065.933 8        50.700    23974744.523 8  96536362.147 8        52.700    23974746.977 9  95309213.648 9        57.800
E26  26242550.188 6 137905529.562 6        41.600    26242576.371 7 102981487.649 7        43.200    26242570.887 7 105667946.193 7        43.900    26242573.938 8 104324726.029 8        49.700
E31  24490455.695 8 128698216.117 8        49.000    24490478.910 8  96105805.054 8        49.100    24490474.176 8  98612912.932 8        49.600    24490476.566 9  97359381.602 9        55.800
R22  22436616.398 7 119768171.001 7        43.200    22436615.785 7 119768167.002 7        42.600    22436635.844 6  93153032.008 6        41.300    22436636.281 6  93153028.016 6        40.800
R11  20931117.570 8 111849555.036 8        49.800    20931117.094 8 111849541.048 8        48.600    20931134.871 7  86994096.132 7        46.900    20931135.195 7  86994092.128 7        46.300
R21  20547307.672 8 109952792.578 8        51.900    20547306.582 8 109952783.572 8        51.200    20547325.043 7  85518841.040 7        47.400    20547325.625 7  85518838.043 7        47.100
R10  19278427.453 7 102764865.608 7        46.500    19278425.730 7 102764848.616 7        45.500
R09  21608558.297 7 115388470.980 7        45.900    21608555.977 7 115388480.976 7        44.400    21608571.680 7  89746605.759 7        45.000    21608571.637 7  89746599.755 7        43.500
R05  24233386.523 5 129541409.800 5        35.500    24233385.551 5 129541308.807 5        33.600    24233413.957 5 100754463.976 5        34.600    24233414.031 5 100754469.972 5        33.300
C14  25150670.516 6 130966149.329 6        36.800    25150681.113 6 101271372.336 6        40.600
C13  36992150.070 7 192627833.003 7        45.300    36992162.344 7 148952112.014 7        43.900
C11  23463581.352 7 122181021.578 7        44.100    23463593.363 7  94478164.687 7        46.300
C10  36631243.516 7 190748495.958 7        44.500    36631253.172 7 147498879.708 7        46.700
C09  38393064.539 6 199922756.989 6        37.600    38393074.770 6 154593002.771 6        39.500
C08  36485692.609 7 189990574.813 7        44.600    36485697.582 7 146912786.635 7        45.800
C07  36335945.813 7 189210803.017 7        45.700    36335951.758 7 146309822.872 7        47.300
C05  38398952.398 5 199953417.014 5        35.900    38398963.355 6 154616714.182 6        40.100
C04  38987715.320 5 203019258.398 5        34.900    38987726.844 6 156987423.055 6        40.000
C03  36231687.203 7 188667902.579 7        43.900    36231692.789 7 145890012.826 7        46.600
C02  36960618.695 6 192463639.016 6        40.600    36960623.777 7 148825116.897 7        44.900
C01  37504608.406 6 195296338.898 6        39.800    37504618.684 7 151015560.590 7        42.100
S27  38724143.266 6 203496739.916 6        40.100
S37  36742893.500 6 193085212.754 6        41.900
> 2023  2 14 10 23 26.0000000  0 33       0.000000000000
G30  21961219.977 7 115406986.767 7        45.100    21961239.289 7  89927594.449 7        45.900    21961239.488 7  89927548.444 7        45.900    21961243.066 8  86180556.491 8        50.100
G17  21780442.898 7 114457000.637 7        45.400    21780462.742 7  89187354.293 7        47.300    21780462.973 7  89187355.290 7        44.600
G19  22421451.758 7 117825528.526 7        43.000    22421473.430 5  91812190.758 5        32.000
G07  23627429.109 6 124162996.449 6        37.700    23627447.637 5  96750445.262 5        32.000    23627447.523 6  96750443.262 6        36.700
G01  23252413.367 6 122192236.433 6        37.900    23252440.824 3  95214853.696 3        23.000    23252440.383 6  95214770.710 6        40.500    23252444.191 7  91247476.020 7        44.700
G14  20360612.672 7 106995742.533 7        47.600    20360629.660 7  83373376.557 7        43.100    20360629.477 8  83373376.553 8        52.800    20360637.230 9  79899447.019 9        56.000
G03  22440160.844 6 117923839.893 6        41.800    22440185.277 6  91888804.415 6        41.400    22440185.328 7  91888730.411 7        44.000    22440190.918 8  88060022.391 8        48.300
G06  21378317.781 7 112343817.943 7        45.800    21378338.520 8  87540722.567 8        49.700    21378338.852 7  87540724.555 7        47.600    21378343.180 8  83893210.537 8        51.500
R20  21999221.344 6 117639768.918 6        36.900    21999220.527 5 117639711.975 5        34.800    21999242.738 6  91497650.449 6        37.700    21999242.703 6  91497648.446 6        37.900
E33  23645375.766 8 124257287.752 8        48.300    23645394.844 8  92789516.898 8        51.400    23645390.250 8  95210101.835 8        51.800    23645392.559 9  93999918.478 9        58.500
E01  23974860.398 8 125988741.281 8        50.400    23974879.754 8  94082578.749 8        50.900    23974875.160 8  96536888.342 8        52.300    23974877.480 9  95309733.154 9        57.800
E26  26243020.023 6 137907998.934 6        41.700    26243046.328 7 102983331.658 7        42.800    26243040.844 7 105669838.307 7        43.800    26243043.938 8 104326594.094 8        49.500
E31  24490112.680 8 128696412.828 8        49.100    24490135.637 8  96104458.449 8        49.400    24490130.949 8  98611531.195 8        49.700    24490133.418 9  97358017.427 9        55.800
R22  22436255.945 7 119766251.471 7        42.600    22436255.684 7 119766247.478 7        42.200    22436275.730 6  93151539.046 6        41.400    22436276.324 6  93151535.049 6        40.500
R11  20930525.953 8 111846391.878 8        50.000    20930526.180 8 111846377.881 8        48.300    20930544.168 7  86991635.914 7        47.100    20930544.215 7  86991631.910 7        46.400
R21  20547372.250 8 109953139.005 8        51.500    20547371.629 8 109953130.012 8        50.900    20547389.707 7  85519110.486 7        47.500    20547390.793 7  85519107.490 7        47.000
R10  19278589.953 7 102765735.619 7        46.700    19278588.699 7 102765718.614 7        45.200
R09  21609259.414 7 115392215.511 7        46.000    21609258.031 7 115392225.514 7        44.300    21609273.422 7  89749518.169 7        45.200    21609273.391 7  89749512.167 7        43.500
R05  24233078.891 5 129539770.381 5        35.000    24233078.152 5 129539669.384 5        33.400    24233107.188 5 100753188.862 5        34.800    24233107.141 5 100753194.863 5        34.200
C14  25150271.766 6 130964071.945 6        37.100    25150282.363 6 101269765.968 6        40.400
C13  36991933.422 7 192626706.902 7        45.200    36991946.273 7 148951241.239 7        43.800
C11  23463897.539 7 122182667.758 7        43.600    23463909.621 7  94479437.617 7        46.300
C10  36631133.797 7 190747925.647 7        44.200    36631143.488 7 147498438.710 7        46.500
C09  38393373.477 6 199924365.480 6        37.700    38393383.520 6 154594246.564 6        40.000
C08  36485476.367 7 189989450.781 7        44.300    36485481.395 7 146911917.465 7        45.900
C07  36335859.578 7 189210353.658 7        46.000    36335865.516 7 146309475.401 7        47.300
C05  38398947.313 6 199953391.861 6        36.100    38398958.348 6 154616694.738 6        40.100
C04  38987712.547 5 203019241.544 5        34.600    38987723.426 6 156987410.026 6        39.700
C03  36231680.133 7 188667867.979 7        43.900    36231686.020 7 145889986.077 7        46.700
C02  36960615.438 6 192463623.499 6        40.800    36960620.574 7 148825104.897 7        45.100
C01  37504603.023 6 195296307.496 6        39.800    37504612.824 7 151015536.305 7        42.200
S27  38724143.922 6 203496749.881 6        40.100
S37  36742895.766 6 193085217.159 6        41.900
> 2023  2 14 10 23 27.0000000  0 33       0.000000000000
G30  21961693.711 7 115409476.721 7        44.700    21961713.273 7  89929534.673 7        45.800    21961713.336 7  89929488.669 7        45.800    21961716.816 8  86182415.873 8        49.800
G17  21780458.086 7 114457078.848 7        45.400    21780477.742 7  89187415.237 7        47.300    21780477.879 7  89187416.235 7        44.700
G19  22421243.156 7 117824433.622 7        43.200    22421265.148 5  91811337.592 5        33.000
G07  23628087.703 6 124166454.931 6        37.400    23628105.867 5  96753140.174 5        31.500    23628105.988 6  96753138.178 6        36.900
G01  23253078.234 6 122195732.901 6        37.400    23253105.617 3  95217578.213 3        22.800    23253105.066 6  95217495.227 6        40.600    23253108.984 7  91250087.017 7        44.700
G14  20360482.820 7 106995059.921 7        47.400    20360499.875 7  83372844.659 7        43.200    20360499.875 8  83372844.647 8        53.000    20360507.445 9  79898937.283 9        55.600
G03  22440156.664 6 117923818.355 6        41.600    22440180.980 6  91888787.627 6        41.600    22440181.387 7  91888713.624 7        44.100    22440186.855 8  88060006.308 8        48.200
G06  21377949.664 7 112341882.246 7        45.900    21377969.621 8  87539214.231 8        49.800    21377970.168 7  87539216.226 7        47.800    21377974.637 8  83891765.052 8        51.300
R20  21999775.859 6 117642734.910 6        36.900    21999775.277 5 117642677.931 5        34.300    21999797.805 6  91499957.327 6        37.500    21999797.648 6  91499955.330 6        37.600
E33  23645557.156 8 124258240.523 8        48.400    23645576.141 8  92790228.383 8        51.500    23645571.500 8  95210831.882 8        52.300    23645573.848 9  94000639.241 9        58.500
E01  23974991.281 8 125989428.388 8        50.400    23975010.660 8  94083091.848 8        50.600    23975006.063 8  96537414.826 8        52.400    23975008.461 9  95310252.949 9        57.800
E26  26243489.984 6 137910468.370 6        41.800    26243516.285 7 102985175.714 7        43.300    26243511.125 7 105671730.468 7        44.100    26243513.910 8 104328462.201 8        49.500
E31  24489769.570 8 128694609.787 8        49.200    24489792.441 8  96103112.024 8        48.900    24489787.848 8  98610149.653 8        50.200    24489790.199 9  97356653.448 9        55.800
R22  22435896.875 7 119764332.425 7        42.700    22435896.496 7 119764328.445 7        42.500    22435916.297 6  93150046.456 6        41.100    22435916.855 6  93150042.466 6        40.800
R11  20929934.164 8 111843229.270 8        50.100    20929933.449 8 111843215.274 8        48.800    20929951.672 7  86989176.118 7        46.700    20929951.824 7  86989172.115 7        46.300
R21  20547437.664 8 109953485.885 8        52.000    20547436.457 8 109953476.909 8        51.300    20547454.348 7  85519380.281 7        47.500    20547455.793 7  85519377.284 7        47.300
R10  19278753.734 7 102766606.505 7        47.000    19278752.129 7 102766589.490 7        45.700
R09  21609959.664 7 115395960.481 7        46.100    21609959.219 7 115395970.489 7        44.300    21609974.895 7  89752430.930 7        45.200    21609974.793 7  89752424.926 7        43.200
R05  24232772.438 5 129538131.312 5        35.500    24232771.109 5 129538030.321 5        33.600    24232800.156 5 100751914.023 5        34.100    24232800.004 5 100751920.019 5        33.500
C14  25149873.813 6 130961994.599 6        36.700    25149883.496 6 101268159.634 6        39.800
C13  36991717.258 7 192625581.001 7        45.000    36991730.211 7 148950370.629 7        43.700
C11  23464213.273 7 122184313.979 7        43.800    23464225.457 7  94480710.581 7        46.200
C10  36631024.422 7 190747355.319 7        43.900    36631033.914 7 147497997.698 7        46.300
C09  38393682.680 6 199925973.978 6        38.100    38393692.238 6 154595490.363 6        40.000
C08  36485260.773 7 189988326.970 7        44.300    36485265.641 7 146911048.467 7        46.400
C07  36335773.180 7 189209904.298 7        46.200    36335779.570 7 146309127.933 7        47.300
C05  38398943.070 5 199953366.769 5        35.900    38398953.520 6 154616675.336 6        40.300
C04  38987709.094 5 203019224.748 5        35.100    38987720.148 6 156987397.044 6        39.300
C03  36231673.906 7 188667833.414 7        43.800    36231679.234 7 145889959.352 7        46.600
C02  36960612.531 6 192463607.994 6        40.500    36960617.738 7 148825092.915 7        45.200
C01  37504596.883 6 195296276.139 6        39.800    37504606.781 7 151015512.060 7        42.300
S27  38724145.734 6 203496759.854 6        40.400
S37  36742890.641 7 193085221.621 7        42.000
> 2023  2 14 10 23 28.0000000  0 33       0.000000000000
G30  21962167.391 7 115411966.927 7        44.700    21962186.703 7  89931475.095 7        46.000    21962186.988 7  89931429.090 7        46.000    21962190.539 8  86184275.441 8        49.900
G17  21780472.820 7 114457156.976 7        45.400    21780492.586 7  89187476.119 7        47.300    21780492.676 7  89187477.116 7        44.400
G19  22421034.789 7 117823338.709 7        42.900    22421056.617 5  91810484.421 5        32.500
G07  23628745.023 6 124169913.342 6        36.800    23628764.000 5  96755835.044 5        32.200    23628764.156 6  96755833.041 6        36.400
G01  23253744.047 6 122199229.371 6        37.700    23253771.320 3  95220302.741 3        22.300    23253770.625 6  95220219.747 6        40.600    23253774.980 7  91252698.012 7        44.600
G14  20360353.234 7 106994377.724 7        47.500    20360369.961 7  83372313.076 7        43.200    20360370.195 8  83372313.065 8        52.800    20360377.648 9  79898427.851 9        55.700
G03  22440152.500 6 117923797.418 6        41.600    22440177.344 6  91888771.312 6        41.200    22440177.457 7  91888697.308 7        43.600    22440182.984 8  88059990.670 8        48.200
G06  21377581.414 7 112339947.012 7        46.000    21377601.320 8  87537706.258 8        49.700    21377601.664 8  87537708.253 8        48.100    21377606.102 8  83890319.915 8        51.300
R20  22000330.391 6 117645700.879 6        37.400    22000329.457 5 117645643.897 5        35.300    22000351.918 6  91502264.190 6        37.300    22000351.996 6  91502262.194 6        37.500
E33  23645738.336 7 124259193.534 7        47.900    23645757.598 8  92790940.042 8        51.500    23645752.859 8  95211562.112 8        52.500    23645755.258 9  94001360.186 9        58.500
E01  23975121.945 8 125990115.811 8        50.500    23975141.355 8  94083605.185 8        51.000    23975136.668 8  96537941.556 8        52.500    23975139.129 9  95310772.979 9        57.800
E26  26243959.992 6 137912937.754 6        41.300    26243986.090 7 102987019.734 7        43.400    26243980.840 7 105673622.593 7        43.900    26243983.723 8 104330330.276 8        49.600
E31  24489426.414 8 128692806.863 8        48.800    24489449.469 8  96101765.694 8        48.900    24489444.734 8  98608768.197 8        50.300    24489447.098 9  97355289.555 9        55.800
R22  22435537.242 7 119762413.789 7        43.300    22435536.746 7 119762409.782 7        42.300    22435556.391 6  93148554.193 6        41.400    22435557.121 6  93148550.196 6        40.900
R11  20929341.813 8 111840067.114 8        50.000    20929341.215 8 111840053.139 8        49.000    20929359.969 7  86986716.669 7        47.100    20929359.445 7  86986712.666 7        46.400
R21  20547502.500 8 109953833.157 8        52.100    20547501.527 8 109953824.150 8        51.300    20547519.707 7  85519650.383 7        47.500    20547520.598 7  85519647.386 7        47.300
R10  19278916.438 7 102767478.175 7        46.500    19278915.891 7 102767461.182 7        45.500
R09  21610661.227 7 115399705.864 7        46.600    21610660.195 7 115399715.859 7        44.500    21610675.680 7  89755344.005 7        45.200    21610675.613 7  89755338.002 7        43.100
R05  24232466.820 5 129536492.557 5        35.700    24232464.789 5 129536391.586 5        34.000    24232493.340 5 100750639.416 5        34.600    24232493.750 5 100750645.412 5        34.200
C14  25149474.508 6 130959917.088 6        36.300    25149484.742 6 101266553.175 6        39.800
C13  36991500.938 7 192624455.203 7        45.200    36991513.848 7 148949500.094 7        43.500
C11  23464529.445 7 122185960.134 7        44.000    23464541.668 7  94481983.493 7        46.100
C10  36630914.852 7 190746784.956 7        44.300    36630924.516 7 147497556.663 7        46.300
C09  38393991.445 6 199927582.387 6        38.100    38394001.406 6 154596734.088 6        39.900
C08  36485045.406 7 189987203.307 7        44.600    36485050.121 7 146910179.583 7        46.500
C07  36335686.875 7 189209454.860 7        46.300    36335692.926 7 146308780.402 7        47.200
C05  38398937.664 5 199953341.691 5        35.900    38398948.758 6 154616655.947 6        40.200
C04  38987705.195 5 203019207.932 5        34.700    38987716.801 6 156987384.045 6        39.800
C03  36231667.164 7 188667798.805 7        44.000    36231672.648 7 145889932.593 7        46.600
C02  36960609.328 6 192463592.513 6        40.600    36960614.742 7 148825080.940 7        45.100
C01  37504590.539 6 195296244.724 6        39.800    37504600.652 7 151015487.773 7        42.400
S27  38724147.547 6 203496769.810 6        40.200
S37  36742903.516 6 193085226.050 6        41.700
> 2023  2 14 10 23 29.0000000  0 33       0.000000000000
G30  21962641.758 7 115414457.478 7        44.900    21962660.973 7  89933415.784 7        45.900    21962661.215 7  89933369.775 7        46.100    21962664.629 8  86186135.270 8        50.000
G17  21780487.844 7 114457235.104 7        45.500    21780507.582 7  89187537.002 7        47.200    21780507.793 7  89187537.998 7        44.300
G19  22420826.102 7 117822243.878 7        43.000    22420848.488 5  91809631.314 5        32.300
G07  23629403.391 6 124173371.790 6        36.600    23629422.055 5  96758529.940 5        31.400    23629422.184 6  96758527.933 6        36.300
G01  23254409.766 6 122202726.013 6        37.800    23254436.918 3  95223027.391 3        23.600    23254436.301 6  95222944.401 6        40.600    23254440.520 7  91255309.140 7        44.700
G14  20360223.438 7 106993696.003 7        47.600    20360240.543 7  83371781.870 7        43.200    20360240.477 8  83371781.859 8        52.700    20360248.172 9  79897918.779 9        55.700
G03  22440149.133 6 117923777.051 6        41.700    22440173.488 6  91888755.439 6        41.400    22440173.613 7  91888681.436 7        43.700    22440178.895 8  88059975.458 8        48.100
G06  21377212.789 7 112338012.282 7        45.900    21377233.441 8  87536198.683 8        49.700    21377233.871 8  87536200.679 8        48.100    21377238.164 8  83888875.149 8        51.300
R20  22000885.922 6 117648666.758 6        36.700    22000884.754 5 117648609.790 5        35.400    22000907.211 6  91504570.983 6        37.700    22000907.141 6  91504568.987 6        37.200
E33  23645919.930 8 124260146.838 8        48.100    23645938.953 8  92791651.923 8        51.400    23645934.359 8  95212292.563 8        52.600    23645936.676 9  94002081.355 9        58.500
E01  23975252.969 8 125990803.625 8        50.400    23975272.297 8  94084118.813 8        50.900    23975267.891 8  96538468.583 8        52.500    23975270.098 9  95311293.306 9        57.800
E26  26244429.953 6 137915407.230 6        41.500    26244456.262 7 102988863.814 7        43.600    26244450.820 7 105675514.785 7        44.200    26244453.840 8 104332198.412 8        49.600
E31  24489083.266 8 128691004.184 8        48.900    24489106.398 8  96100419.546 8        48.300    24489101.711 8  98607386.931 8        50.100    24489104.078 9  97353925.845 9        55.800
R22  22435178.125 7 119760495.610 7        42.800    22435177.863 7 119760491.611 7        42.500    22435197.801 6  93147062.278 6        40.800    22435198.242 6  93147058.276 6        40.600
R11  20928750.117 8 111836905.537 8        50.000    20928749.758 8 111836891.533 8        48.900    20928768.207 7  86984257.677 7        46.700    20928767.938 7  86984253.674 7        46.300
R21  20547567.281 8 109954180.800 8        52.300    20547565.723 8 109954171.808 8        50.900    20547583.957 7  85519920.772 7        47.300    20547584.691 7  85519917.776 7        47.400
R10  19279080.828 7 102768350.716 7        46.600    19279079.926 7 102768333.733 7        45.300
R09  21611363.102 7 115403451.684 7        46.200    21611361.367 7 115403461.708 7        44.200    21611376.988 7  89758257.425 7        45.200    21611376.777 7  89758251.422 7        43.200
R05  24232158.563 5 129534854.068 5        35.200    24232157.707 5 129534753.104 5        33.300    24232186.336 5 100749365.018 5        34.900    24232186.523 5 100749371.013 5        34.400
C14  25149074.922 6 130957839.586 6        36.800    25149085.926 6 101264946.720 6        39.900
C13  36991284.859 7 192623329.568 7        45.200    36991297.746 7 148948629.681 7        43.800
C11  23464845.438 7 122187606.276 7        44.100    23464857.527 7  94483256.397 7        45.900
C10  36630805.750 7 190746214.536 7        44.100    36630815.137 7 147497115.578 7        46.200
C09  38394300.227 6 199929190.805 6        37.600    38394310.242 6 154597977.816 6        40.000
C08  36484829.164 7 189986079.840 7        44.300    36484833.828 7 146909310.852 7        46.700
C07  36335600.336 7 189209005.440 7        46.100    36335606.602 7 146308432.882 7        46.900
C05  38398932.578 6 199953316.565 6        36.100    38398943.848 6 154616636.516 6        40.100
C04  38987702.219 5 203019191.104 5        35.000    38987713.559 6 156987371.035 6        39.300
C03  36231660.313 7 188667764.231 7        43.900    36231665.891 7 145889905.856 7        46.700
C02  36960606.563 6 192463577.010 6        40.600    36960611.824 7 148825068.957 7        45.200
C01  37504584.938 6 195296213.340 6        39.700    37504594.711 7 151015463.508 7        42.300
S27  38724150.344 6 203496779.777 6        39.700
S37  36742898.156 7 193085230.507 7        42.100
> 2023  2 14 10 23 30.0000000  0 33       0.000000000000
G30  21963115.758 7 115416948.365 7        44.900    21963135.000 7  89935356.733 7        45.800    21963135.035 7  89935310.729 7        45.800    21963138.602 8  86187995.348 8        50.100
G17  21780502.438 7 114457313.216 7        45.300    21780522.242 7  89187597.871 7        47.300    21780522.242 7  89187598.868 7        44.400
G19  22420617.719 7 117821149.093 7        42.800    22420640.141 5  91808778.237 5        32.400
G07  23630061.750 6 124176830.227 6        37.200    23630079.840 5  96761224.820 5        31.500    23630080.176 6  96761222.816 6        36.200
G01  23255074.969 6 122206222.676 6        37.900    23255102.211 3  95225752.055 3        22.200    23255101.777 6  95225669.065 6        40.900    23255105.758 7  91257920.278 7        44.800
G14  20360093.734 7 106993014.756 7        47.900    20360110.715 7  83371251.024 7        43.400    20360110.637 8  83371251.019 8        52.400    20360118.227 9  79897410.059 9        55.700
G03  22440145.383 6 117923757.289 6        41.500    22440169.340 6  91888740.044 6        41.300    22440169.559 7  91888666.035 7        44.100    22440174.980 8  88059960.702 8        48.100
G06  21376845.266 7 112336078.039 7        46.000    21376865.344 8  87534691.481 8        49.800    21376865.660 8  87534693.476 8        48.000    21376870.008 8  83887430.752 8        51.300
R20  22001440.445 6 117651632.631 6        37.100    22001438.691 5 117651575.693 5        34.900    22001461.391 6  91506877.771 6        37.900    22001461.387 6  91506875.777 6        37.300
E33  23646101.414 8 124261100.444 8        48.200    23646120.363 8  92792364.035 8        51.500    23646115.719 8  95213023.246 8        52.500    23646118.059 9  94002802.750 9        58.600
E01  23975383.836 8 125991491.774 8        49.900    23975403.281 8  94084632.695 8        51.100    23975398.730 8  96538995.869 8        52.100    23975401.031 9  95311813.889 9        57.800
E26  26244899.914 6 137917876.688 6        41.400    26244926.211 7 102990707.888 7        43.600    26244920.910 7 105677406.964 7        44.400    26244923.734 8 104334066.535 8        49.600
E31  24488740.188 8 128689201.675 8        49.000    24488763.371 8  96099073.522 8        48.600    24488758.730 8  98606005.793 8        50.400    24488761.129 9  97352562.268 9        55.900
R22  22434818.078 7 119758577.863 7        42.900    22434818.051 7 119758573.863 7        42.600    22434838.188 6  93145570.692 6        40.900    22434838.188 6  93145566.688 6        40.800
R11  20928159.305 8 111833744.472 8        50.100    20928158.473 8 111833730.468 8        48.600    20928176.695 7  86981799.082 7        46.400    20928176.609 7  86981795.079 7        46.400
R21  20547632.203 8 109954528.872 8        51.900    20547631.465 8 109954519.889 8        50.800    20547650.254 7  85520191.499 7        47.300    20547650.672 7  85520188.503 7        47.400
R10  19279245.055 7 102769224.117 7        46.800    19279243.449 7 102769207.125 7        45.400
R09  21612064.750 7 115407197.980 7        46.000    21612063.484 7 115407207.976 7        44.600    21612079.313 7  89761171.208 7        45.400    21612079.074 7  89761165.205 7        43.500
R05  24231852.281 5 129533216.048 5        34.800    24231851.426 5 129533115.022 5        33.800    24231880.430 5 100748090.984 5        34.600    24231880.570 5 100748096.980 5        34.700
C14  25148676.242 6 130955762.050 6        36.600    25148686.891 6 101263340.234 6        40.200
C13  36991068.906 7 192622204.057 7        45.200    36991081.211 7 148947759.368 7        43.900
C11  23465161.484 7 122189252.433 7        44.100    23465173.578 7  94484529.310 7        45.700
C10  36630695.398 7 190745644.071 7        43.900    36630705.348 7 147496674.455 7        46.300
C09  38394609.320 6 199930799.199 6        37.500    38394619.137 6 154599221.526 6        39.800
C08  36484613.492 7 189984956.550 7        44.400    36484618.355 7 146908442.253 7        46.500
C07  36335513.883 7 189208555.995 7        45.700    36335520.031 7 146308085.350 7        47.000
C05  38398928.281 5 199953291.479 5        35.800    38398938.957 6 154616617.122 6        40.100
C04  38987699.109 5 203019174.318 5        35.100    38987710.578 6 156987358.062 6        39.100
C03  36231653.797 7 188667729.669 7        43.900    36231659.430 7 145889879.128 7        46.300
C02  36960603.711 6 192463561.501 6        40.800    36960608.703 7 148825056.964 7        45.100
C01  37504578.617 6 195296181.972 6        39.800    37504588.824 7 151015439.256 7        42.400
S27  38724152.031 6 203496789.710 6        40.000
S37  36742901.344 6 193085234.946 6        41.800
> 2023  2 14 10 23 31.0000000  0 33       0.000000000000
G30  21963589.195 7 115419439.514 7        44.900    21963608.777 7  89937297.888 7        45.700    21963609.031 7  89937251.876 7        46.000    21963612.551 8  86189855.618 8        49.900
G17  21780517.641 7 114457391.276 7        45.400    21780537.527 7  89187658.697 7        47.200    21780537.430 7  89187659.694 7        44.500
G19  22420409.617 7 117820054.352 7        43.200    22420431.617 5  91807925.198 5        32.700
G07  23630719.000 6 124180288.575 6        36.900    23630738.277 5  96763919.635 5        31.500    23630738.469 6  96763917.635 6        36.200
G01  23255739.563 6 122209719.454 6        37.900    23255767.684 3  95228476.817 3        22.200    23255767.090 6  95228393.820 6        40.600    23255771.402 7  91260531.507 7        45.100
G14  20359964.227 8 106992333.946 8        48.200    20359980.684 7  83370720.527 7        43.200    20359980.906 8  83370720.523 8        52.300    20359988.371 9  79896901.667 9        55.600
G03  22440141.281 6 117923738.097 6        41.700    22440166.102 6  91888725.084 6        41.300    22440166.371 7  91888651.081 7        44.200    22440171.684 8  88059946.367 8        48.200
G06  21376477.297 7 112334144.248 7        45.800    21376497.332 8  87533184.630 8        49.800    21376497.738 7  87533186.625 7        47.700    21376502.055 8  83885986.687 8        51.400
R20  22001994.531 6 117654598.481 6        36.700    22001993.012 5 117654541.468 5        35.300    22002015.418 6  91509184.544 6        38.300    22002015.789 6  91509182.548 6        37.200
E33  23646282.891 8 124262054.335 8        48.200    23646301.938 8  92793076.355 8        51.700    23646297.203 8  95213754.150 8        52.200    23646299.566 9  94003524.364 9        58.600
E01  23975514.883 8 125992180.268 8        49.900    23975534.109 8  94085146.831 8        51.100    23975529.609 8  96539523.417 8        52.000    23975531.973 9  95312334.732 9        57.900
E26  26245369.828 6 137920346.176 6        41.500    26245396.168 7 102992551.986 7        43.300    26245390.680 7 105679299.167 7        43.700    26245393.680 8 104335934.689 8        49.500
E31  24488397.297 8 128687399.342 8        48.600    24488420.465 8  96097727.629 8        48.700    24488415.918 8  98604624.792 8        50.200    24488418.191 9  97351198.820 9        55.800
R22  22434458.727 7 119756660.524 7        42.900    22434459.168 7 119756656.552 7        42.800    22434479.234 6  93144079.418 6        41.200    22434479.340 6  93144075.421 6        40.900
R11  20927567.414 8 111830583.902 8        50.000    20927567.523 8 111830569.891 8        48.200    20927586.027 7  86979340.860 7        46.400    20927585.637 7  86979336.857 7        46.500
R21  20547697.305 8 109954877.336 8        51.900    20547696.449 8 109954868.345 8        51.100    20547714.785 7  85520462.531 7        47.300    20547715.516 7  85520459.527 7        47.400
R10  19279408.719 7 102770098.365 7        47.000    19279407.582 7 102770081.362 7        45.300
R09  21612765.148 7 115410944.652 7        46.000    21612765.410 7 115410954.633 7        44.500    21612781.074 7  89764085.279 7        45.200    21612780.770 7  89764079.282 7        43.300
R05  24231544.750 5 129531578.300 5        35.200    24231545.184 5 129531477.344 5        33.600    24231575.027 5 100746817.165 5        35.100    24231574.813 5 100746823.161 5        34.700
C14  25148277.508 6 130953684.448 6        36.600    25148287.715 6 101261733.705 6        40.700
C13  36990852.883 7 192621078.693 7        45.500    36990865.531 7 148946889.170 7        44.200
C11  23465477.453 7 122190898.514 7        43.600    23465489.664 7  94485802.160 7        45.900
C10  36630586.008 7 190745073.532 7        43.800    36630595.695 7 147496233.283 7        45.800
C09  38394917.836 6 199932407.516 6        37.600    38394927.793 6 154600465.177 6        39.600
C08  36484397.922 7 189983833.391 7        44.300    36484402.574 7 146907573.763 7        46.600
C07  36335427.797 7 189208106.486 7        45.800    36335433.703 7 146307737.758 7        47.000
C05  38398923.281 6 199953266.384 6        36.100    38398934.051 6 154616597.714 6        40.400
C04  38987696.016 5 203019157.431 5        35.100    38987707.586 6 156987345.002 6        39.500
C03  36231647.273 7 188667695.076 7        43.900    36231652.773 7 145889852.381 7        46.300
C02  36960600.641 6 192463545.982 6        40.800    36960605.699 7 148825044.963 7        45.200
C01  37504572.773 6 195296150.569 6        39.800    37504582.641 7 151015414.976 7        42.200
S27  38724154.000 6 203496799.601 6        40.200
S37  36742894.203 7 193085239.354 7        42.100
> 2023  2 14 10 23 32.0000000  0 33       0.000000000000
G30  21964063.383 7 115421931.002 7        44.700    21964083.293 7  89939239.303 7        45.900    21964083.359 7  89939193.297 7        45.900    21964087.012 8  86191716.144 8        50.000
G17  21780531.781 7 114457469.329 7        45.300    21780551.742 7  89187719.521 7        47.300    21780551.641 7  89187720.516 7        44.800
G19  22420201.203 7 117818959.701 7        43.000    22420223.168 5  91807072.228 5        33.100
G07  23631377.594 6 124183746.972 6        36.600    23631396.527 5  96766614.494 5        31.500    23631396.551 6  96766612.491 6        36.800
G01  23256405.813 6 122213216.304 6        37.700    23256432.895 3  95231201.635 3        22.500    23256432.504 6  95231118.634 6        40.200    23256436.555 7  91263142.786 7        45.000
G14  20359834.602 7 106991653.591 7        47.800    20359851.496 7  83370190.378 7        43.300    20359851.621 8  83370190.374 8        52.700    20359859.242 9  79896393.609 9        55.700
G03  22440137.875 6 117923719.476 6        41.900    22440162.598 6  91888710.572 6        41.400    22440162.789 7  91888636.571 7        44.300    22440168.238 8  88059932.460 8        48.100
G06  21376109.070 7 112332210.973 7        46.000    21376129.320 8  87531678.187 8        49.700    21376129.781 7  87531680.182 7        47.500    21376133.922 8  83884543.015 8        51.400
R20  22002549.633 6 117657564.215 6        37.000    22002547.996 5 117657507.263 5        35.800    22002570.875 6  91511491.226 6        37.900    22002570.816 6  91511489.229 6        37.300
E33  23646464.305 8 124263008.520 8        48.300    23646483.609 8  92793788.898 8        51.700    23646478.777 8  95214485.279 8        52.100    23646481.195 9  94004246.198 9        58.500
E01  23975645.922 8 125992869.135 8        50.400    23975665.180 8  94085661.247 8        51.000    23975660.633 8  96540051.246 8        51.600    23975663.004 9  95312855.858 9        57.800
E26  26245839.742 6 137922815.681 6        41.500    26245866.129 7 102994396.094 7        43.300    26245860.594 7 105681191.386 7        43.800    26245863.563 8 104337802.852 8        49.600
E31  24488054.422 8 128685597.196 8        49.000    24488077.469 8  96096381.881 8        48.800    24488072.828 8  98603243.936 8        50.200    24488075.207 9  97349835.516 9        55.800
R22  22434100.523 7 119754743.665 7        42.600    22434098.852 7 119754739.663 7        42.600    22434118.816 6  93142588.524 6        41.600    22434119.371 6  93142584.527 6        40.700
R11  20926976.281 8 111827423.846 8        50.200    20926976.039 8 111827409.850 8        48.200    20926994.328 7  86976883.045 7        46.300    20926994.195 7  86976879.042 7        46.000
R21  20547762.688 8 109955226.247 8        52.100    20547761.363 8 109955217.264 8        51.100    20547779.848 7  85520733.903 7        47.200    20547780.625 7  85520730.905 7        47.300
R10  19279572.375 7 102770973.485 7        47.000    19279570.535 7 102770956.481 7        45.800
R09  21613467.484 7 115414691.735 7        46.200    21613466.688 7 115414701.746 7        44.600    21613482.426 7  89766999.671 7        44.900    21613482.332 7  89766993.674 7        43.600
R05  24231238.367 5 129529940.940 5        34.900    24231238.566 5 129529839.968 5        34.100    24231268.332 5 100745543.645 5        34.700    24231268.102 5 100745549.641 5        34.600
C14  25147878.828 6 130951606.738 6        36.800    25147888.648 6 101260127.094 6        40.400
C13  36990636.828 7 192619953.475 7        45.400    36990649.496 7 148946019.083 7        44.300
C11  23465793.844 7 122192544.603 7        43.800    23465806.047 7  94487075.020 7        45.800
C10  36630476.539 7 190744502.974 7        43.900    36630485.852 7 147495792.097 7        45.900
C09  38395226.750 6 199934015.834 6        37.100    38395237.137 6 154601708.833 6        39.500
C08  36484182.047 7 189982710.405 7        44.300    36484186.891 7 146906705.401 7        46.700
C07  36335341.617 7 189207656.969 7        45.700    36335347.652 7 146307390.167 7        47.000
C05  38398918.352 6 199953241.260 6        36.300    38398929.141 6 154616578.290 6        39.700
C04  38987692.258 5 203019140.614 5        35.000    38987704.156 6 156987332.000 6        39.400
C03  36231640.734 7 188667660.494 7        43.900    36231645.984 7 145889825.638 7        46.300
C02  36960597.375 6 192463530.468 6        40.400    36960602.738 7 148825032.968 7        45.400
C01  37504566.680 6 195296119.170 6        39.700    37504576.543 7 151015390.694 7        42.200
S27  38724155.875 6 203496809.518 6        40.300
S37  36742900.078 7 193085243.804 7        42.000
> 2023  2 14 10 23 33.0000000  0 33       0.000000000000
G30  21964537.875 7 115424422.845 7        45.400    21964557.133 7  89941180.999 7        45.800    21964557.168 7  89941134.995 7        45.700    21964560.906 8  86193576.935 8        50.000
G17  21780546.836 7 114457547.400 7        45.200    21780566.734 7  89187780.360 7        47.300    21780566.504 7  89187781.356 7        44.700
G19  22419993.461 7 117817865.152 7        42.900    22420015.078 5  91806219.346 5        33.200
G07  23632035.500 6 124187205.345 6        36.300    23632054.516 5  96769309.327 5        31.000    23632054.543 6  96769307.324 6        36.700
G01  23257070.578 6 122216713.313 6        37.100    23257098.395 3  95233926.581 3        23.000    23257097.891 6  95233843.576 6        40.500    23257102.230 7  91265754.190 7        44.800
G14  20359705.375 7 106990973.743 7        47.500    20359721.613 7  83369660.633 7        43.400    20359721.926 8  83369660.628 8        52.900    20359729.355 9  79895885.934 9        55.900
G03  22440134.758 6 117923701.553 6        41.700    22440158.813 6  91888696.611 6        41.400    22440159.109 7  91888622.607 7        44.300    22440164.453 8  88059919.081 8        48.200
G06  21375741.289 7 112330278.205 7        46.100    21375761.863 8  87530172.138 8        49.800    21375762.180 7  87530174.133 7        47.400    21375766.465 8  83883099.717 8        51.500
R20  22003103.984 6 117660530.019 6        36.500    22003102.699 5 117660473.018 5        35.700    22003124.813 6  91513797.960 6        37.500    22003125.301 6  91513795.960 6        37.700
E33  23646645.977 8 124263963.035 8        48.400    23646665.262 8  92794501.686 8        51.500    23646660.527 8  95215216.662 8        52.000    23646662.875 9  94004968.282 9        58.500
E01  23975777.109 8 125993558.383 8        49.500    23975796.465 8  94086175.943 8        51.000    23975791.965 8  96540579.374 8        51.700    23975794.328 9  95313377.272 9        57.800
E26  26246309.586 6 137925285.262 6        41.300    26246335.930 7 102996240.262 7        43.000    26246330.539 7 105683083.657 7        43.900    26246333.484 8 104339671.068 8        49.600
E31  24487711.430 8 128683795.292 8        49.000    24487734.609 8  96095036.310 8        48.800    24487730.012 8  98601863.256 8        50.300    24487732.355 9  97348472.392 9        55.800
R22  22433742.156 7 119752827.244 7        42.700    22433740.602 7 119752823.252 7        42.600    22433760.645 6  93141097.980 6        41.000    22433760.926 6  93141093.976 6        40.900
R11  20926385.469 8 111824264.328 8        50.000    20926384.637 8 111824250.338 8        48.000    20926403.047 7  86974425.647 7        46.600    20926402.852 7  86974421.651 7        46.200
R21  20547827.977 8 109955575.614 8        52.300    20547825.945 8 109955566.623 8        51.200    20547844.953 7  85521005.632 7        47.300    20547845.496 7  85521002.636 7        47.400
R10  19279736.586 7 102771849.494 7        47.100    19279735.566 7 102771832.488 7        45.700
R09  21614169.813 7 115418439.293 7        45.900    21614168.547 7 115418449.305 7        44.300    21614183.781 7  89769914.439 7        45.100    21614184.121 7  89769908.443 7        43.600
R05  24230933.539 6 129528303.956 6        36.500    24230932.566 5 129528202.946 5        34.200    24230962.090 5 100744270.426 5        34.900    24230961.898 5 100744276.419 5        34.900
C14  25147479.383 6 130949529.075 6        36.300    25147489.828 6 101258520.515 6        40.500
C13  36990420.664 7 192618828.459 7        45.600    36990433.254 7 148945149.151 7        44.300
C11  23466109.867 7 122194190.724 7        43.700    23466122.199 7  94488347.903 7        45.800
C10  36630366.914 7 190743932.406 7        43.900    36630376.555 7 147495350.905 7        46.300
C09  38395535.188 6 199935624.140 6        37.700    38395545.242 6 154602952.478 6        39.500
C08  36483966.609 7 189981587.671 7        44.100    36483971.430 7 146905837.229 7        46.600
C07  36335255.086 7 189207207.483 7        45.800    36335261.203 7 146307042.603 7        46.900
C05  38398913.430 6 199953216.193 6        36.200    38398924.602 6 154616558.907 6        39.600
C04  38987689.422 5 203019123.861 5        35.100    38987700.645 6 156987319.046 6        39.500
C03  36231633.945 7 188667625.929 7        43.900    36231639.531 7 145889798.915 7        46.500
C02  36960594.633 6 192463515.010 6        40.600    36960599.617 7 148825021.017 7        45.500
C01  37504560.594 6 195296087.810 6        39.900    37504570.242 7 151015366.449 7        42.200
S27  38724157.578 6 203496819.476 6        40.100
S37  36742900.813 6 193085248.269 6        41.800
> 2023  2 14 10 23 34.0000000  0 33       0.000000000000
G30  21965012.336 7 115426915.194 7        45.600    21965031.457 7  89943123.091 7        46.000    21965031.805 7  89943077.087 7        46.100    21965035.469 8  86195438.104 8        50.700
G17  21780561.891 7 114457625.651 7        45.200    21780581.863 7  89187841.332 7        47.300    21780581.758 7  89187842.329 7        44.600
G19  22419784.758 7 117816770.833 7        42.900    22419806.762 5  91805366.635 5        32.600
G07  23632694.055 6 124190663.947 6        36.800    23632712.609 5  96772004.339 5        31.100    23632712.598 6  96772002.336 6        36.200
G01  23257736.727 6 122220210.650 6        37.300    23257763.859 3  95236651.782 3        22.800    23257763.148 6  95236568.770 6        40.100    23257767.637 7  91268365.834 7        45.000
G14  20359576.508 7 106990294.540 7        47.600    20359593.406 7  83369131.387 7        43.200    20359593.234 8  83369131.382 8        53.300    20359600.914 9  79895378.738 9        55.600
G03  22440131.063 6 117923684.424 6        41.800    22440155.410 6  91888683.264 6        41.800    22440155.988 7  91888609.261 7        44.200    22440161.168 8  88059906.291 8        48.000
G06  21375373.750 7 112328346.144 7        46.000    21375394.313 8  87528666.635 8        49.700    21375394.699 7  87528668.630 7        47.700    21375398.914 8  83881656.944 8        51.600
R20  22003658.672 6 117663495.927 6        37.000    22003658.207 5 117663438.979 5        35.800    22003680.254 6  91516104.783 6        37.900    22003680.270 6  91516102.780 6        37.400
E33  23646827.773 8 124264918.053 8        48.700    23646846.848 8  92795214.847 8        51.500    23646842.156 8  95215948.427 8        52.000    23646844.543 9  94005690.746 9        58.500
E01  23975908.383 8 125994248.190 8        49.000    23975927.598 8  94086691.063 8        50.700    23975922.957 8  96541107.932 8        51.500    23975925.363 9  95313899.108 9        57.800
E26  26246779.398 6 137927755.059 6        41.100    26246806.020 7 102998084.587 7        42.400    26246800.676 7 105684976.102 7        44.100    26246803.566 8 104341539.457 8        49.500
E31  24487368.695 8 128681993.783 8        49.200    24487391.844 8  96093691.032 8        48.600    24487387.156 8  98600482.891 8        50.300    24487389.559 9  97347109.574 9        55.800
R22  22433383.875 7 119750911.494 7        42.900    22433381.734 7 119750907.510 7        42.400    22433401.828 6  93139607.952 6        41.200    22433402.199 6  93139603.954 6        40.700
R11  20925793.680 8 111821105.547 8        49.900    20925793.082 8 111821091.543 8        48.300    20925811.117 7  86971968.824 7        46.800    20925811.270 7  86971964.822 7        46.300
R21  20547893.188 8 109955925.553 8        51.900    20547892.098 8 109955916.570 8        51.000    20547910.547 7  85521277.810 7        47.600    20547911.320 7  85521274.814 7        47.900
R10  19279901.773 7 102772726.530 7        46.800    19279900.402 7 102772709.529 7        45.300
R09  21614871.813 7 115422187.463 7        45.700    21614870.898 7 115422197.496 7        44.300    21614886.734 7  89772829.687 7        45.100    21614886.320 7  89772823.690 7        43.500
R05  24230627.813 5 129526667.504 5        35.800    24230627.543 5 129526566.499 5        34.600    24230656.430 5 100742997.614 5        35.000    24230656.453 5 100743003.610 5        35.100
C14  25147080.500 6 130947451.535 6        36.400    25147090.777 6 101256914.032 6        40.300
C13  36990204.828 7 192617703.771 7        45.700    36990217.297 7 148944279.476 7        43.900
C11  23466425.953 7 122195837.022 7        43.900    23466438.520 7  94489620.923 7        45.400
C10  36630257.547 7 190743362.023 7        44.100    36630267.238 7 147494909.850 7        46.000
C09  38395844.094 6 199937232.657 6        37.600    38395854.559 6 154604196.283 6        39.900
C08  36483751.023 7 189980465.268 7        44.500    36483755.848 7 146904969.315 7        46.900
C07  36335169.016 7 189206758.184 7        46.300    36335174.816 7 146306695.177 7        46.800
C05  38398908.813 6 199953191.340 6        36.200    38398919.648 6 154616539.688 6        39.800
C04  38987685.906 5 203019107.239 5        35.300    38987697.922 6 156987306.193 6        39.700
C03  36231627.523 7 188667591.568 7        43.900    36231632.602 7 145889772.349 7        46.500
C02  36960591.523 6 192463499.712 6        40.800    36960596.707 7 148825009.192 7        45.200
C01  37504554.602 6 195296056.646 6        39.900    37504564.512 7 151015342.354 7        42.100
S27  38724158.688 6 203496829.622 6        40.200
S37  36742900.750 7 193085252.954 7        42.200
> 2023  2 14 10 23 35.0000000  0 33       0.000000000000
G30  21965486.086 7 115429407.973 7        45.100    21965506.059 7  89945065.513 7        45.800    21965506.418 7  89945019.509 7        46.100    21965509.891 8  86197299.596 8        50.000
G17  21780577.156 7 114457703.998 7        45.400    21780596.734 7  89187902.387 7        47.300    21780596.961 7  89187903.382 7        45.100
G19  22419577.180 7 117815676.695 7        43.100    22419598.813 5  91804514.068 5        33.400
G07  23633352.508 6 124194122.634 6        36.400    23633370.875 5  96774699.418 5        30.900    23633371.055 6  96774697.415 6        36.600
G01  23258401.906 6 122223708.162 6        37.500    23258429.359 3  95239377.111 3        23.900    23258428.512 6  95239294.106 6        40.000    23258433.020 7  91270977.605 7        44.900
G14  20359447.188 7 106989615.932 7        47.500    20359463.789 7  83368602.610 7        43.300    20359463.945 8  83368602.598 8        53.200    20359471.535 9  79894871.993 9        55.600
G03  22440128.789 6 117923668.013 6        41.800    22440152.164 6  91888670.474 6        41.700    22440152.734 7  91888596.466 7        44.300    22440157.922 8  88059894.032 8        48.200
G06  21375006.328 7 112326414.710 7        46.000    21375026.422 8  87527161.628 8        49.800    21375026.816 7  87527163.617 7        47.700    21375031.141 8  83880214.643 8        51.300
R20  22004213.625 6 117666461.971 6        36.300    22004212.105 5 117666405.025 5        35.600    22004234.332 6  91518411.704 6        37.400    22004234.383 6  91518409.701 6        36.900
E33  23647009.602 8 124265873.499 8        48.800    23647028.563 8  92795928.327 8        51.500    23647023.824 8  95216680.523 8        52.400    23647026.262 9  94006413.533 9        58.500
E01  23976039.688 8 125994938.494 8        49.000    23976059.250 8  94087206.551 8        50.900    23976054.516 8  96541636.868 8        51.700    23976056.957 9  95314421.319 9        57.800
E26  26247249.664 6 137930225.011 6        41.400    26247276.242 7 102999929.026 7        42.800    26247270.711 7 105686868.657 7        44.100    26247273.625 8 104343407.955 8        49.800
E31  24487026.031 8 128680192.599 8        49.100    24487048.941 8  96092346.003 8        48.300    24487044.207 8  98599102.769 8        50.400    24487046.684 9  97345746.992 9        55.700
R22  22433023.734 7 119748996.317 7        43.100    22433023.121 7 119748992.322 7        42.500    22433043.633 6  93138118.372 6        41.700    22433043.516 6  93138114.375 6        41.100
R11  20925202.789 8 111817947.443 8        50.200    20925201.957 8 111817933.454 8        48.500    20925220.879 7  86969512.524 7        47.300    20925220.598 7  86969508.521 7        46.300
R21  20547959.133 8 109956276.029 8        52.200    20547957.457 8 109956267.046 8        50.700    20547976.035 7  85521550.401 7        47.800    20547976.578 7  85521547.404 7        47.700
R10  19280066.289 7 102773604.533 7        47.000    19280064.684 7 102773587.546 7        45.500
R09  21615573.859 7 115425936.215 7        46.000    21615572.594 7 115425946.210 7        44.300    21615588.184 7  89775745.383 7        45.300    21615587.902 7  89775739.387 7        43.600
R05  24230321.648 5 129525031.562 5        35.900    24230321.145 5 129524930.530 5        34.500    24230350.090 5 100741725.207 5        34.800    24230349.930 5 100741731.203 5        34.500
C14  25146681.273 6 130945374.080 6        36.100    25146691.691 6 101255307.613 6        40.300
C13  36989988.813 7 192616579.354 7        45.400    36990001.516 7 148943410.006 7        43.900
C11  23466742.305 7 122197483.452 7        43.900    23466754.820 7  94490894.044 7        46.000
C10  36630147.805 7 190742791.710 7        44.100    36630157.621 7 147494468.848 7        46.100
C09  38396153.594 6 199938841.223 6        37.300    38396163.129 6 154605440.132 6        39.400
C08  36483535.406 7 189979343.212 7        44.500    36483540.547 7 146904101.672 7        46.500
C07  36335082.609 7 189206308.960 7        46.200    36335088.422 7 146306347.814 7        46.800
C05  38398904.414 6 199953166.558 6        36.300    38398915.398 6 154616520.526 6        39.800
C04  38987682.945 5 203019090.814 5        35.500    38987694.660 6 156987293.491 6        39.600
C03  36231620.781 7 188667557.352 7        43.900    36231626.195 7 145889745.892 7        46.400
C02  36960588.867 6 192463484.596 6        40.600    36960593.840 7 148824997.507 7        44.900
C01  37504548.875 6 195296025.636 6        39.800    37504558.520 7 151015318.376 7        42.100
S27  38724161.219 6 203496839.883 6        40.400
S37  36742906.828 7 193085257.757 7        42.000
> 2023  2 14 10 23 36.0000000  0 33       0.000000000000
G30  21965960.906 7 115431901.125 7        44.900    21965980.449 7  89947008.228 7        45.700    21965980.602 7  89946962.224 7        46.300    21965984.227 8  86199161.362 8        50.300
G17  21780591.883 7 114457782.363 7        45.500    21780611.469 7  89187963.455 7        47.200    21780611.430 7  89187964.452 7        45.100
G19  22419368.773 7 117814582.700 7        43.000    22419390.410 5  91803661.609 5        32.700
G07  23634010.125 6 124197581.410 6        36.200    23634029.023 5  96777394.566 5        31.800    23634028.844 5  96777392.562 5        35.900
G01  23259067.883 6 122227205.800 6        37.400    23259094.910 3  95242102.530 3        22.600    23259094.137 6  95242019.539 6        39.900    23259098.805 7  91273589.475 7        45.000
G14  20359318.281 7 106988937.836 7        47.800    20359334.871 7  83368074.221 7        43.400    20359334.855 8  83368074.217 8        53.500    20359342.500 9  79894365.622 9        55.800
G03  22440125.086 7 117923652.248 7        42.100    22440149.590 6  91888658.187 6        41.400    22440150.078 7  91888584.184 7        44.100    22440155.406 8  88059882.261 8        48.200
G06  21374638.828 7 112324483.768 7        46.000    21374659.250 8  87525656.998 8        49.700    21374659.684 7  87525658.993 7        47.600    21374664.090 8  83878772.710 8        51.400
R20  22004768.367 6 117669428.017 6        36.700    22004766.848 5 117669370.984 5        35.100    22004788.688 6  91520718.623 6        37.800    22004788.992 6  91520716.628 6        37.600
E33  23647191.508 8 124266829.280 8        48.500    23647210.559 8  92796642.060 8        51.200    23647205.918 8  95217412.874 8        52.300    23647208.254 9  94007136.579 9        58.500
E01  23976171.156 8 125995629.184 8        49.000    23976190.391 8  94087722.329 8        51.000    23976185.750 8  96542166.097 8        51.900    23976188.137 9  95314943.826 9        57.800
E26  26247719.719 6 137932695.000 6        41.300    26247746.066 7 103001773.499 7        43.000    26247740.676 7 105688761.245 7        44.000    26247743.543 8 104345276.477 8        49.600
E31  24486683.266 8 128678391.626 8        48.900    24486706.180 8  96091001.126 8        48.500    24486701.488 8  98597722.810 8        50.400    24486703.941 9  97344384.576 9        55.800
R22  22432665.117 7 119747081.578 7        43.100    22432664.270 7 119747077.599 7        42.600    22432684.164 6  93136629.135 6        41.400    22432684.969 6  93136625.144 6        41.300
R11  20924611.844 8 111814789.859 8        50.300    20924611.246 8 111814775.870 8        48.500    20924629.641 7  86967056.636 7        47.300    20924629.684 7  86967052.633 7        46.400
R21  20548024.594 8 109956626.958 8        52.000    20548023.270 8 109956617.958 8        50.900    20548041.871 8  85521823.342 8        48.000    20548042.719 7  85521820.344 7        47.700
R10  19280231.453 7 102774483.426 7        47.100    19280229.848 7 102774466.421 7        45.800
R09  21616275.734 7 115429685.417 7        46.200    21616275.055 7 115429695.443 7        44.100    21616290.645 7  89778661.432 7        45.100    21616290.492 7  89778655.435 7        43.400
R05  24230015.242 5 129523396.015 5        35.800    24230015.441 5 129523295.003 5        34.000    24230044.746 5 100740453.102 5        34.600    24230043.688 5 100740459.102 5        34.600
C14  25146282.414 6 130943296.638 6        36.300    25146292.695 6 101253701.203 6        40.100
C13  36989772.695 7 192615455.153 7        45.100    36989785.305 7 148942540.712 7        43.900
C11  23467058.352 7 122199129.880 7        44.100    23467070.758 7  94492167.164 7        45.800
C10  36630038.016 7 190742221.393 7        44.200    36630048.059 7 147494027.850 7        46.300
C09  38396462.398 6 199940449.765 6        37.300    38396472.047 6 154606683.960 6        39.600
C08  36483320.305 7 189978221.389 7        44.600    36483325.043 7 146903234.210 7        46.600
C07  36334996.758 7 189205859.773 7        46.100    36335002.313 7 146306000.473 7        47.100
C05  38398899.430 6 199953141.872 6        36.000    38398910.426 6 154616501.436 6        40.100
C04  38987679.766 5 203019074.369 5        35.500    38987691.484 6 156987280.784 6        39.500
C03  36231614.070 7 188667523.181 7        43.900    36231619.637 7 145889719.469 7        46.300
C02  36960586.016 6 192463469.484 6        40.700    36960590.863 7 148824985.822 7        45.300
C01  37504543.281 6 195295994.652 6        39.900    37504552.629 7 151015294.417 7        42.100
S27  38724162.469 6 203496850.200 6        39.900
S37  36742906.469 7 193085262.610 7        42.000
> 2023  2 14 10 23 37.0000000  0 33       0.000000000000
G30  21966435.305 7 115434394.573 7        44.700    21966454.438 7  89948951.176 7        45.800    21966454.719 7  89948905.167 7        46.300    21966458.391 8  86201023.357 8        49.900
G17  21780606.688 7 114457860.691 7        45.300    21780626.922 7  89188024.492 7        47.300    21780626.813 7  89188025.488 7        45.200
G19  22419160.391 7 117813488.708 7        42.800    22419182.176 5  91802809.150 5        33.400
G07  23634667.594 6 124201040.035 6        36.600    23634687.145 5  96780089.594 5        30.900    23634686.941 6  96780087.590 6        36.300
G01  23259732.461 6 122230703.519 6        37.900    23259760.473 3  95244828.028 3        22.500    23259759.762 6  95244745.038 6        39.900    23259764.309 7  91276201.407 7        44.900
G14  20359188.859 7 106988260.167 7        47.700    20359205.539 7  83367546.168 7        43.600    20359205.770 8  83367546.164 8        53.500    20359213.285 9  79893859.575 9        55.600
G03  22440122.383 7 117923637.026 7        42.200    22440146.805 6  91888646.327 6        41.400    22440147.066 7  91888572.316 7        44.200    22440152.387 8  88059870.891 8        48.200
G06  21374270.938 7 112322553.320 7        46.100    21374291.762 8  87524152.755 8        49.600    21374292.148 7  87524154.750 7        47.500    21374296.309 8  83877331.143 8        51.300
R20  22005322.563 6 117672393.985 6        36.000    22005321.629 5 117672336.993 5        34.700    22005343.980 6  91523025.485 6        37.500    22005343.816 6  91523023.489 6        37.600
E33  23647373.398 8 124267785.328 8        48.800    23647392.516 8  92797355.991 8        51.600    23647387.777 8  95218145.429 8        52.100    23647390.156 9  94007859.821 9        58.500
E01  23976302.641 8 125996320.219 8        49.300    23976322.086 8  94088238.362 8        51.000    23976317.398 8  96542695.599 8        51.800    23976319.852 9  95315466.589 9        57.800
E26  26248189.938 6 137935165.053 6        41.200    26248216.094 7 103003618.016 7        43.400    26248210.656 7 105690653.881 7        44.400    26248213.566 8 104347145.057 8        49.600
E31  24486340.516 8 128676590.820 8        49.200    24486363.500 8  96089656.377 8        48.300    24486358.719 8  98596342.979 8        50.500    24486361.188 9  97343022.284 9        55.800
R22  22432306.859 7 119745167.311 7        43.300    22432306.129 7 119745163.316 7        42.700    22432326.184 6  93135140.270 6        41.700    22432326.645 6  93135136.268 6        41.600
R11  20924021.266 8 111811632.761 8        49.800    20924020.082 8 111811618.765 8        48.800    20924038.758 7  86964601.141 7        47.300    20924038.668 7  86964597.138 7        46.600
R21  20548090.047 8 109956978.267 8        51.900    20548088.840 8 109956969.276 8        50.900    20548107.516 7  85522096.580 7        47.900    20548107.938 7  85522093.590 7        47.900
R10  19280396.211 7 102775363.140 7        47.000    19280395.074 7 102775346.128 7        45.100
R09  21616977.695 7 115433435.053 7        46.300    21616976.781 7 115433445.072 7        44.200    21616992.809 7  89781577.820 7        45.100    21616992.414 7  89781571.817 7        43.600
R05  24229708.680 5 129521760.710 5        35.700    24229709.934 5 129521659.738 5        34.300    24229739.551 5 100739181.182 5        34.400    24229738.109 5 100739187.185 5        34.100
C14  25145884.063 6 130941219.126 6        36.300    25145893.988 6 101252094.743 6        40.400
C13  36989557.094 7 192614331.068 7        45.300    36989569.598 7 148941671.498 7        44.000
C11  23467374.633 7 122200776.281 7        44.100    23467386.828 7  94493440.267 7        45.500
C10  36629928.844 7 190741651.020 7        44.000    36629938.613 7 147493586.806 7        45.900
C09  38396771.453 6 199942058.332 6        37.300    38396781.270 6 154607927.811 6        39.700
C08  36483104.797 7 189977099.701 7        44.300    36483109.719 7 146902366.852 7        45.900
C07  36334909.961 7 189205410.558 7        46.200    36334916.320 7 146305653.112 7        47.000
C05  38398894.766 5 199953117.153 5        35.800    38398905.359 6 154616482.324 6        40.200
C04  38987676.594 5 203019057.980 5        35.200    38987688.277 6 156987268.117 6        39.400
C03  36231607.922 7 188667488.978 7        43.900    36231613.180 7 145889693.023 7        46.500
C02  36960582.898 6 192463454.363 6        40.600    36960588.250 7 148824974.126 7        45.300
C01  37504536.680 6 195295963.670 6        39.700    37504546.645 7 151015270.463 7        42.000
S27  38724165.609 6 203496860.562 6        40.200
S37  36742903.047 7 193085267.433 7        42.000
> 2023  2 14 10 23 38.0000000  0 33       0.000000000000
G30  21966909.766 7 115436888.263 7        45.200    21966929.074 7  89950894.312 7        45.800    21966929.383 7  89950848.301 7        45.900    21966932.910 8  86202885.524 8        49.900
G17  21780621.883 7 114457938.946 7        45.300    21780641.758 7  89188085.475 7        47.300    21780641.598 7  89188086.471 7        45.300
G19  22418952.289 7 117812394.734 7        42.600    22418973.816 5  91801956.716 5        33.600
G07  23635326.516 6 124204498.637 6        36.600    23635345.328 5  96782784.604 5        31.200    23635344.961 5  96782782.604 5        35.800
G01  23260398.664 6 122234201.301 6        38.300    23260426.336 3  95247553.563 3        22.500    23260425.762 6  95247470.577 6        39.700    23260430.113 7  91278813.386 7        44.900
G14  20359060.047 7 106987582.907 7        47.400    20359077.055 7  83367018.440 7        43.500    20359077.152 8  83367018.436 8        52.800    20359084.508 9  79893353.830 9        55.600
G03  22440119.883 7 117923622.366 7        42.000    22440143.961 6  91888634.902 6        41.700    22440144.301 7  91888560.896 7        44.400    22440149.656 8  88059859.942 8        48.100
G06  21373904.086 7 112320623.297 7        46.000    21373924.523 8  87522648.844 8        49.800    21373925.238 7  87522650.840 7        47.100    21373929.188 8  83875889.890 8        51.300
R20  22005876.836 6 117675359.870 6        36.200    22005876.488 5 117675302.866 5        35.400    22005899.152 6  91525332.283 6        38.400    22005898.660 6  91525330.287 6        37.500
E33  23647555.430 8 124268741.618 8        49.000    23647574.426 8  92798070.103 8        51.700    23647569.738 8  95218878.173 8        52.100    23647572.125 9  94008583.249 9        58.500
E01  23976434.250 8 125997011.558 8        49.600    23976453.410 8  94088754.624 8        51.000    23976448.816 8  96543225.325 8        51.800    23976451.262 9  95315989.584 9        57.800
E26  26248659.547 6 137937635.037 6        41.000    26248685.988 7 103005462.481 7        43.200    26248680.738 7 105692546.461 7        44.200    26248683.508 8 104349013.580 8        49.700
E31  24485997.883 8 128674790.173 8        49.100    24486020.875 8  96088311.742 8        48.200    24486016.375 8  98594963.267 8        50.600    24486018.707 9  97341660.116 9        55.800
R22  22431948.469 7 119743253.408 7        43.700    22431947.270 7 119743249.430 7        43.100    22431967.367 6  93133651.672 6        41.700    22431967.844 6  93133647.670 6        41.400
R11  20923430.188 8 111808476.159 8        50.000    20923430.414 8 111808462.156 8        48.600    20923448.965 7  86962146.030 7        47.000    20923448.816 7  86962142.019 7        46.600
R21  20548156.117 8 109957329.918 8        52.200    20548154.793 8 109957320.933 8        50.900    20548173.551 7  85522370.089 7        47.900    20548173.809 8  85522367.093 8        48.000
R10  19280560.711 7 102776243.632 7        46.800    19280560.398 7 102776226.631 7        45.200
R09  21617680.383 7 115437185.059 7        46.400    21617678.531 7 115437195.064 7        44.200    21617693.965 7  89784494.489 7        44.900    21617693.961 7  89784488.485 7        43.600
R05  24229404.195 6 129520125.800 6        36.100    24229403.926 5 129520024.795 5        34.800    24229433.824 5 100737909.572 5        34.700    24229432.551 5 100737915.575 5        34.200
C14  25145484.664 5 130939141.507 5        35.900    25145494.961 6 101250488.197 6        40.400
C13  36989341.273 7 192613207.067 7        45.600    36989353.449 7 148940802.349 7        44.200
C11  23467690.758 7 122202422.589 7        44.200    23467703.070 7  94494713.291 7        46.100
C10  36629819.133 7 190741080.544 7        43.700    36629829.191 7 147493145.682 7        45.800
C09  38397080.070 6 199943666.809 6        37.000    38397090.363 6 154609171.578 6        39.900
C08  36482889.391 7 189975978.141 7        44.300    36482894.234 7 146901499.597 7        45.800
C07  36334823.930 7 189204961.283 7        46.400    36334829.926 7 146305305.706 7        47.000
C05  38398889.727 6 199953092.398 6        36.100    38398901.008 6 154616463.182 6        40.100
C04  38987673.242 5 203019041.486 5        35.000    38987685.344 6 156987255.360 6        39.300
C03  36231601.508 7 188667454.748 7        43.900    36231606.488 7 145889666.555 7        46.800
C02  36960580.438 6 192463439.195 6        40.700    36960585.258 7 148824962.396 7        45.300
C01  37504530.930 6 195295932.594 6        39.800    37504540.973 7 151015246.436 7        42.100
S27  38724166.406 6 203496870.943 6        40.200
S37  36742901.563 7 193085272.236 7        42.000
> 2023  2 14 10 23 39.0000000  0 33       0.000000000000
G30  21967384.180 7 115439382.287 7        45.500    21967404.012 7  89952837.707 7        45.700    21967404.000 7  89952791.698 7        45.500    21967407.613 8  86204747.945 8        49.900
G17  21780636.172 7 114458017.199 7        45.500    21780655.934 7  89188146.449 7        47.200    21780656.063 7  89188147.451 7        45.100
G19  22418743.516 7 117811300.841 7        42.500    22418766.012 5  91801104.339 5        33.400
G07  23635985.313 6 124207957.289 6        36.600    23636003.832 5  96785479.660 5        30.900    23636003.410 5  96785477.656 5        35.700
G01  23261064.211 6 122237699.188 6        38.400    23261092.090 3  95250279.178 3        22.900    23261091.371 6  95250196.199 6        40.200    23261095.930 7  91281425.440 7        44.800
G14  20358931.352 7 106986906.109 7        47.700    20358948.051 7  83366491.070 7        43.400    20358947.988 8  83366491.058 8        53.100    20358955.680 9  79892848.437 9        55.700
G03  22440117.133 6 117923608.323 6        41.700    22440141.379 6  91888623.957 6        41.400    22440141.785 7  91888549.953 7        44.200    22440147.078 8  88059849.457 8        48.100
G06  21373537.000 7 112318693.796 7        46.000    21373557.523 8  87521145.335 8        49.700    21373557.863 7  87521147.338 7        47.600    21373562.188 8  83874449.039 8        51.200
R20  22006431.922 6 117678325.703 6        36.800    22006430.520 5 117678268.705 5        35.900    22006453.961 6  91527639.034 6        38.200    22006452.969 6  91527637.032 6        36.900
E33  23647737.617 8 124269698.234 8        48.800    23647756.332 8  92798784.460 8        51.800    23647751.781 8  95219611.161 8        52.300    23647754.066 9  94009306.918 9        58.600
E01  23976565.883 8 125997703.275 8        50.000    23976585.129 8  94089271.171 8        51.200    23976580.629 8  96543755.343 8        52.000    23976582.957 9  95316512.866 9        57.800
E26  26249129.625 6 137940105.074 6        41.000    26249156.168 7 103007306.987 7        43.200    26249151.008 7 105694439.080 7        44.300    26249153.680 8 104350882.142 8        49.700
E31  24485655.242 8 128672989.735 8        48.900    24485678.270 8  96086967.270 8        48.400    24485673.625 8  98593583.718 8        50.800    24485675.961 9  97340298.099 9        55.800
R22  22431589.977 7 119741339.969 7        43.200    22431589.363 7 119741335.983 7        43.000    22431609.469 6  93132163.435 6        41.800    22431610.133 6  93132159.436 6        41.000
R11  20922839.797 8 111805320.117 8        49.900    20922838.613 8 111805306.113 8        48.700    20922857.438 7  86959691.337 7        47.100    20922856.770 7  86959687.334 7        46.700
R21  20548221.516 8 109957682.008 8        52.300    20548220.426 8 109957673.016 8        51.000    20548238.770 7  85522643.936 7        47.500    20548239.625 7  85522640.946 7        47.700
R10  19280727.180 7 102777125.001 7        46.800    19280726.160 7 102777108.005 7        45.500
R09  21618382.547 7 115440935.464 7        46.000    21618381.984 7 115440945.474 7        43.900    21618397.141 7  89787411.465 7        45.000    21618397.441 7  89787405.461 7        43.700
R05  24229098.117 6 129518491.149 6        37.100    24229097.145 5 129518390.143 5        34.000    24229127.352 5 100736638.174 5        34.800    24229126.660 5 100736644.169 5        34.000
C14  25145085.672 6 130937063.859 6        36.600    25145096.043 6 101248881.636 6        40.700
C13  36989125.367 7 192612083.238 7        45.300    36989137.625 7 148939933.337 7        44.100
C11  23468007.313 7 122204068.917 7        44.300    23468019.316 7  94495986.340 7        45.800
C10  36629709.742 7 190740510.089 7        43.800    36629719.563 7 147492704.572 7        45.800
C09  38397388.961 6 199945275.229 6        37.300    38397399.098 6 154610415.309 6        40.000
C08  36482673.906 7 189974856.757 7        44.400    36482678.824 7 146900632.471 7        45.800
C07  36334737.523 7 189204511.995 7        46.100    36334743.578 7 146304958.292 7        47.100
C05  38398885.070 6 199953067.586 6        36.200    38398896.254 6 154616443.997 6        40.400
C04  38987670.430 5 203019026.04115        35.000    38987681.684 6 156987243.56616        38.400
C03  36231594.477 7 188667420.528 7        44.000    36231599.969 7 145889640.097 7        46.300
C02  36960577.164 6 192463424.016 6        40.800    36960582.402 7 148824950.661 7        45.100
C01  37504524.828 6 195295901.531 6        39.800    37504534.824 6 151015222.418 6        41.800
S27  38724168.141 6 203496881.349 6        40.200
S37  36742915.953 7 193085277.020 7        42.000
> 2023  2 14 10 23 40.0000000  0 33       0.000000000000
G30  21967858.961 7 115441876.663 7        45.500    21967878.457 7  89954781.378 7        45.600    21967878.551 7  89954735.369 7        45.500    21967882.352 8  86206610.631 8        50.000
G17  21780651.734 7 114458095.454 7        45.200    21780671.426 7  89188207.430 7        47.200    21780671.656 7  89188208.433 7        44.800
G19  22418535.664 7 117810207.043 7        42.400    22418557.535 5  91800252.040 5        33.400
G07  23636643.156 6 124211415.966 6        36.300    23636661.715 5  96788174.738 5        30.600    23636661.156 5  96788172.727 5        35.300
G01  23261730.250 6 122241197.211 6        38.400    23261757.281 3  95253004.919 3        22.300    23261757.012 6  95252921.925 6        40.200    23261761.117 7  91284037.602 7        45.100
G14  20358802.523 8 106986229.830 8        48.200    20358819.336 7  83365964.103 7        43.400    20358819.359 8  83365964.092 8        53.200    20358826.902 9  79892343.429 9        55.700
G03  22440114.383 7 117923594.925 7        42.000    22440138.789 6  91888613.515 6        41.400    22440139.309 7  91888539.512 7        44.100    22440144.430 8  88059839.449 8        48.000
G06  21373169.867 7 112316764.811 7        45.900    21373189.898 8  87519642.237 8        49.800    21373190.168 7  87519644.232 7        47.400    21373194.504 8  83873008.565 8        51.300
R20  22006986.406 6 117681291.594 6        36.600    22006984.887 5 117681234.618 5        35.400    22007008.449 6  91529945.831 6        38.300    22007007.656 6  91529943.835 6        37.700
E33  23647919.586 8 124270655.164 8        48.700    23647938.613 8  92799499.050 8        51.900    23647934.066 8  95220344.394 8        52.700    23647936.348 9  94010030.833 9        58.600
E01  23976697.523 8 125998395.368 8        49.600    23976716.730 8  94089787.994 8        51.200    23976712.180 8  96544285.646 8        52.000    23976714.570 9  95317036.432 9        57.800
E26  26249599.781 6 137942575.154 6        41.300    26249626.277 7 103009151.522 7        43.000    26249620.648 7 105696331.740 7        44.400    26249623.586 8 104352750.739 8        49.700
E31  24485312.641 8 128671189.508 8        48.900    24485335.859 8  96085622.948 8        48.600    24485331.121 8  98592204.329 8        50.600    24485333.531 9  97338936.252 9        55.800
R22  22431231.164 7 119739426.998 7        43.000    22431230.902 7 119739423.011 7        42.500    22431251.156 6  93130675.558 6        41.800    22431251.516 6  93130671.567 6        41.200
R11  20922248.625 8 111802164.591 8        49.900    20922248.383 8 111802150.595 8        48.800    20922266.816 7  86957237.038 7        47.100    20922266.613 7  86957233.035 7        46.800
R21  20548287.250 8 109958034.532 8        52.300    20548286.395 8 109958025.541 8        51.000    20548305.109 7  85522918.123 7        47.400    20548305.566 7  85522915.126 7        47.400
R10  19280892.461 7 102778007.246 7        46.800    19280890.855 7 102777990.259 7        45.600
R09  21619085.055 7 115444686.300 7        45.900    21619084.023 7 115444696.324 7        43.700    21619099.426 7  89790328.775 7        45.100    21619099.691 7  89790322.779 7        43.800
R05  24228792.703 6 129516856.891 6        36.500    24228791.613 5 129516755.902 5        34.800    24228821.738 5 100735367.083 5        34.300    24228820.930 5 100735373.074 5        34.200
C14  25144686.820 6 130934986.196 6        36.500    25144696.992 6 101247275.058 6        40.800
C13  36988909.750 7 192610959.585 7        45.500    36988922.230 7 148939064.456 7        44.300
C11  23468323.148 7 122205715.281 7        44.500    23468335.223 7  94497259.412 7        45.800
C10  36629600.258 7 190739939.569 7        44.100    36629609.840 7 147492263.410 7        46.000
C09  38397697.594 6 199946883.666 6        37.600    38397707.871 6 154611659.056 6        40.400
C08  36482458.680 7 189973735.569 7        44.600    36482463.430 7 146899765.500 7        46.000
C07  36334651.313 7 189204062.721 7        45.900    36334657.488 7 146304610.887 7        47.000
C05  38398879.938 5 199953042.880 5        35.900    38398891.563 6 154616424.894 6        40.500
C04  38987667.344 5 203019009.600 5        35.300    38987678.434 6 156987230.932 6        38.600
C03  36231588.117 7 188667386.316 7        43.800    36231593.461 7 145889613.641 7        45.800
C02  36960574.313 6 192463408.914 6        40.700    36960579.438 7 148824938.985 7        45.300
C01  37504519.305 6 195295870.549 6        39.600    37504528.852 7 151015198.465 7        42.000
S27  38724169.953 6 203496891.732 6        40.200
S37  36742910.875 7 193085281.862 7        42.000
> 2023  2 14 10 23 41.0000000  0 33       0.000000000000
G30  21968333.883 7 115444371.348 7        45.400    21968353.621 7  89956725.286 7        45.600    21968353.844 7  89956679.282 7        45.600    21968357.457 8  86208473.548 8        49.800
G17  21780666.180 7 114458173.702 7        45.400    21780686.074 7  89188268.406 7        47.200    21780686.051 7  89188269.408 7        44.800
G19  22418327.875 7 117809113.286 7        42.500    22418349.793 5  91799399.769 5        33.200
G07  23637301.219 6 124214874.524 6        36.000    23637319.953 5  96790869.712 5        31.300    23637319.242 5  96790867.713 5        35.900
G01  23262396.203 6 122244695.279 6        38.400    23262422.926 3  95255730.689 3        23.300    23262422.582 6  95255647.691 6        40.000    23262426.762 7  91286649.792 7        44.900
G14  20358673.641 7 106985553.976 7        47.900    20358690.680 7  83365437.460 7        43.100    20358690.750 8  83365437.456 8        53.200    20358698.367 9  79891838.734 9        55.700
G03  22440111.984 7 117923582.110 7        42.000    22440136.086 6  91888603.530 6        41.300    22440136.254 7  91888529.529 7        44.600    22440141.785 8  88059829.881 8        48.000
G06  21372802.656 7 112314836.275 7        46.000    21372823.148 8  87518139.486 8        49.800    21372823.320 7  87518141.481 7        47.500    21372827.695 8  83871568.427 8        51.200
R20  22007540.313 6 117684257.375 6        36.600    22007539.848 5 117684200.358 5        35.000    22007563.438 6  91532252.554 6        37.700    22007562.809 6  91532250.559 6        37.000
E33  23648101.578 8 124271612.368 8        48.500    23648120.691 8  92800213.845 8        51.800    23648116.191 8  95221077.837 8        52.700    23648118.430 9  94010754.950 9        58.500
E01  23976829.273 8 125999087.807 8        50.000    23976848.469 8  94090305.075 8        51.000    23976843.828 8  96544816.224 8        52.300    23976846.297 9  95317560.261 9        57.800
E26  26250069.852 6 137945045.282 6        41.100    26250096.129 7 103010996.091 7        42.700    26250090.781 7 105698224.428 7        44.600    26250093.676 8 104354619.372 8        49.600
E31  24484970.164 8 128669389.470 8        49.000    24484993.125 8  96084278.772 8        48.900    24484988.438 8  98590825.086 8        50.600    24484990.797 9  97337574.542 9        55.800
R22  22430873.094 7 119737514.457 7        43.200    22430872.012 7 119737510.465 7        42.500    22430892.957 6  93129188.031 6        41.700    22430892.852 6  93129184.039 6        41.400
R11  20921658.688 8 111799009.575 8        49.800    20921658.680 8 111798995.577 8        48.700    20921677.105 7  86954783.138 7        47.000    20921676.746 7  86954779.135 7        46.400
R21  20548353.008 8 109958387.454 8        52.000    20548352.035 8 109958378.469 8        51.100    20548370.613 7  85523192.620 7        47.400    20548371.102 7  85523189.624 7        47.400
R10  19281058.047 7 102778890.337 7        47.000    19281056.676 7 102778873.337 7        45.800
R09  21619786.914 7 115448437.580 7        46.100    21619785.648 7 115448447.568 7        43.900    21619801.387 7  89793246.440 7        45.100    21619801.160 7  89793240.443 7        43.700
R05  24228486.320 5 129515222.980 5        35.400    24228486.168 5 129515122.023 5        34.300    24228516.156 5 100734096.257 5        34.400    24228515.547 5 100734102.250 5        33.800
C14  25144287.641 6 130932908.415 6        36.600    25144297.695 6 101245668.387 6        40.800
C13  36988693.594 7 192609836.064 7        45.300    36988706.336 7 148938195.680 7        43.800
C11  23468639.406 7 122207361.591 7        44.400    23468651.824 7  94498532.440 7        45.800
C10  36629490.648 7 190739369.025 7        44.000    36629500.406 7 147491822.233 7        45.700
C09  38398006.773 6 199948492.038 6        37.400    38398017.086 6 154612902.746 6        40.000
C08  36482243.703 7 189972614.542 7        44.600    36482248.336 7 146898898.651 7        45.900
C07  36334565.125 7 189203613.434 7        45.700    36334571.258 7 146304263.470 7        47.000
C05  38398875.492 6 199953018.158 6        36.100    38398886.613 6 154616405.785 6        40.900
C04  38987664.156 5 203018993.180 5        35.400    38987675.340 6 156987218.277 6        38.800
C03  36231581.633 7 188667352.116 7        43.900    36231586.781 7 145889587.194 7        45.600
C02  36960571.555 6 192463393.766 6        40.800    36960576.195 7 148824927.276 7        45.600
C01  37504512.789 6 195295839.536 6        39.700    37504522.883 7 151015174.487 7        42.200
S27  38724172.703 6 203496902.076 6        40.300
S37  36742904.328 6 193085286.681 6        41.700
> 2023  2 14 10 23 42.0000000  0 33       0.000000000000
G30  21968808.391 7 115446866.351 7        45.300    21968827.590 7  89958669.449 7        45.800    21968827.922 7  89958623.438 7        45.500    21968831.543 8  86210336.694 8        49.800
G17  21780681.148 7 114458251.925 7        45.500    21780700.766 7  89188329.363 7        47.300    21780700.938 7  89188330.360 7        45.000
G19  22418119.906 7 117808019.620 7        42.700    22418141.422 5  91798547.566 5        32.500
G07  23637958.805 6 124218333.149 6        36.200    23637977.855 5  96793564.739 5        31.000    23637977.520 6  96793562.747 6        36.100
G01  23263061.203 6 122248193.494 6        38.100    23263088.605 3  95258456.574 3        23.200    23263088.496 6  95258373.573 6        40.400    23263092.383 7  91289262.095 7        44.600
G14  20358545.484 8 106984878.609 8        48.100    20358562.203 7  83364911.206 7        43.500    20358562.238 8  83364911.201 8        53.600    20358569.891 9  79891334.406 9        55.600
G03  22440109.977 6 117923569.888 6        41.900    22440134.063 6  91888594.010 6        41.400    22440134.492 7  91888520.006 7        44.300    22440139.820 8  88059820.754 8        48.100
G06  21372435.766 7 112312908.265 7        46.000    21372456.086 8  87516637.145 8        49.800    21372456.555 7  87516639.140 7        47.500    21372460.691 8  83870128.685 8        51.400
R20  22008095.586 6 117687223.141 6        36.400    22008093.949 5 117687166.156 5        35.800    22008116.605 6  91534559.255 6        37.700    22008116.719 6  91534557.267 6        36.700
E33  23648283.883 8 124272569.891 8        48.500    23648302.973 8  92800928.877 8        51.800    23648298.281 8  95221811.522 8        52.600    23648300.539 9  94011479.308 9        58.500
E01  23976961.203 8 125999780.623 8        49.900    23976980.582 8  94090822.440 8        51.000    23976975.848 8  96545347.081 8        51.800    23976978.270 9  95318084.371 9        57.900
E26  26250540.000 6 137947515.406 6        40.900    26250566.238 7 103012840.661 7        42.800    26250560.801 7 105700117.118 7        44.600    26250563.770 8 104356488.005 8        49.600
E31  24484627.609 8 128667589.628 8        48.700    24484650.727 8  96082934.744 8        48.900    24484646.086 8  98589445.992 8        50.600    24484648.465 9  97336212.974 9        55.800
R22  22430514.367 7 119735602.382 7        43.000    22430514.105 7 119735598.369 7        42.400    22430534.977 6  93127700.865 6        41.600    22430534.621 6  93127696.868 6        41.200
R11  20921068.297 8 111795855.082 8        50.000    20921068.055 8 111795841.086 8        48.300    20921086.656 7  86952329.657 7        46.700    20921086.387 7  86952325.647 7        46.300
R21  20548419.766 8 109958740.787 8        51.800    20548418.207 8 109958731.803 8        50.700    20548436.262 7  85523467.447 7        47.400    20548437.063 7  85523464.443 7        47.000
R10  19281224.227 7 102779774.290 7        47.000    19281222.738 7 102779757.283 7        45.300
R09  21620489.813 7 115452189.277 7        46.100    21620488.664 7 115452199.295 7        43.600    21620504.441 7  89796164.432 7        45.200    21620504.254 7  89796158.429 7        43.800
R05  24228181.273 5 129513589.486 5        35.700    24228181.121 5 129513488.467 5        34.200    24228210.523 5 100732825.751 5        33.800    24228210.047 5 100732831.739 5        33.900
C14  25143889.133 6 130930830.724 6        36.100    25143898.910 6 101244061.782 6        40.600
C13  36988478.023 7 192608712.699 7        45.200    36988490.590 7 148937327.024 7        43.900
C11  23468955.656 7 122209007.918 7        44.000    23468967.582 7  94499805.483 7        46.000
C10  36629381.219 7 190738798.454 7        43.700    36629390.637 7 147491381.035 7        45.900
C09  38398315.680 6 199950100.412 6        37.000    38398325.723 6 154614146.445 6        40.100
C08  36482028.172 7 189971493.699 7        44.500    36482033.242 7 146898031.947 7        46.200
C07  36334478.859 7 189203164.111 7        46.000    36334484.898 7 146303916.034 7        47.000
C05  38398870.609 5 199952993.435 5        35.800    38398881.836 6 154616386.665 6        40.700
C04  38987661.188 5 203018976.752 5        35.700    38987672.387 6 156987205.579 6        38.700
C03  36231575.008 7 188667317.939 7        43.900    36231579.887 7 145889560.771 7        45.800
C02  36960568.461 6 192463378.662 6        40.700    36960573.426 7 148824915.597 7        45.300
C01  37504507.031 6 195295808.547 6        39.900    37504516.934 6 151015150.525 6        41.900
S27  38724174.156 6 203496912.388 6        40.000
S37  36742910.266 6 193085291.516 6        41.700
> 2023  2 14 10 23 43.0000000  0 33       0.000000000000
G30  21969283.117 7 115449361.697 7        45.000    21969302.953 7  89960613.873 7        45.800    21969303.109 7  89960567.868 7        45.400    21969306.785 8  86212200.103 8        50.000
G17  21780696.156 7 114458330.120 7        45.200    21780715.809 7  89188390.296 7        47.300    21780715.750 7  89188391.299 7        44.700
G19  22417911.875 7 117806925.969 7        42.800    22417933.305 5  91797695.382 5        32.500
G07  23638616.867 6 124221791.751 6        36.200    23638635.996 5  96796259.750 5        30.400    23638635.543 6  96796257.754 6        36.100
G01  23263726.852 6 122251691.787 6        37.900    23263754.395 3  95261182.512 3        22.300    23263754.023 6  95261099.514 6        40.500    23263758.113 7  91291874.451 7        44.500
G14  20358417.070 7 106984203.706 7        47.800    20358434.086 7  83364385.307 7        43.200    20358433.926 8  83364385.303 8        53.200    20358441.539 9  79890830.422 9        55.700
G03  22440107.414 7 117923558.303 7        42.100    22440131.805 6  91888584.983 6        41.600    22440132.281 7  91888510.979 7        44.500    22440137.563 8  88059812.102 8        48.100
G06  21372069.086 7 112310980.747 7        46.000    21372089.496 8  87515135.183 8        49.800    21372089.832 7  87515137.178 7        47.300    21372094.219 8  83868689.303 8        51.400
R20  22008650.508 6 117690188.862 6        36.800    22008649.223 5 117690131.856 5        35.700    22008672.156 6  91536865.929 6        38.100    22008671.996 6  91536863.933 6        37.100
E33  23648466.195 8 124273527.735 8        48.400    23648485.340 8  92801644.151 8        51.700    23648480.605 8  95222545.457 8        52.400    23648482.922 9  94012203.915 9        58.500
E01  23977093.016 8 126000473.810 8        50.100    23977112.355 8  94091340.079 8        51.200    23977107.715 8  96545878.223 8        51.800    23977110.141 9  95318608.765 9        57.800
E26  26251010.055 6 137949985.587 6        40.800    26251036.336 7 103014685.277 7        42.800    26251030.852 7 105702009.852 7        44.400    26251033.801 8 104358356.676 8        49.600
E31  24484285.234 8 128665790.007 8        48.900    24484308.238 8  96081590.879 8        48.900    24484303.547 8  98588067.070 8        50.300    24484305.930 9  97334851.586 9        55.800
R22  22430156.750 7 119733690.744 7        43.000    22430155.785 7 119733686.740 7        42.500    22430176.500 6  93126214.041 6        41.500    22430176.441 6  93126210.044 6        41.500
R11  20920477.891 8 111792701.141 8        50.000    20920477.293 7 111792687.159 7        47.800    20920496.027 7  86949876.590 7        46.700    20920495.598 7  86949872.587 7        46.800
R21  20548485.055 8 109959094.561 8        51.800    20548484.434 8 109959085.576 8        50.500    20548502.664 7  85523742.599 7        47.400    20548503.723 7  85523739.602 7        47.400
R10  19281389.852 7 102780659.080 7        47.000    19281388.012 7 102780642.073 7        45.100
R09  21621192.578 7 115455941.438 7        46.000    21621191.430 7 115455951.449 7        44.100    21621206.918 7  89799082.780 7        45.400    21621207.262 7  89799076.778 7        43.600
R05  24227876.883 6 129511956.306 6        36.000    24227875.203 5 129511855.329 5        34.300    24227904.973 5 100731555.478 5        34.400    24227904.117 5 100731561.473 5        33.600
C14  25143489.797 6 130928752.918 6        36.100    25143499.906 6 101242455.095 6        40.800
C13  36988262.344 7 192607589.514 7        45.300    36988274.531 7 148936458.509 7        43.800
C11  23469271.656 7 122210654.212 7        43.900    23469283.922 7  94501078.499 7        45.800
C10  36629271.727 7 190738227.818 7        43.800    36629281.352 7 147490939.783 7        45.700
C09  38398624.664 6 199951708.781 6        37.300    38398634.441 6 154615390.136 6        40.000
C08  36481812.859 7 189970373.059 7        44.400    36481818.188 7 146897165.397 7        46.100
C07  36334392.055 7 189202714.766 7        45.800    36334398.570 7 146303568.578 7        47.100
C05  38398866.430 6 199952968.703 6        36.200    38398877.285 6 154616367.541 6        40.400
C04  38987657.883 5 203018960.325 5        35.200    38987669.559 6 156987192.867 6        39.000
C03  36231568.383 7 188667283.755 7        43.900    36231573.691 7 145889534.340 7        45.500
C02  36960565.570 6 192463363.543 6        40.600    36960570.828 7 148824903.906 7        44.900
C01  37504501.078 6 195295777.552 6        39.800    37504510.973 7 151015126.561 7        42.400
S27  38724176.609 6 203496922.671 6        40.000
S37  36742911.422 7 193085296.365 7        42.000
> 2023  2 14 10 23 44.0000000  0 33       0.000000000000
G30  21969758.375 7 115451857.326 7        45.100    21969777.898 7  89962558.519 7        45.600    21969778.098 7  89962512.513 7        45.400    21969781.852 8  86214063.719 8        49.900
G17  21780710.484 7 114458408.308 7        45.400    21780730.422 7  89188451.227 7        47.200    21780730.238 7  89188452.227 7        45.100
G19  22417704.102 7 117805832.429 7        43.000    22417725.195 5  91796843.279 5        32.600
G07  23639275.273 6 124225250.319 6        36.300    23639294.023 5  96798954.733 5        31.200    23639293.629 6  96798952.744 6        36.500
G01  23264391.961 6 122255190.180 6        38.300    23264420.266 3  95263908.530 3        22.500    23264419.805 6  95263825.525 6        40.400    23264423.750 7  91294486.886 7        44.600
G14  20358288.766 7 106983529.266 7        47.400    20358306.023 7  83363859.775 7        43.500    20358305.906 8  83363859.764 8        53.400    20358313.594 9  79890326.784 9        55.600
G03  22440105.102 6 117923547.302 6        41.500    22440129.875 6  91888576.406 6        41.600    22440130.242 7  91888502.403 7        44.600    22440135.457 8  88059803.887 8        48.100
G06  21371702.266 7 112309053.736 7        46.100    21371722.707 8  87513633.617 8        49.700    21371723.078 7  87513635.612 7        47.200    21371727.254 8  83867250.310 8        51.300
R20  22009204.203 6 117693154.559 6        37.100    22009203.621 6 117693097.536 6        36.200    22009226.613 6  91539172.579 6        37.700    22009226.355 6  91539170.583 6        36.900
E33  23648648.383 8 124274485.860 8        48.200    23648667.750 8  92802359.631 8        51.800    23648662.922 8  95223279.605 8        52.800    23648665.305 9  94012928.727 9        58.500
E01  23977225.008 8 126001167.355 8        50.400    23977244.484 8  94091857.989 8        51.100    23977239.844 8  96546409.649 8        51.800    23977242.246 9  95319133.429 9        57.800
E26  26251480.227 6 137952455.741 6        40.700    26251506.352 7 103016529.866 7        42.700    26251500.820 7 105703902.563 7        44.100    26251503.824 8 104360225.326 8        49.600
E31  24483942.820 8 128663990.557 8        48.800    24483965.770 8  96080247.140 8        48.800    24483961.082 8  98586688.276 8        50.400    24483963.539 9  97333490.315 9        55.800
R22  22429798.906 7 119731779.561 7        42.700    22429797.586 7 119731775.556 7        42.500    22429818.594 6  93124727.564 6        41.400    22429818.367 6  93124723.567 6        41.200
R11  20919888.250 8 111789547.714 8        50.200    20919887.535 8 111789533.733 8        48.100    20919905.445 7  86947423.934 7        46.600    20919905.680 7  86947419.923 7        46.700
R21  20548551.297 8 109959448.752 8        51.600    20548550.324 8 109959439.761 8        50.500    20548569.242 7  85524018.079 7        47.800    20548569.602 7  85524015.075 7        47.000
R10  19281555.758 7 102781544.725 7        47.200    19281554.270 7 102781527.726 7        45.100
R09  21621895.594 7 115459694.046 7        46.000    21621893.977 7 115459704.020 7        44.200    21621909.398 7  89802001.472 7        44.900    21621909.484 7  89801995.469 7        43.500
R05  24227570.961 6 129510323.514 6        36.000    24227569.750 5 129510222.462 5        34.600    24227599.031 5 100730285.509 5        34.300    24227598.875 5 100730291.505 5        33.700
C14  25143090.125 6 130926675.085 6        36.400    25143100.715 6 101240848.383 6        40.600
C13  36988046.867 7 192606466.481 7        45.200    36988058.996 7 148935590.113 7        44.100
C11  23469587.852 7 122212300.499 7        43.800    23469600.152 7  94502351.514 7        46.100
C10  36629162.117 7 190737657.175 7        44.400    36629171.770 7 147490498.529 7        46.000
C09  38398933.727 6 199953317.115 6        37.400    38398943.156 6 154616633.807 6        39.900
C08  36481597.648 7 189969252.563 7        44.500    36481602.746 7 146896298.963 7        46.400
C07  36334305.922 7 189202265.408 7        46.000    36334312.027 7 146303221.107 7        47.300
C05  38398861.688 6 199952943.981 6        36.100    38398872.375 6 154616348.425 6        40.700
C04  38987654.586 5 203018943.938 5        35.400    38987666.707 6 156987180.180 6        39.200
C03  36231561.828 7 188667249.586 7        43.900    36231566.969 7 145889507.919 7        45.500
C02  36960562.539 6 192463348.463 6        40.700    36960567.738 7 148824892.249 7        44.900
C01  37504495.094 6 195295746.564 6        40.100    37504504.727 7 151015102.603 7        42.300
S27  38724179.172 6 203496933.022 6        40.100
S37  36742907.703 7 193085301.212 7        42.100
> 2023  2 14 10 23 45.0000000  0 33       0.000000000000
G30  21970233.516 7 115454353.232 7        45.100    21970252.465 7  89964503.377 7        45.800    21970252.699 7  89964457.373 7        45.300    21970256.418 8  86215927.548 8        50.000
G17  21780725.742 7 114458486.423 7        45.500    21780745.426 7  89188512.100 7        47.200    21780745.363 7  89188513.095 7        44.900
G19  22417495.781 7 117804738.902 7        42.900    22417517.484 5  91795991.184 5        32.600
G07  23639933.500 6 124228708.799 6        36.300    23639952.184 5  96801649.652 5        31.200    23639951.809 6  96801647.656 6        36.400
G01  23265058.500 6 122258688.628 6        38.800    23265085.996 3  95266634.589 3        22.900    23265085.363 6  95266551.584 6        40.300    23265089.422 7  91297099.355 7        44.500
G14  20358160.578 7 106982855.252 7        47.600    20358177.445 7  83363334.575 7        43.300    20358177.328 8  83363334.564 8        53.200    20358185.012 9  79889823.461 9        55.700
G03  22440103.539 6 117923536.860 6        41.500    22440127.926 6  91888568.269 6        41.700    22440128.227 7  91888494.265 7        44.700    22440133.508 8  88059796.089 8        48.100
G06  21371335.773 7 112307127.158 7        46.000    21371356.492 8  87512132.390 8        49.800    21371356.965 7  87512134.385 7        47.200    21371361.211 8  83865811.632 8        51.300
R20  22009758.008 5 117696120.134 5        35.900    22009758.363 6 117696063.159 6        36.100    22009781.922 6  91541479.140 6        37.100    22009781.137 6  91541477.144 6        37.700
E33  23648830.742 8 124275444.225 8        48.300    23648849.813 8  92803075.296 8        51.600    23648845.219 8  95224013.932 8        52.400    23648847.555 9  94013653.722 9        58.600
E01  23977357.203 8 126001861.199 8        50.300    23977376.496 8  94092376.125 8        51.000    23977371.902 8  96546941.294 8        51.700    23977374.273 9  95319658.316 9        57.800
E26  26251950.219 6 137954925.935 6        40.800    26251976.535 7 103018374.493 7        43.000    26251971.094 7 105705795.309 7        43.800    26251973.945 8 104362094.016 8        49.700
E31  24483600.438 8 128662191.255 8        49.000    24483623.430 8  96078903.513 8        49.000    24483618.836 8  98585309.597 8        49.800    24483621.074 9  97332129.162 9        55.900
R22  22429440.797 7 119729868.763 7        42.800    22429439.598 7 119729864.771 7        42.600    22429460.207 6  93123241.391 6        41.600    22429460.367 6  93123237.392 6        41.100
R11  20919297.680 8 111786394.774 8        50.100    20919297.555 8 111786380.785 8        48.200    20919315.793 7  86944971.656 7        46.500    20919315.746 7  86944967.652 7        46.700
R21  20548617.727 8 109959803.265 8        51.800    20548616.637 8 109959794.282 8        50.700    20548635.160 7  85524293.810 7        47.900    20548635.711 7  85524290.806 7        47.300
R10  19281721.672 7 102782431.192 7        46.800    19281720.418 7 102782414.201 7        45.000
R09  21622598.680 7 115463446.992 7        46.400    21622597.531 7 115463457.003 7        44.400    21622612.648 7  89804920.430 7        45.000    21622612.809 7  89804914.428 7        43.100
R05  24227266.109 5 129508690.920 5        35.700    24227264.313 5 129508589.952 5        34.300    24227293.293 5 100729015.689 5        34.500    24227293.215 5 100729021.694 5        33.900
C14  25142691.453 6 130924597.111 6        36.600    25142701.551 6 101239241.569 6        41.100
C13  36987831.133 7 192605343.554 7        45.400    36987843.410 7 148934721.794 7        43.900
C11  23469904.000 7 122213946.734 7        43.500    23469916.172 7  94503624.484 7        46.000
C10  36629052.563 7 190737086.429 7        43.800    36629062.090 7 147490057.193 7        46.200
C09  38399241.813 6 199954925.359 6        37.700    38399252.027 6 154617877.406 6        40.100
C08  36481382.469 7 189968132.199 7        44.500    36481387.422 7 146895432.628 7        46.300
C07  36334219.836 7 189201816.012 7        46.100    36334225.918 7 146302873.606 7        47.000
C05  38398856.586 5 199952919.257 5        35.900    38398867.434 6 154616329.307 6        40.500
C04  38987651.320 5 203018927.475 5        35.000    38987663.063 6 156987167.444 6        38.800
C03  36231555.211 7 188667215.368 7        43.900    36231560.488 7 145889481.457 7        46.200
C02  36960559.742 6 192463333.332 6        40.500    36960564.898 7 148824880.548 7        45.200
C01  37504488.891 6 195295715.547 6        39.900    37504498.848 7 151015078.622 7        42.000
S27  38724180.688 6 203496943.392 6        40.100
S37  36742908.484 6 193085306.022 6        41.800
> 2023  2 14 10 23 46.0000000  0 33       0.000000000000
G30  21970708.086 7 115456849.534 7        44.800    21970727.781 7  89966448.548 7        45.700    21970728.102 7  89966402.544 7        45.600    21970731.617 8  86217791.667 8        50.000
G17  21780740.453 7 114458564.602 7        45.500    21780760.691 7  89188573.019 7        47.300    21780760.508 7  89188574.016 7        45.200
G19  22417287.500 7 117803645.502 7        42.800    22417308.988 5  91795139.193 5        32.300
G07  23640591.711 6 124232167.421 6        36.300    23640610.289 5  96804344.679 5        30.200    23640610.184 6  96804342.680 6        36.100
G01  23265724.344 6 122262187.237 6        38.400    23265751.785 3  95269360.782 3        22.500    23265751.113 6  95269277.777 6        40.400    23265755.270 7  91299711.952 7        44.500
G14  20358032.398 7 106982181.751 7        47.800    20358049.172 7  83362809.770 7        43.400    20358049.012 8  83362809.758 8        53.200    20358056.680 9  79889320.525 9        55.700
G03  22440101.281 6 117923527.065 6        41.800    22440126.375 6  91888560.637 6        41.300    22440126.824 7  91888486.628 7        44.600    22440131.840 7  88059788.774 7        47.900
G06  21370969.922 7 112305201.142 7        45.900    21370989.609 8  87510631.603 8        49.700    21370990.105 7  87510633.598 7        47.500    21370994.215 8  83864373.374 8        51.300
R20  22010312.352 6 117699085.793 6        36.200    22010312.707 5 117699028.782 5        35.800    22010336.180 6  91543785.762 6        37.400    22010335.523 6  91543783.768 6        36.900
E33  23649013.266 8 124276402.965 8        48.200    23649032.543 8  92803791.238 8        51.700    23649027.855 8  95224748.550 8        52.500    23649030.137 9  94014379.002 9        58.500
E01  23977489.070 8 126002555.479 8        50.300    23977508.469 8  94092894.578 8        50.900    23977503.875 8  96547473.279 8        51.900    23977506.176 9  95320183.538 9        57.800
E26  26252420.125 6 137957396.199 6        40.800    26252446.512 7 103020219.168 7        42.700    26252441.027 7 105707688.108 7        44.100    26252443.973 8 104363962.747 8        49.600
E31  24483258.031 8 128660392.236 8        49.100    24483281.141 8  96077560.097 8        49.200    24483276.594 8  98583931.134 8        49.900    24483278.813 9  97330768.222 9        55.900
R22  22429082.508 7 119727958.480 7        42.600    22429082.363 7 119727954.483 7        42.400    22429102.734 6  93121755.616 6        41.100    22429102.715 6  93121751.617 6        40.900
R11  20918707.695 8 111783242.407 8        50.500    20918707.570 8 111783228.418 8        48.300    20918725.480 7  86942519.823 7        46.300    20918725.699 7  86942515.819 7        46.600
R21  20548684.070 8 109960158.278 8        51.900    20548683.332 8 109960149.294 8        50.700    20548701.441 7  85524569.928 7        47.800    20548702.332 7  85524566.931 7        47.300
R10  19281888.641 7 102783318.589 7        47.000    19281887.152 7 102783301.579 7        45.000
R09  21623301.219 7 115467200.458 7        46.300    21623300.070 7 115467210.483 7        44.300    21623316.055 7  89807839.789 7        44.700    21623315.605 7  89807833.786 7        43.600
R05  24226960.398 5 129507058.847 5        35.700    24226959.660 5 129506957.836 5        33.800    24226988.254 5 100727746.278 5        34.400    24226988.270 5 100727752.289 5        33.500
C14  25142292.352 6 130922519.205 6        36.400    25142302.465 6 101237634.797 6        40.700
C13  36987615.539 7 192604220.798 7        45.000    36987627.891 7 148933853.611 7        44.400
C11  23470220.063 7 122215593.048 7        43.400    23470232.375 7  94504897.517 7        45.700
C10  36628942.602 7 190736515.706 7        44.100    36628952.402 7 147489615.872 7        46.000
C09  38399551.188 6 199956533.642 6        37.600    38399560.910 6 154619121.036 6        40.200
C08  36481167.523 7 189967012.066 7        44.600    36481172.441 7 146894566.470 7        46.300
C07  36334133.516 7 189201366.659 7        46.200    36334139.758 7 146302526.140 7        47.000
C05  38398851.297 6 199952894.544 6        36.100    38398862.742 6 154616310.198 6        40.800
C04  38987648.469 5 203018911.115 5        35.400    38987660.055 6 156987154.784 6        39.200
C03  36231548.578 7 188667181.230 7        43.900    36231553.766 7 145889455.061 7        46.000
C02  36960556.813 6 192463318.260 6        40.800    36960561.949 7 148824868.896 7        45.100
C01  37504483.469 6 195295684.577 6        39.700    37504492.848 7 151015054.670 7        42.000
S27  38724183.109 6 203496953.847 6        40.100
S37  36742913.531 7 193085310.910 7        42.100
> 2023  2 14 10 23 47.0000000  0 33       0.000000000000
G30  21971183.031 7 115459346.128 7        45.100    21971202.645 7  89968393.943 7        45.700    21971202.840 7  89968347.939 7        45.800    21971206.535 8  86219656.011 8        50.100
G17  21780755.336 7 114458642.706 7        45.400    21780775.262 7  89188633.881 7        47.200    21780775.219 7  89188634.878 7        44.800
G19  22417079.094 7 117802552.147 7        43.000    22417101.219 5  91794287.227 5        31.900
G07  23641249.477 6 124235625.966 6        36.200    23641268.273 5  96807039.647 5        31.100    23641268.270 6  96807037.644 6        36.100
G01  23266390.094 6 122265685.911 6        38.000    23266417.590 3  95272087.021 3        22.600    23266417.172 6  95272004.016 6        40.400    23266420.957 7  91302324.598 7        44.300
G14  20357904.203 7 106981508.696 7        47.800    20357921.043 7  83362285.316 7        43.400    20357921.039 8  83362285.304 8        53.100    20357928.555 9  79888817.930 9        55.600
G03  22440099.781 7 117923517.891 7        42.100    22440123.875 6  91888553.484 6        41.700    22440124.348 7  91888479.481 7        44.700    22440129.574 8  88059781.916 8        48.000
G06  21370603.125 7 112303275.590 7        46.200    21370623.035 8  87509131.174 8        49.900    21370623.477 7  87509133.169 7        47.700    21370627.875 8  83862935.468 8        51.200
R20  22010867.570 6 117702051.279 6        36.500    22010867.223 5 117701994.366 5        35.500    22010891.004 6  91546092.247 6        37.700    22010890.078 6  91546090.251 6        37.600
E33  23649195.922 8 124277361.972 8        48.600    23649214.867 8  92804507.380 8        51.500    23649210.180 8  95225483.375 8        52.300    23649212.516 9  94015104.485 9        58.500
E01  23977621.297 8 126003250.107 8        50.100    23977640.902 8  94093413.296 8        50.900    23977636.164 8  96548005.530 8        52.200    23977638.629 9  95320709.020 9        57.800
E26  26252890.438 6 137959866.466 6        40.700    26252916.422 7 103022063.845 7        43.200    26252911.215 7 105709580.907 7        44.100    26252914.176 8 104365831.485 8        49.600
E31  24482915.586 8 128658593.377 8        49.400    24482938.891 8  96076216.796 8        49.100    24482934.203 8  98582552.797 8        50.000    24482936.582 9  97329407.406 9        55.800
R22  22428726.844 7 119726048.618 7        43.200    22428724.469 7 119726044.616 7        43.000    22428744.898 6  93120270.171 6        41.000    22428744.883 6  93120266.169 6        41.000
R11  20918118.797 8 111780090.535 8        50.500    20918117.730 8 111780076.539 8        48.300    20918135.613 7  86940068.386 7        46.500    20918135.922 7  86940064.374 7        46.300
R21  20548750.648 8 109960513.667 8        52.000    20548749.324 8 109960504.675 8        50.700    20548767.668 7  85524846.336 7        47.700    20548768.441 7  85524843.347 7        47.100
R10  19282055.656 7 102784206.813 7        47.300    19282053.934 7 102784189.805 7        45.400
R09  21624004.594 7 115470954.324 7        46.000    21624003.094 7 115470964.334 7        44.200    21624019.055 7  89810759.462 7        44.700    21624018.758 7  89810753.465 7        43.400
R05  24226655.344 6 129505426.995 6        36.500    24226654.016 5 129505326.036 5        34.100    24226682.340 5 100726477.056 5        33.600    24226682.398 5 100726483.059 5        33.400
C14  25141894.047 6 130920441.237 6        36.600    25141903.574 6 101236027.981 6        40.400
C13  36987399.758 7 192603098.185 7        45.200    36987412.203 7 148932985.541 7        44.700
C11  23470536.734 7 122217239.294 7        43.000    23470548.777 7  94506170.497 7        46.000
C10  36628832.742 7 190735944.947 7        44.100    36628842.730 7 147489174.527 7        45.900
C09  38399859.563 6 199958141.886 6        37.300    38399869.668 6 154620364.630 6        39.600
C08  36480952.430 7 189965892.146 7        44.200    36480957.281 7 146893700.481 7        46.400
C07  36334047.078 7 189200917.250 7        45.800    36334053.316 7 146302178.629 7        46.800
C05  38398847.445 6 199952869.859 6        36.500    38398858.137 6 154616291.112 6        40.800
C04  38987644.992 5 203018894.724 5        35.200    38987656.531 6 156987142.117 6        39.200
C03  36231542.008 7 188667147.067 7        43.900    36231547.527 7 145889428.650 7        46.200
C02  36960553.891 6 192463303.144 6        40.600    36960559.027 7 148824857.209 7        44.800
C01  37504477.586 6 195295653.627 6        39.900    37504487.145 6 151015030.742 6        41.800
S27  38724184.844 6 203496964.354 6        40.100
S37  36742915.875 7 193085315.753 7        42.200
> 2023  2 14 10 23 48.0000000  0 33       0.000000000000
G30  21971658.297 7 115461843.003 7        45.000    21971677.801 7  89970339.561 7        45.700    21971678.250 7  89970293.557 7        45.600    21971681.750 8  86221520.560 8        49.900
G17  21780770.297 7 114458720.794 7        45.400    21780790.676 7  89188694.727 7        47.300    21780790.879 7  89188695.725 7        44.600
G19  22416871.195 7 117801458.825 7        42.700    22416892.930 5  91793435.292 5        32.500
G07  23641907.727 6 124239084.494 6        36.300    23641926.656 5  96809734.601 5        30.500    23641926.742 6  96809732.598 6        36.400
G01  23267056.219 6 122269184.677 6        38.100    23267083.688 3  95274813.331 3        23.600    23267083.320 6  95274730.329 6        40.600    23267086.938 7  91304937.312 7        44.600
G14  20357776.414 8 106980836.096 8        48.100    20357793.582 7  83361761.211 7        43.300    20357793.289 8  83361761.207 8        53.200    20357800.977 9  79888315.663 9        55.900
G03  22440098.125 7 117923509.267 7        42.000    22440122.246 6  91888546.765 6        41.600    22440122.445 7  91888472.757 7        44.700    22440127.828 8  88059775.480 8        48.100
G06  21370236.586 7 112301350.526 7        46.000    21370256.891 8  87507631.126 8        49.800    21370257.301 7  87507633.128 7        47.900    21370261.730 8  83861497.923 8        51.300
R20  22011422.578 6 117705016.822 6        36.200    22011422.699 5 117704959.837 5        34.800    22011445.602 6  91548398.780 6        37.600    22011444.926 6  91548396.784 6        37.700
E33  23649378.438 8 124278321.276 8        48.600    23649397.445 8  92805223.741 8        51.500    23649392.758 8  95226218.423 8        52.500    23649395.133 9  94015830.192 9        58.400
E01  23977753.586 8 126003945.083 8        50.100    23977772.953 8  94093932.271 8        51.000    23977768.313 8  96548538.042 8        51.800    23977770.723 9  95321234.768 9        57.800
E26  26253360.461 6 137962336.757 6        40.800    26253386.648 7 103023908.538 7        43.100    26253381.254 7 105711473.723 7        44.100    26253384.168 8 104367700.240 8        49.500
E31  24482573.414 8 128656794.700 8        49.200    24482596.414 8  96074873.638 8        49.100    24482591.680 8  98581174.597 8        49.900    24482594.090 9  97328046.727 9        55.700
R22  22428367.820 7 119724139.166 7        43.400    22428366.738 7 119724135.192 7        42.700    22428386.750 6  93118785.042 6        40.900    22428387.047 6  93118781.038 6        41.100
R11  20917528.734 8 111776939.178 8        50.200    20917528.020 7 111776925.182 7        47.900    20917546.086 7  86937617.335 7        46.600    20917546.203 7  86937613.331 7        46.600
R21  20548816.930 8 109960869.443 8        52.000    20548816.191 8 109960860.459 8        50.800    20548834.164 7  85525123.056 7        47.800    20548835.152 7  85525120.060 7        47.100
R10  19282223.375 7 102785095.853 7        46.500    19282220.832 7 102785078.849 7        45.300
R09  21624707.102 7 115474708.614 7        45.800    21624705.953 7 115474718.602 7        43.900    21624722.031 7  89813679.468 7        44.600    21624721.746 7  89813673.470 7        43.600
R05  24226349.891 5 129503795.553 5        35.600    24226348.918 5 129503694.549 5        34.300    24226377.184 5 100725208.153 5        32.600    24226377.074 5 100725214.149 5        33.300
C14  25141494.688 6 130918363.205 6        36.100    25141504.578 6 101234421.118 6        40.600
C13  36987184.500 7 192601975.708 7        45.000    36987196.488 7 148932117.572 7        44.600
C11  23470852.539 7 122218885.538 7        43.500    23470864.871 7  94507443.481 7        46.000
C10  36628723.156 7 190735374.121 7        44.100    36628733.246 7 147488733.129 7        45.600
C09  38400168.234 6 199959750.057 6        37.000    38400178.793 6 154621608.172 6        39.500
C08  36480737.477 7 189964772.361 7        44.100    36480742.141 7 146892834.595 7        45.800
C07  36333960.625 7 189200467.831 7        45.700    36333966.680 7 146301831.114 7        47.000
C05  38398842.531 6 199952845.123 6        36.000    38398853.555 6 154616271.986 6        40.400
C04  38987642.109 5 203018878.304 5        35.600    38987653.465 6 156987129.423 6        38.900
C03  36231535.492 7 188667112.898 7        43.900    36231540.887 7 145889402.230 7        46.200
C02  36960551.133 6 192463288.053 6        40.600    36960556.152 7 148824845.540 7        44.500
C01  37504471.781 6 195295622.647 6        40.000    37504481.074 6 151015006.786 6        41.800
S27  38724186.688 6 203496974.789 6        40.100
S37  36742916.313 7 193085320.609 7        42.300
> 2023  2 14 10 23 49.0000000  0 33       0.000000000000
G30  21972133.695 7 115464340.243 7        45.200    21972153.242 7  89972285.463 7        45.800    21972153.480 7  89972239.459 7        45.700    21972157.020 8  86223385.379 8        49.900
G17  21780785.023 7 114458798.860 7        45.300    21780805.047 7  89188755.565 7        47.400    21780805.293 7  89188756.560 7        44.500
G19  22416663.305 7 117800365.561 7        42.800    22416685.098 5  91792583.408 5        32.400
G07  23642566.359 6 124242543.005 6        36.700    23642584.848 5  96812429.538 5        31.000    23642584.859 6  96812427.534 6        36.200
G01  23267721.617 6 122272683.573 6        37.600    23267749.262 3  95277539.733 3        23.600    23267749.055 6  95277456.743 6        40.400    23267752.574 7  91307550.125 7        44.300
G14  20357648.516 7 106980163.960 7        47.600    20357665.336 7  83361237.473 7        43.200    20357665.410 8  83361237.469 8        53.200    20357672.965 9  79887813.749 9        55.700
G03  22440096.547 6 117923501.288 6        41.700    22440120.813 6  91888540.551 6        41.500    22440121.109 7  91888466.541 7        44.900    22440126.453 8  88059769.522 8        48.200
G06  21369870.102 7 112299425.961 7        46.200    21369890.207 8  87506131.471 8        49.800    21369890.680 8  87506133.466 8        48.100    21369895.047 8  83860060.750 8        51.300
R20  22011976.023 6 117707982.337 6        36.400    22011976.496 5 117707925.374 5        35.000    22011999.250 6  91550705.289 6        37.500    22011998.859 6  91550703.293 6        37.500
E33  23649561.055 8 124279280.884 8        48.600    23649580.137 8  92805940.332 8        51.400    23649575.449 8  95226953.709 8        52.400    23649577.816 9  94016556.132 9        58.400
E01  23977885.938 8 126004640.421 8        49.800    23977905.328 8  94094451.522 8        51.100    23977900.641 8  96549070.835 8        51.600    23977903.078 9  95321760.787 9        57.700
E26  26253830.531 6 137964807.058 6        41.000    26253856.676 7 103025753.237 7        43.100    26253851.332 7 105713366.549 7        43.900    26253854.195 8 104369569.004 8        49.500
E31  24482231.125 8 128654996.226 8        49.400    24482254.168 8  96073530.629 8        48.900    24482249.434 8  98579796.548 8        50.100    24482251.816 9  97326686.199 9        55.700
R22  22428010.430 7 119722230.169 7        43.700    22428009.230 7 119722226.185 7        42.600    22428029.012 6  93117300.271 6        41.100    22428029.801 6  93117296.259 6        41.100
R11  20916938.859 8 111773788.367 8        50.300    20916938.500 8 111773774.377 8        48.100    20916956.613 7  86935166.709 7        46.400    20916956.531 7  86935162.706 7        46.200
R21  20548883.273 8 109961225.675 8        51.700    20548882.887 8 109961216.676 8        50.900    20548900.879 7  85525400.128 7        47.800    20548901.801 7  85525397.132 7        47.100
R10  19282389.727 7 102785985.762 7        46.800    19282388.121 7 102785968.771 7        45.300
R09  21625410.195 7 115478463.301 7        45.800    21625408.930 7 115478473.310 7        44.100    21625424.688 7  89816599.780 7        45.100    21625424.578 7  89816593.777 7        44.100
R05  24226044.141 5 129502164.406 5        35.900    24226043.168 5 129502063.403 5        34.300    24226071.555 5 100723939.472 5        32.600    24226071.547 5 100723945.468 5        33.100
C14  25141095.016 6 130916285.131 6        36.600    25141105.563 6 101232814.221 6        40.800
C13  36986968.445 7 192600853.442 7        45.000    36986981.270 7 148931249.767 7        44.000
C11  23471168.672 7 122220531.761 7        43.700    23471180.668 7  94508716.443 7        46.100
C10  36628613.703 7 190734803.278 7        44.300    36628623.191 7 147488291.714 7        46.000
C09  38400477.367 6 199961358.245 6        36.800    38400487.617 6 154622851.725 6        39.900
C08  36480522.563 7 189963652.792 7        44.500    36480527.395 7 146891968.877 7        46.400
C07  36333874.641 7 189200018.389 7        45.900    36333880.668 7 146301483.576 7        46.900
C05  38398837.891 6 199952820.446 6        36.500    38398848.539 6 154616252.902 6        40.600
C04  38987638.727 5 203018861.964 5        35.000    38987650.324 6 156987116.790 6        39.100
C03  36231528.969 7 188667078.739 7        43.800    36231534.285 7 145889375.817 7        46.400
C02  36960548.508 6 192463272.968 6        40.700    36960553.293 7 148824833.879 7        44.500
C01  37504465.359 6 195295591.682 6        39.900    37504475.242 7 151014982.846 7        42.000
S27  38724187.969 6 203496985.142 6        40.000
S37  36742909.875 7 193085325.482 7        42.000
> 2023  2 14 10 23 50.0000000  0 33       0.000000000000
G30  21972609.078 7 115466837.802 7        44.600    21972628.277 7  89974231.616 7        45.700    21972628.938 7  89974185.611 7        45.700    21972632.289 8  86225250.438 8        49.800
G17  21780800.391 7 114458876.985 7        45.300    21780819.953 7  89188816.444 7        47.300    21780820.156 7  89188817.441 7        44.800
G19  22416455.125 7 117799272.457 7        42.900    22416476.938 5  91791731.653 5        32.500
G07  23643224.016 6 124246001.565 6        36.700    23643242.703 5  96815124.521 5        30.600    23643242.367 6  96815122.521 6        36.500
G01  23268387.539 6 122276182.601 6        37.800    23268415.047 3  95280266.244 3        22.000    23268414.504 6  95280183.254 6        40.100    23268418.355 7  91310163.037 7        44.300
G14  20357520.625 7 106979492.351 7        47.700    20357537.301 7  83360714.140 7        43.700    20357537.453 8  83360714.135 8        53.100    20357545.047 9  79887312.223 9        55.700
G03  22440095.023 6 117923493.959 6        41.700    22440119.246 6  91888534.841 6        41.700    22440119.547 7  91888460.831 7        44.500    22440124.711 8  88059764.049 8        48.000
G06  21369503.883 7 112297501.932 7        46.000    21369524.359 8  87504632.224 8        49.800    21369524.793 7  87504634.227 7        47.800    21369529.199 8  83858623.977 8        51.300
R20  22012530.031 6 117710947.840 6        36.000    22012531.094 5 117710890.876 5        35.200    22012553.957 6  91553011.792 6        37.200    22012553.324 6  91553009.796 6        37.400
E33  23649743.656 8 124280240.838 8        48.600    23649762.723 8  92806657.180 8        51.400    23649757.984 8  95227689.258 8        52.200    23649760.363 9  94017282.329 9        58.500
E01  23978018.281 8 126005336.175 8        49.700    23978037.680 8  94094971.082 8        51.000    23978032.852 8  96549603.947 8        51.200    23978035.379 9  95322287.122 9        57.700
E26  26254300.508 6 137967277.505 6        41.700    26254326.766 7 103027598.053 7        43.100    26254321.559 7 105715259.487 7        44.000    26254324.391 8 104371437.881 8        49.500
E31  24481888.867 8 128653198.019 8        49.700    24481912.141 8  96072187.820 8        48.800    24481907.453 8  98578418.706 8        50.100    24481909.844 9  97325325.874 9        55.800
R22  22427653.313 7 119720321.680 7        44.000    22427651.406 7 119720317.689 7        42.900    22427671.348 6  93115815.890 6        41.100    22427671.816 6  93115811.886 6        40.400
R11  20916349.703 8 111770638.141 8        50.200    20916348.871 8 111770624.137 8        48.100    20916367.316 7  86932716.541 7        46.800    20916366.984 7  86932712.538 7        46.700
R21  20548950.570 8 109961582.382 8        51.800    20548949.246 8 109961573.383 8        50.700    20548967.672 8  85525677.567 8        48.000    20548968.305 7  85525674.570 7        47.700
R10  19282556.102 7 102786876.584 7        47.200    19282555.316 7 102786859.576 7        45.400
R09  21626113.094 7 115482218.469 7        45.800    21626112.648 7 115482228.465 7        43.900    21626128.531 7  89819520.461 7        45.100    21626128.289 7  89819514.464 7        44.000
R05  24225739.609 5 129500533.747 5        35.500    24225738.637 5 129500432.751 5        34.700    24225767.297 5 100722671.173 5        32.300    24225767.191 5 100722677.162 5        33.500
C14  25140696.523 6 130914207.069 6        36.400    25140706.223 6 101231207.340 6        40.000
C13  36986753.469 7 192599731.355 7        44.900    36986765.543 7 148930382.102 7        44.100
C11  23471484.672 7 122222178.008 7        43.700    23471497.086 7  94509989.427 7        46.200
C10  36628504.172 7 190734232.454 7        43.900    36628513.961 7 147487850.320 7        46.000
C09  38400786.023 6 199962966.439 6        37.000    38400796.215 6 154624095.286 6        40.000
C08  36480307.555 7 189962533.424 7        44.000    36480312.813 7 146891103.317 7        46.100
C07  36333787.883 7 189199569.001 7        45.900    36333794.258 7 146301136.089 7        46.900
C05  38398833.039 5 199952795.805 5        35.900    38398843.969 6 154616233.849 6        40.900
C04  38987636.359 5 203018845.618 5        35.300    38987647.418 6 156987104.154 6        39.400
C03  36231521.984 7 188667044.651 7        43.900    36231527.496 7 145889349.461 7        46.100
C02  36960545.430 6 192463257.955 6        40.800    36960550.441 7 148824822.271 7        44.700
C01  37504459.453 6 195295560.793 6        39.700    37504469.266 7 151014958.968 7        42.700
S27  38724190.984 6 203496995.557 6        40.000
S37  36742915.719 7 193085330.415 7        42.000
> 2023  2 14 10 23 51.0000000  0 33       0.000000000000
G30  21973084.477 7 115469335.848 7        44.600    21973103.742 7  89976178.140 7        45.800    21973104.328 7  89976132.136 7        45.600    21973107.578 8  86227115.859 8        49.900
G17  21780814.852 7 114458955.208 7        45.400    21780834.996 7  89188877.401 7        47.300    21780835.105 7  89188878.396 7        45.300
G19  22416247.055 7 117798179.519 7        42.900    22416268.898 5  91790880.013 5        32.400
G07  23643882.656 6 124249460.244 6        36.500    23643900.941 5  96817819.595 5        30.500    23643900.719 5  96817817.599 5        35.900
G01  23269053.125 6 122279681.857 6        37.700    23269080.980 3  95282992.932 3        22.800    23269080.488 6  95282909.941 6        40.300    23269084.289 7  91312776.111 7        44.400
G14  20357392.758 7 106978821.345 7        47.600    20357409.926 7  83360191.285 7        43.600    20357409.777 8  83360191.274 8        52.800    20357417.551 9  79886811.150 9        55.700
G03  22440093.875 6 117923487.368 6        41.300    22440118.020 6  91888529.703 6        41.700    22440118.184 7  91888455.699 7        44.300    22440123.602 8  88059759.131 8        48.300
G06  21369138.625 7 112295578.531 7        46.200    21369158.438 8  87503133.475 8        49.800    21369158.898 7  87503135.470 7        47.600    21369163.332 8  83857187.675 8        51.400
R20  22013085.680 5 117713913.478 5        35.900    22013085.801 5 117713856.511 5        34.800    22013108.934 6  91555318.402 6        37.500    22013108.320 6  91555316.399 6        37.300
E33  23649926.414 8 124281201.259 8        48.600    23649945.566 8  92807374.377 8        51.600    23649940.832 8  95228425.163 8        52.200    23649943.219 9  94018008.882 9        58.500
E01  23978150.836 8 126006032.427 8        50.100    23978170.156 8  94095491.011 8        51.300    23978165.375 8  96550137.440 8        51.400    23978167.863 9  95322813.835 9        57.800
E26  26254770.813 6 137969748.034 6        41.500    26254797.012 7 103029442.921 7        42.500    26254791.805 7 105717152.487 7        44.300    26254794.668 8 104373306.812 8        49.500
E31  24481546.969 8 128651400.147 8        49.300    24481569.895 8  96070845.261 8        48.600    24481565.254 8  98577041.126 8        50.300    24481567.602 9  97323965.803 9        55.800
R22  22427295.211 7 119718413.789 7        44.300    22427294.480 7 119718409.810 7        42.800    22427314.711 6  93114331.979 6        41.100    22427314.758 6  93114327.975 6        41.100
R11  20915760.281 8 111767488.572 8        50.300    20915759.332 8 111767474.583 8        48.400    20915777.871 7  86930266.882 7        46.800    20915777.578 7  86930262.879 7        46.300
R21  20549017.055 8 109961939.612 8        51.900    20549016.199 8 109961930.621 8        50.200    20549034.605 8  85525955.412 8        48.300    20549035.016 7  85525952.415 7        47.800
R10  19282723.023 7 102787768.395 7        47.100    19282721.887 7 102787751.390 7        45.100
R09  21626816.602 7 115485974.212 7        45.900    21626815.805 7 115485984.210 7        44.300    21626831.027 7  89822441.597 7        45.200    21626831.246 7  89822435.595 7        43.700
R05  24225433.938 6 129498903.576 6        36.100    24225434.488 5 129498802.570 5        35.100    24225462.664 5 100721403.243 5        33.600    24225462.379 5 100721409.239 5        32.600
C14  25140296.859 6 130912129.116 6        36.100    25140307.371 6 101229600.535 6        40.000
C13  36986537.859 7 192598609.559 7        45.000    36986550.215 7 148929514.662 7        43.900
C11  23471801.250 7 122223824.413 7        43.900    23471813.426 7  94511262.530 7        46.000
C10  36628394.438 7 190733661.747 7        43.900    36628404.121 7 147487409.016 7        45.700
C09  38401096.016 6 199964574.778 6        37.600    38401105.383 6 154625338.952 6        40.200
C08  36480092.547 7 189961414.412 7        44.600    36480097.203 7 146890238.028 7        46.000
C07  36333701.992 7 189199119.729 7        45.800    36333708.285 7 146300788.682 7        47.100
C05  38398827.992 6 199952771.294 6        36.100    38398839.078 6 154616214.897 6        40.800
C04  38987632.609 5 203018829.439 5        35.200    38987644.223 6 156987091.651 6        39.700
C03  36231515.852 7 188667010.697 7        43.900    36231521.348 7 145889323.206 7        45.800
C02  36960542.625 6 192463243.076 6        40.600    36960547.488 7 148824810.768 7        44.600
C01  37504453.688 6 195295530.034 6        39.700    37504463.383 7 151014935.184 7        42.400
S27  38724192.422 6 203497006.144 6        40.200
S37  36742913.500 7 193085335.487 7        42.000
> 2023  2 14 10 23 52.0000000  0 33       0.000000000000
G30  21973559.484 7 115471834.193 7        45.000    21973578.785 7  89978124.901 7        45.600    21973579.270 7  89978078.897 7        45.500    21973582.738 8  86228981.506 8        49.900
G17  21780829.172 7 114459033.418 7        45.300    21780849.379 7  89188938.346 7        47.400    21780849.672 7  89188939.343 7        45.000
G19  22416039.336 7 117797086.652 7        42.800    22416061.234 5  91790028.441 5        33.000
G07  23644539.922 6 124252918.914 6        36.700    23644559.402 5  96820514.665 5        30.400    23644559.199 6  96820512.662 6        36.000
G01  23269719.406 6 122283181.163 6        37.300    23269746.637 3  95285719.671 3        22.800    23269746.359 6  95285636.673 6        40.400    23269750.121 7  91315389.223 7        44.600
G14  20357265.148 7 106978150.788 7        47.600    20357282.340 7  83359668.777 7        43.300    20357282.336 8  83359668.765 8        52.900    20357289.910 9  79886310.410 9        55.700
G03  22440092.805 6 117923481.367 6        41.700    22440116.891 6  91888525.027 6        41.800    22440117.156 7  91888451.024 7        44.500    22440122.473 8  88059754.639 8        48.000
G06  21368772.727 7 112293655.606 7        46.000    21368792.902 8  87501635.098 8        49.800    21368793.285 7  87501637.094 7        47.900    21368797.625 8  83855751.725 8        51.300
R20  22013639.641 6 117716878.995 6        36.000    22013640.586 5 117716822.031 5        35.200    22013663.688 6  91557624.909 6        37.300    22013662.836 6  91557622.911 6        37.700
E33  23650109.250 8 124282161.924 8        48.900    23650128.395 8  92808091.756 8        51.400    23650123.703 8  95229161.261 8        52.200    23650126.031 9  94018735.618 9        58.500
E01  23978283.266 8 126006729.024 8        50.100    23978302.898 8  94096011.197 8        50.800    23978298.211 8  96550671.198 8        51.800    23978300.578 9  95323340.806 9        57.800
E26  26255241.008 6 137972218.622 6        41.700    26255267.074 7 103031287.836 7        42.700    26255261.918 7 105719045.533 7        43.900    26255264.633 8 104375175.796 8        49.700
E31  24481204.594 8 128649602.420 8        49.300    24481227.902 8  96069502.811 8        48.600    24481223.262 8  98575663.651 8        49.800    24481225.566 9  97322605.840 9        55.900
R22  22426936.930 7 119716506.330 7        44.300    22426936.551 7 119716502.344 7        43.000    22426957.016 6  93112848.403 6        41.000    22426957.039 6  93112844.399 6        40.800
R11  20915170.719 8 111764339.498 8        50.200    20915170.359 8 111764325.515 8        48.800    20915188.535 7  86927817.607 7        46.400    20915188.395 7  86927813.604 7        46.300
R21  20549083.313 8 109962297.178 8        51.700    20549083.043 8 109962288.187 8        50.300    20549101.488 8  85526233.520 8        48.500    20549101.969 8  85526230.523 8        48.000
R10  19282890.477 7 102788661.033 7        47.100    19282889.691 7 102788644.019 7        45.200
R09  21627520.039 7 115489730.329 7        45.500    21627518.656 7 115489740.334 7        44.900    21627534.215 7  89825363.023 7        44.800    21627534.438 7  89825357.019 7        43.700
R05  24225128.211 6 129497273.711 6        36.600    24225129.582 5 129497172.734 5        35.400    24225157.727 5 100720135.553 5        32.700    24225157.234 5 100720141.557 5        33.000
C14  25139897.984 6 130910051.082 6        36.300    25139908.082 6 101227993.669 6        40.000
C13  36986322.602 7 192597487.877 7        45.100    36986334.707 7 148928647.309 7        43.600
C11  23472116.961 7 122225470.757 7        43.900    23472129.473 7  94512535.582 7        46.300
C10  36628284.539 7 190733090.923 7        43.600    36628294.414 7 147486967.625 7        45.400
C09  38401404.016 6 199966183.032 6        36.900    38401414.387 6 154626582.556 6        40.000
C08  36479877.641 7 189960295.519 7        44.500    36479882.480 7 146889372.831 7        46.300
C07  36333616.016 7 189198670.437 7        45.500    36333621.797 7 146300441.263 7        46.800
C05  38398823.648 5 199952746.765 5        35.800    38398834.613 6 154616195.928 6        41.100
C04  38987629.352 5 203018813.250 5        35.300    38987641.020 6 156987079.138 6        39.700
C03  36231509.406 7 188666976.747 7        43.900    36231514.844 7 145889296.949 7        46.000
C02  36960539.617 6 192463228.168 6        40.700    36960544.711 7 148824799.239 7        44.600
C01  37504447.883 6 195295499.245 6        39.800    37504457.676 7 151014911.372 7        42.300
S27  38724194.828 6 203497016.751 6        40.000
S37  36742916.734 7 193085340.552 7        42.100
> 2023  2 14 10 23 53.0000000  0 33       0.000000000000
G30  21974035.148 7 115474332.849 7        44.900    21974054.781 7  89980071.911 7        45.600    21974055.242 7  89980025.901 7        45.600    21974058.730 8  86230847.389 8        49.800
G17  21780844.477 7 114459111.607 7        45.500    21780864.430 7  89188999.276 7        47.300    21780864.434 7  89189000.272 7        45.100
G19  22415831.297 7 117795993.848 7        42.700    22415853.254 5  91789176.916 5        33.200
G07  23645197.516 6 124256377.536 6        36.200    23645217.219 5  96823209.690 5        30.200    23645217.102 5  96823207.691 5        35.500
G01  23270385.070 6 122286680.621 6        38.100    23270412.512 3  95288446.515 3        22.500    23270412.660 6  95288363.525 6        40.900    23270415.941 7  91318002.454 7        44.600
G14  20357137.500 7 106977480.696 7        47.800    20357154.441 7  83359146.632 7        43.300    20357154.641 8  83359146.622 8        52.800    20357162.242 9  79885810.023 9        55.700
G03  22440091.484 6 117923475.963 6        41.700    22440115.934 6  91888520.817 6        41.400    22440116.074 7  91888446.806 7        44.500    22440121.516 8  88059750.608 8        48.000
G06  21368406.742 7 112291733.205 7        46.200    21368426.988 8  87500137.128 8        49.900    21368427.512 7  87500139.123 7        47.700    21368431.766 8  83854316.175 8        51.500
R20  22014195.273 6 117719844.552 6        36.700    22014194.457 5 117719787.516 5        35.700    22014217.828 6  91559931.444 6        37.500    22014217.316 6  91559929.447 6        37.600
E33  23650292.094 8 124283122.901 8        48.700    23650311.008 8  92808809.370 8        51.200    23650306.504 8  95229897.589 8        52.300    23650308.762 9  94019462.592 9        58.500
E01  23978415.992 8 126007425.987 8        49.700    23978435.328 8  94096531.661 8        51.200    23978430.590 8  96551205.234 8        51.700    23978433.012 9  95323868.056 9        57.800
E26  26255710.914 6 137974689.239 6        41.600    26255737.141 7 103033132.779 7        42.900    26255731.844 7 105720938.596 7        43.600    26255734.723 8 104377044.799 8        49.700
E31  24480862.680 8 128647804.914 8        49.100    24480885.840 8  96068160.523 8        48.600    24480881.148 8  98574286.350 8        50.100    24480883.426 9  97321246.046 9        55.800
R22  22426580.203 7 119714599.299 7        44.400    22426579.121 7 119714595.312 7        43.200    22426599.250 6  93111365.153 6        40.800    22426599.578 6  93111361.157 6        41.400
R11  20914582.484 8 111761190.945 8        50.500    20914581.066 8 111761176.957 8        48.700    20914599.066 7  86925368.747 7        46.700    20914599.320 7  86925364.743 7        46.200
R21  20549150.641 8 109962655.172 8        52.000    20549150.605 8 109962646.173 8        50.700    20549168.629 8  85526511.962 8        48.300    20549169.457 8  85526508.965 8        48.300
R10  19283058.227 7 102789554.514 7        46.800    19283056.855 7 102789537.512 7        45.200
R09  21628223.055 7 115493486.888 7        45.800    21628223.078 7 115493496.885 7        44.800    21628238.426 7  89828284.788 7        45.000    21628238.516 7  89828278.791 7        43.600
R05  24224824.617 6 129495644.237 6        36.100    24224825.285 6 129495543.219 6        36.000    24224852.969 5 100718868.172 5        33.400    24224852.387 5 100718874.171 5        33.500
C14  25139498.547 6 130907973.006 6        36.300    25139508.984 6 101226386.766 6        40.400
C13  36986107.008 7 192596366.366 7        45.200    36986119.426 7 148927780.084 7        44.100
C11  23472433.242 7 122227117.103 7        43.800    23472445.563 7  94513808.645 7        45.800
C10  36628175.211 7 190732520.092 7        43.600    36628184.691 7 147486526.223 7        45.300
C09  38401712.828 6 199967791.268 6        36.800    38401723.227 6 154627826.144 6        39.900
C08  36479662.773 7 189959176.794 7        44.400    36479667.531 7 146888507.760 7        46.400
C07  36333529.438 7 189198221.112 7        45.700    36333535.547 7 146300093.818 7        46.900
C05  38398818.805 6 199952722.295 6        36.200    38398829.570 6 154616177.009 6        41.100
C04  38987626.508 5 203018797.083 5        35.800    38987637.895 6 156987066.638 6        39.800
C03  36231502.836 7 188666942.794 7        44.000    36231508.359 7 145889270.698 7        46.200
C02  36960537.000 6 192463213.260 6        40.700    36960542.137 7 148824787.712 7        44.600
C01  37504441.805 6 195295468.473 6        40.000    37504451.434 7 151014887.581 7        42.200
S27  38724197.859 6 203497027.340 6        39.800
S37  36742925.000 7 193085345.609 7        42.100
> 2023  2 14 10 23 54.0000000  0 33       0.000000000000
G30  21974510.766 7 115476831.866 7        44.800    21974529.992 7  89982019.193 7        45.500    21974530.254 7  89981973.187 7        45.300    21974533.828 8  86232713.539 8        49.800
G17  21780858.867 7 114459189.816 7        45.600    21780879.523 7  89189060.215 7        47.300    21780879.398 7  89189061.218 7        45.000
G19  22415623.148 7 117794901.155 7        42.900    22415645.105 5  91788325.474 5        33.600
G07  23645856.508 6 124259836.204 6        36.400    23645875.645 4  96825904.757 4        29.900    23645875.238 5  96825902.753 5        35.900
G01  23271051.766 6 122290180.196 6        37.600    23271078.609 3  95291173.462 3        22.500    23271078.469 6  95291090.461 6        41.000    23271082.094 7  91320615.776 7        44.500
G14  20357010.391 7 106976811.104 7        47.800    20357026.891 7  83358624.877 7        43.200    20357027.035 8  83358624.865 8        52.800    20357034.637 9  79885310.008 9        55.700
G03  22440090.367 7 117923471.221 7        42.000    22440114.953 6  91888517.115 6        41.400    22440115.230 7  91888443.111 7        44.700    22440120.770 8  88059747.064 8        48.000
G06  21368041.375 7 112289811.319 7        46.100    21368061.418 8  87498639.561 8        50.000    21368061.695 7  87498641.555 7        47.200    21368065.902 8  83852881.001 8        51.400
R20  22014750.602 6 117722810.066 6        36.500    22014749.434 5 117722753.043 5        34.900    22014772.227 6  91562237.955 6        36.900    22014771.832 6  91562235.959 6        37.200
E33  23650474.930 8 124284084.217 8        48.600    23650494.043 8  92809527.233 8        51.300    23650489.309 8  95230634.181 8        52.400    23650491.695 9  94020189.816 9        58.500
E01  23978548.734 8 126008123.363 8        50.000    23978568.063 8  94097052.431 8        51.000    23978563.516 8  96551739.589 8        51.900    23978565.863 9  95324395.620 9        57.800
E26  26256181.141 6 137977159.915 6        41.600    26256207.492 7 103034977.764 7        42.700    26256202.238 7 105722831.711 7        43.700    26256205.102 8 104378913.846 8        49.700
E31  24480520.773 8 128646007.663 8        49.300    24480543.605 8  96066818.428 8        48.300    24480538.914 8  98572909.244 8        50.100    24480541.355 9  97319886.445 9        55.800
R22  22426223.594 7 119712692.748 7        44.600    22426222.273 7 119712688.761 7        43.200    22426242.422 6  93109882.279 6        41.100    22426242.922 6  93109878.284 6        40.500
R11  20913992.297 8 111758042.991 8        50.600    20913992.172 8 111758028.987 8        48.700    20914010.066 7  86922920.341 7        46.800    20914010.086 7  86922916.339 7        46.500
R21  20549217.328 8 109963013.657 8        52.100    20549216.355 8 109963004.681 8        50.300    20549234.703 8  85526790.784 8        48.300    20549235.227 8  85526787.788 8        48.200
R10  19283226.805 7 102790448.901 7        47.200    19283225.199 7 102790431.909 7        45.000
R09  21628927.664 7 115497243.919 7        45.800    21628925.930 7 115497253.923 7        44.800    21628941.625 7  89831206.925 7        45.200    21628941.430 7  89831200.922 7        43.500
R05  24224519.805 5 129494015.161 5        35.800    24224519.887 5 129493914.155 5        35.200    24224548.273 5 100717601.100 5        33.600    24224547.715 5 100717607.091 5        33.500
C14  25139099.992 6 130905894.943 6        36.500    25139110.023 6 101224779.877 6        40.300
C13  36985891.633 7 192595245.043 7        45.200    36985904.063 7 148926913.009 7        44.100
C11  23472749.367 7 122228763.489 7        43.700    23472761.594 7  94515081.734 7        45.900
C10  36628065.547 7 190731949.286 7        43.700    36628075.508 7 147486084.842 7        45.500
C09  38402021.602 6 199969399.563 6        36.600    38402031.969 6 154629069.777 6        39.900
C08  36479447.758 7 189958058.324 7        44.800    36479452.668 7 146887642.884 7        46.500
C07  36333443.016 7 189197771.816 7        45.700    36333449.211 7 146299746.401 7        46.900
C05  38398814.133 6 199952697.807 6        36.300    38398824.828 6 154616158.077 6        40.600
C04  38987623.820 5 203018780.980 5        35.800    38987635.066 6 156987054.187 6        39.600
C03  36231496.281 7 188666908.883 7        43.900    36231501.801 7 145889244.475 7        46.200
C02  36960534.211 6 192463198.403 6        40.800    36960539.039 7 148824776.222 7        44.900
C01  37504436.188 6 195295437.741 6        40.000    37504446.027 7 151014863.822 7        42.500
S27  38724199.719 6 203497038.054 6        40.200
S37  36742918.422 7 193085350.710 7        42.000
> 2023  2 14 10 23 55.0000000  0 33       0.000000000000
G30  21974986.508 7 115479331.214 7        44.500    21975005.375 7  89983966.742 7        45.500    21975005.656 7  89983920.733 7        45.300    21975009.211 8  86234579.933 8        49.800
G17  21780874.750 7 114459268.029 7        45.600    21780894.336 7  89189121.166 7        47.300    21780894.336 7  89189122.163 7        44.900
G19  22415415.469 7 117793808.503 7        42.700    22415436.887 5  91787474.058 5        32.600
G07  23646515.195 6 124263294.846 6        36.400    23646533.762 5  96828599.799 5        30.500    23646533.379 5  96828597.803 5        35.900
G01  23271717.555 6 122293679.872 6        37.900    23271745.004 3  95293900.481 3        22.200    23271745.020 6  95293817.476 6        40.500    23271748.605 7  91323229.168 7        44.500
G14  20356883.000 7 106976141.998 7        47.800    20356899.891 7  83358103.494 7        43.300    20356899.930 8  83358103.490 8        52.800    20356907.516 9  79884810.352 9        55.600
G03  22440089.813 7 117923467.089 7        42.100    22440114.188 6  91888513.895 6        41.300    22440114.477 7  91888439.889 7        44.300    22440119.828 8  88059743.976 8        48.200
G06  21367675.008 7 112287889.927 7        46.300    21367695.363 8  87497142.369 8        49.800    21367695.883 7  87497144.364 7        47.200    21367700.203 8  83851446.199 8        51.300
R20  22015303.516 5 117725775.547 5        35.800    22015303.402 5 117725718.598 5        35.000    22015326.512 6  91564544.450 6        37.400    22015326.195 6  91564542.448 6        37.100
E33  23650657.992 8 124285045.860 8        48.400    23650677.211 8  92810245.343 8        51.100    23650672.566 8  95231371.025 8        52.400    23650674.836 9  94020917.294 9        58.500
E01  23978681.500 8 126008821.110 8        50.100    23978700.793 8  94097573.478 8        51.200    23978696.102 8  96552274.231 8        52.000    23978698.512 9  95324923.461 9        57.900
E26  26256651.359 6 137979630.630 6        41.200    26256677.656 7 103036822.776 7        42.700    26256672.313 7 105724724.859 7        44.000    26256675.090 8 104380782.926 8        49.600
E31  24480178.758 8 128644210.591 8        49.300    24480201.676 8  96065476.469 8        48.500    24480197.078 8  98571532.272 8        50.100    24480199.422 9  97318526.980 9        55.800
R22  22425866.063 7 119710786.681 7        44.500    22425864.980 7 119710782.684 7        42.800    22425884.918 6  93108399.775 6        41.000    22425885.203 6  93108395.781 6        40.900
R11  20913403.445 8 111754895.552 8        50.400    20913402.496 8 111754881.555 8        48.800    20913420.957 7  86920472.340 7        46.900    20913420.637 7  86920468.344 7        46.300
R21  20549284.844 8 109963372.598 8        51.500    20549284.105 8 109963363.600 8        50.200    20549302.445 8  85527069.965 8        48.100    20549303.008 8  85527066.968 8        48.000
R10  19283394.391 7 102791344.155 7        46.700    19283392.785 7 102791327.158 7        45.100
R09  21629630.445 7 115501001.391 7        45.800    21629630.117 7 115501011.400 7        44.500    21629645.941 7  89834129.402 7        44.400    21629645.367 7  89834123.399 7        43.300
R05  24224215.234 6 129492386.401 6        36.600    24224215.434 5 129492285.418 5        35.100    24224243.090 5 100716334.266 5        33.600    24224242.480 5 100716340.262 5        33.300
C14  25138700.898 6 130903816.867 6        36.300    25138711.145 6 101223172.983 6        39.900
C13  36985676.477 7 192594123.885 7        45.200    36985688.859 7 148926046.064 7        44.300
C11  23473065.695 7 122230409.855 7        43.500    23473078.094 7  94516354.806 7        46.000
C10  36627956.086 7 190731378.444 7        43.800    36627965.883 7 147485643.437 7        45.800
C09  38402329.914 6 199971007.771 6        36.700    38402340.547 6 154630313.345 6        39.900
C08  36479233.258 7 189956940.013 7        44.600    36479238.027 7 146886778.142 7        46.300
C07  36333356.688 7 189197322.499 7        46.300    36333363.125 7 146299398.960 7        47.200
C05  38398808.977 6 199952673.376 6        36.200    38398820.070 6 154616139.187 6        40.500
C04  38987620.656 5 203018764.832 5        35.500    38987631.484 6 156987041.703 6        39.200
C03  36231489.570 7 188666874.998 7        43.900    36231495.395 7 145889218.274 7        46.400
C02  36960530.852 6 192463183.592 6        40.800    36960535.996 7 148824764.775 7        45.000
C01  37504429.789 6 195295407.064 6        39.900    37504439.719 7 151014840.104 7        42.400
S27  38724200.078 6 203497048.735 6        40.000
S37  36742921.938 7 193085355.854 7        42.100
> 2023  2 14 10 23 56.0000000  0 33       0.000000000000
G30  21975462.125 7 115481830.913 7        44.700    21975481.227 7  89985914.559 7        45.700    21975481.570 7  89985868.547 7        45.600    21975485.180 8  86236446.591 8        49.900
G17  21780889.484 7 114459346.237 7        45.100    21780909.566 7  89189182.111 7        47.200    21780909.520 7  89189183.108 7        44.600
G19  22415207.469 7 117792715.972 7        42.800    22415229.500 5  91786622.742 5        33.000
G07  23647172.992 6 124266753.516 6        36.600    23647192.023 5  96831294.868 5        30.700    23647191.934 5  96831292.869 5        35.800
G01  23272382.984 6 122297179.707 6        36.900    23272410.539 3  95296627.618 3        22.800    23272410.547 6  95296544.613 6        40.800    23272414.203 7  91325842.680 7        44.600
G14  20356755.523 7 106975473.373 7        47.700    20356772.770 7  83357582.490 7        43.300    20356772.801 8  83357582.485 8        52.700    20356780.281 9  79884311.059 9        55.600
G03  22440089.367 6 117923463.575 6        41.900    22440113.641 6  91888511.157 6        41.400    22440113.957 7  91888437.151 7        43.900    22440119.164 8  88059741.353 8        48.100
G06  21367309.594 7 112285969.082 7        46.200    21367329.691 8  87495645.612 8        49.900    21367330.203 7  87495647.608 7        47.500    21367334.414 8  83850011.806 8        51.300
R20  22015858.758 6 117728741.067 6        36.700    22015857.941 5 117728684.062 5        35.700    22015881.250 6  91566850.963 6        37.500    22015880.848 6  91566848.959 6        37.200
E33  23650841.109 8 124286007.813 8        48.400    23650860.125 8  92810963.686 8        51.300    23650855.480 8  95232108.107 8        52.100    23650857.762 9  94021645.007 9        58.500
E01  23978814.242 8 126009519.236 8        50.100    23978833.563 8  94098094.809 8        51.300    23978828.922 8  96552809.160 8        52.000    23978831.375 9  95325451.593 9        57.800
E26  26257121.516 6 137982101.391 6        41.400    26257147.695 7 103038667.826 7        43.000    26257142.586 7 105726618.037 7        43.600    26257145.328 8 104382652.043 8        49.500
E31  24479836.719 8 128642413.755 8        49.100    24479859.918 8  96064134.679 8        48.800    24479855.137 8  98570155.482 8        49.900    24479857.516 9  97317167.691 9        55.800
R22  22425509.141 7 119708881.066 7        44.800    22425508.176 7 119708877.069 7        42.900    22425528.238 6  93106917.633 6        41.400    22425528.445 6  93106913.636 6        41.000
R11  20912814.422 8 111751748.662 8        50.600    20912814.063 8 111751734.665 8        48.600    20912832.094 7  86918024.776 7        47.100    20912832.105 7  86918020.773 7        46.200
R21  20549352.031 8 109963731.955 8        51.900    20549350.824 8 109963722.963 8        50.600    20549369.082 8  85527349.464 8        48.000    20549369.855 7  85527346.467 7        47.800
R10  19283562.211 7 102792240.302 7        46.700    19283560.840 7 102792223.296 7        45.400
R09  21630334.516 7 115504759.306 7        46.300    21630333.602 7 115504769.294 7        44.300    21630348.914 7  89837052.225 7        44.400    21630348.910 7  89837046.222 7        43.400
R05  24223910.875 6 129490758.053 6        36.100    24223910.723 5 129490657.035 5        35.000    24223939.199 5 100715067.753 5        32.200    24223938.207 5 100715073.744 5        32.900
C14  25138301.531 6 130901738.749 6        36.200    25138311.777 6 101221566.051 6        40.000
C13  36985461.063 7 192593002.912 7        45.200    36985473.246 7 148925179.257 7        44.100
C11  23473381.898 7 122232056.270 7        43.400    23473394.012 7  94517627.921 7        46.300
C10  36627846.453 7 190730807.619 7        44.100    36627855.660 7 147485202.048 7        45.800
C09  38402639.016 6 199972616.058 6        36.800    38402649.648 6 154631556.978 6        39.900
C08  36479018.680 7 189955821.937 7        44.500    36479023.207 7 146885913.577 7        46.300
C07  36333270.586 7 189196873.205 7        46.600    36333276.547 7 146299051.538 7        47.500
C05  38398804.711 6 199952648.975 6        36.000    38398815.637 6 154616120.320 6        40.500
C04  38987617.664 5 203018748.729 5        35.400    38987628.305 6 156987029.252 6        39.000
C03  36231483.258 7 188666841.145 7        44.000    36231489.027 7 145889192.097 7        46.600
C02  36960528.000 6 192463168.787 6        40.800    36960533.316 7 148824753.329 7        45.100
C01  37504424.133 6 195295376.393 6        39.900    37504433.629 7 151014816.389 7        42.700
S27  38724202.578 6 203497059.345 6        40.000
S37  36742921.078 7 193085361.040 7        42.400
> 2023  2 14 10 23 57.0000000  0 33       0.000000000000
G30  21975937.594 7 115484330.877 7        45.000    21975957.406 7  89987862.580 7        45.700    21975957.543 7  89987816.576 7        45.700    21975961.242 8  86238313.449 8        50.100
G17  21780904.148 7 114459424.393 7        45.500    21780923.949 7  89189243.016 7        47.400    21780923.957 7  89189244.013 7        44.700
G19  22414999.867 7 117791623.464 7        43.000    22415021.488 5  91785771.448 5        32.600
G07  23647831.227 6 124270212.175 6        36.300    23647850.004 5  96833989.928 5        30.600    23647849.879 5  96833987.929 5        35.400
G01  23273050.141 6 122300679.568 6        37.300    23273076.277 3  95299354.779 3        22.900    23273076.195 6  95299271.774 6        40.700    23273079.879 7  91328456.205 7        45.000
G14  20356628.742 7 106974805.191 7        47.800    20356645.332 7  83357061.831 7        43.400    20356645.340 8  83357061.826 8        53.000    20356652.902 9  79883812.092 9        55.700
G03  22440089.164 6 117923460.648 6        41.800    22440112.570 6  91888508.881 6        41.400    22440112.551 7  91888434.870 7        44.100    22440118.328 8  88059739.169 8        48.100
G06  21366944.250 7 112284048.700 7        46.300    21366964.262 8  87494149.210 8        49.900    21366964.730 7  87494151.205 7        47.200    21366968.922 8  83848577.752 8        51.300
R20  22016414.438 6 117731706.487 6        36.700    22016412.449 5 117731649.490 5        35.700    22016436.051 6  91569157.393 6        38.100    22016435.332 6  91569155.397 6        37.600
E33  23651024.281 8 124286970.038 8        48.600    23651043.164 8  92811682.229 8        51.500    23651038.570 8  95232845.395 8        52.400    23651040.895 9  94022372.919 9        58.600
E01  23978947.250 8 126010217.705 8        50.600    23978966.719 8  94098616.395 8        51.200    23978961.938 8  96553344.353 8        52.200    23978964.348 9  95325979.980 9        57.800
E26  26257591.414 6 137984572.174 6        41.200    26257617.781 7 103040512.890 7        43.200    26257612.762 7 105728511.230 7        43.700    26257615.469 8 104384521.169 8        49.500
E31  24479494.930 8 128640617.103 8        48.900    24479518.020 8  96062793.033 8        49.100    24479513.328 8  98568778.833 8        50.200    24479515.711 9  97315808.542 9        55.800
R22  22425152.930 7 119706975.863 7        45.000    22425151.609 7 119706971.880 7        42.800    22425171.887 6  93105435.811 6        40.900    22425171.992 6  93105431.812 6        40.500
R11  20912225.664 8 111748602.263 8        50.200    20912224.949 8 111748588.266 8        48.700    20912243.121 7  86915577.587 7        47.200    20912243.023 7  86915573.583 7        46.400
R21  20549419.188 8 109964091.699 8        51.600    20549418.332 8 109964082.700 8        50.700    20549436.770 7  85527629.263 7        47.500    20549437.297 7  85527626.267 7        47.300
R10  19283730.539 7 102793137.245 7        46.500    19283728.934 7 102793120.239 7        45.300
R09  21631037.852 7 115508517.624 7        46.100    21631037.406 7 115508527.612 7        44.300    21631052.660 7  89839975.362 7        45.100    21631052.754 7  89839969.359 7        43.600
R05  24223606.117 6 129489129.984 6        36.200    24223605.496 5 129489028.984 5        34.600    24223633.121 5 100713801.454 5        33.100    24223632.926 5 100713807.458 5        33.400
C14  25137902.781 6 130899660.589 6        36.500    25137912.930 6 101219959.089 6        40.100
C13  36985245.891 7 192591882.063 7        45.300    36985258.207 7 148924312.548 7        44.400
C11  23473697.570 7 122233702.609 7        43.800    23473710.277 7  94518900.972 7        46.000
C10  36627736.930 7 190730236.681 7        43.800    36627746.371 7 147484760.568 7        45.900
C09  38402947.625 6 199974224.243 6        37.100    38402958.570 6 154632800.525 6        39.800
C08  36478803.977 7 189954704.003 7        44.500    36478808.766 7 146885049.123 7        46.100
C07  36333184.102 7 189196423.858 7        46.400    36333190.293 7 146298704.078 7        47.000
C05  38398800.008 6 199952624.537 6        36.300    38398810.953 6 154616101.426 6        40.800
C04  38987614.117 5 203018732.613 5        35.400    38987625.469 6 156987016.795 6        39.200
C03  36231477.086 7 188666807.288 7        43.900    36231482.129 7 145889165.915 7        46.600
C02  36960525.531 6 192463153.975 6        40.600    36960530.230 7 148824741.880 7        45.000
C01  37504418.156 6 195295345.693 6        39.600    37504427.813 7 151014792.647 7        42.500
S27  38724206.703 6 203497069.972 6        40.200
S37  36742924.438 7 193085366.174 7        42.000
> 2023  2 14 10 23 58.0000000  0 33       0.000000000000
G30  21976413.398 7 115486831.145 7        45.100    21976432.695 7  89989810.847 7        45.500    21976433.086 7  89989764.838 7        45.600    21976436.531 8  86240180.535 8        50.300
G17  21780919.281 7 114459502.524 7        45.500    21780939.340 7  89189303.902 7        47.400    21780939.188 7  89189304.893 7        44.900
G19  22414791.789 7 117790531.004 7        43.000    22414813.574 5  91784920.183 5        33.100
G07  23648489.125 5 124273670.734 5        35.700    23648508.262 5  96836684.905 5        30.200    23648508.262 5  96836682.909 5        35.400
G01  23273715.406 6 122304179.504 6        37.300    23273742.902 3  95302081.998 3        23.300    23273742.617 6  95301998.993 6        40.500    23273746.797 7  91331069.790 7        45.000
G14  20356501.578 7 106974137.453 7        47.500    20356518.344 7  83356541.522 7        43.300    20356518.246 8  83356541.511 8        52.900    20356525.973 9  79883313.460 9        55.700
G03  22440088.336 6 117923458.263 6        41.800    22440112.199 6  91888507.022 6        41.500    22440112.516 7  91888433.011 7        44.400    22440117.957 8  88059737.387 8        48.100
G06  21366578.641 7 112282128.759 7        46.200    21366599.012 8  87492653.150 8        49.900    21366599.352 7  87492655.153 7        47.000    21366603.793 8  83847144.035 8        51.400
R20  22016968.344 6 117734671.833 6        36.500    22016967.879 6 117734614.828 6        36.200    22016991.160 6  91571463.765 6        38.100    22016990.637 6  91571461.776 6        37.300
E33  23651207.289 8 124287932.514 8        48.600    23651226.359 8  92812400.963 8        51.700    23651221.809 8  95233582.875 8        52.600    23651224.039 9  94023101.025 9        58.500
E01  23979080.297 8 126010916.515 8        50.400    23979099.508 8  94099138.232 8        51.300    23979094.914 8  96553879.806 8        52.100    23979097.277 9  95326508.625 9        57.800
E26  26258061.477 6 137987042.905 6        41.100    26258088.016 7 103042357.907 7        43.200    26258082.855 7 105730404.381 7        43.800    26258085.637 8 104386390.252 8        49.500
E31  24479153.219 8 128638820.600 8        48.900    24479176.191 8  96061451.496 8        49.200    24479171.500 8  98567402.297 8        50.300    24479173.789 9  97314449.505 9        55.800
R22  22424795.563 7 119705071.081 7        44.700    22424794.480 7 119705067.087 7        42.900    22424815.117 6  93103954.321 6        40.500    22424814.969 6  93103950.316 6        40.900
R11  20911636.727 8 111745456.356 8        50.000    20911636.602 8 111745442.366 8        48.900    20911654.336 7  86913130.778 7        47.100    20911654.496 7  86913126.774 7        46.200
R21  20549486.820 8 109964451.793 8        51.700    20549486.434 8 109964442.815 8        50.800    20549504.371 7  85527909.339 7        47.500    20549505.059 7  85527906.343 7        47.600
R10  19283899.109 7 102794035.013 7        46.500    19283897.504 7 102794018.007 7        45.600
R09  21631742.141 7 115512276.329 7        46.100    21631741.344 7 115512286.317 7        44.000    21631757.406 7  89842898.793 7        45.000    21631757.063 7  89842892.796 7        43.600
R05  24223300.891 6 129487502.195 6        36.400    24223301.793 5 129487401.238 5        34.900    24223329.309 5 100712535.381 5        33.600    24223329.164 5 100712541.377 5        32.800
C14  25137503.633 6 130897582.328 6        36.400    25137514.250 6 101218352.049 6        40.600
C13  36985030.734 7 192590761.327 7        45.000    36985043.090 7 148923445.924 7        44.200
C11  23474013.805 7 122235348.923 7        44.100    23474026.066 7  94520174.006 7        45.800
C10  36627627.516 7 190729665.690 7        43.900    36627636.570 7 147484319.040 7        45.700
C09  38403256.547 6 199975832.382 6        36.900    38403267.379 6 154634044.035 6        39.700
C08  36478589.266 7 189953586.239 7        44.200    36478594.074 7 146884184.800 7        46.200
C07  36333097.727 7 189195974.490 7        45.900    36333103.969 7 146298356.604 7        47.200
C05  38398795.602 6 199952600.040 6        36.100    38398806.105 6 154616082.483 6        40.900
C04  38987610.625 5 203018716.516 5        35.000    38987622.359 6 156987004.356 6        39.200
C03  36231469.883 7 188666773.361 7        43.900    36231475.559 7 145889139.680 7        46.600
C02  36960522.844 6 192463139.133 6        40.800    36960527.543 7 148824730.400 7        45.000
C01  37504412.477 6 195295314.985 6        39.600    37504421.973 7 151014768.908 7        42.500
S27  38724207.313 6 203497080.611 6        40.400
S37  36742920.828 6 193085371.286 6        41.900
> 2023  2 14 10 23 59.0000000  0 33       0.000000000000
G30  21976889.531 7 115489331.717 7        45.000    21976908.426 7  89991759.340 7        45.500    21976908.711 7  89991713.337 7        45.400    21976912.316 8  86242047.842 8        50.200
G17  21780934.172 7 114459580.607 7        45.400    21780953.973 7  89189364.745 7        47.600    21780954.016 7  89189365.741 7        44.600
G19  22414583.922 7 117789438.565 7        42.800    22414606.047 5  91784068.933 5        33.000
G07  23649147.008 5 124277129.301 5        35.700    23649166.352 5  96839379.884 5        30.500    23649166.438 5  96839377.895 5        35.800
G01  23274380.969 6 122307679.527 6        37.200    23274408.859 3  95304809.283 3        22.900    23274408.531 6  95304726.285 6        40.200    23274412.699 7  91333683.442 7        44.600
G14  20356374.547 7 106973470.164 7        47.500    20356391.500 7  83356021.553 7        43.400    20356391.582 8  83356021.549 8        52.900    20356399.188 9  79882815.168 9        55.600
G03  22440088.023 7 117923456.519 7        42.000    22440112.297 6  91888505.657 6        41.600    22440112.555 7  91888431.648 7        44.500    22440117.758 8  88059736.081 8        48.000
G06  21366213.383 7 112280209.339 7        46.000    21366233.750 8  87491157.503 8        49.900    21366234.133 7  87491159.500 7        47.300    21366238.648 8  83845710.701 8        51.300
R20  22017522.578 6 117737637.160 6        36.500    22017521.879 6 117737580.166 6        36.000    22017544.602 6  91573770.127 6        37.900    22017544.441 6  91573768.139 6        36.800
E33  23651390.422 8 124288895.310 8        48.600    23651409.465 8  92813119.934 8        51.300    23651404.918 8  95234320.604 8        52.400    23651407.156 9  94023829.378 9        58.500
E01  23979213.164 8 126011615.669 8        50.200    23979232.578 8  94099660.326 8        51.100    23979227.938 8  96554415.519 8        51.800    23979230.363 9  95327037.530 9        57.800
E26  26258531.984 6 137989513.687 6        41.000    26258558.441 7 103044202.968 7        43.000    26258553.000 7 105732297.578 7        43.900    26258555.793 8 104388259.382 8        49.600
E31  24478811.188 8 128637024.310 8        48.900    24478834.281 8  96060110.117 8        49.200    24478829.500 8  98566025.928 8        50.400    24478831.891 9  97313090.631 9        55.800
R22  22424438.688 7 119703166.750 7        44.800    22424437.957 7 119703162.762 7        42.800    22424458.203 6  93102473.175 6        40.700    22424458.301 6  93102469.163 6        40.400
R11  20911047.992 8 111742310.985 8        50.100    20911047.984 8 111742296.989 8        48.600    20911065.938 7  86910684.382 7        47.100    20911065.824 7  86910680.379 7        46.200
R21  20549553.781 8 109964812.312 8        51.600    20549553.277 8 109964803.320 8        50.800    20549571.336 7  85528189.739 7        47.900    20549571.988 7  85528186.742 7        47.900
R10  19284067.195 7 102794933.628 7        46.700    19284066.293 7 102794916.637 7        45.300
R09  21632447.008 7 115516035.438 7        46.000    21632445.625 7 115516045.454 7        43.700    21632461.367 7  89845822.546 7        44.900    21632461.121 7  89845816.549 7        43.300
R05  24222997.336 6 129485874.852 6        36.400    24222996.246 5 129485773.818 5        34.500    24223024.234 5 100711269.656 5        33.400    24223024.297 5 100711275.659 5        33.100
C14  25137103.883 6 130895504.017 6        36.600    25137114.598 6 101216744.969 6        40.300
C13  36984815.586 7 192589640.739 7        45.000    36984828.145 7 148922579.415 7        44.300
C11  23474329.625 7 122236995.240 7        43.400    23474342.449 7  94521447.038 7        45.800
C10  36627517.578 7 190729094.686 7        43.600    36627527.355 7 147483877.509 7        45.700
C09  38403565.227 6 199977440.449 6        37.600    38403576.246 6 154635287.497 6        39.500
C08  36478374.789 7 189952468.643 7        44.300    36478379.477 7 146883320.608 7        46.200
C07  36333011.469 7 189195525.117 7        46.000    36333017.684 7 146298009.122 7        47.000
C05  38398790.563 6 199952575.621 6        36.000    38398801.488 6 154616063.598 6        40.500
C04  38987607.711 5 203018700.394 5        34.800    38987618.965 6 156986991.889 6        39.000
C03  36231464.023 7 188666739.477 7        43.900    36231469.195 7 145889113.481 7        46.400
C02  36960519.531 6 192463124.294 6        40.900    36960524.629 7 148824718.926 7        44.600
C01  37504406.164 6 195295284.279 6        39.800    37504416.129 7 151014745.165 7        42.400
S27  38724209.656 6 203497091.212 6        39.800
S37  36742927.391 7 193085376.433 7        42.200
> 2023  2 14 10 24  0.0000000  0 33       0.000000000000
G30  21977365.172 7 115491832.594 7        45.600    21977384.527 7  89993708.079 7        45.700    21977384.727 7  89993662.068 7        45.700    21977388.480 8  86243915.382 8        50.000
G17  21780948.578 7 114459658.666 7        45.500    21780968.840 7  89189425.573 7        47.300    21780968.750 7  89189426.569 7        44.400
G19  22414376.023 7 117788346.228 7        42.900    22414397.813 5  91783217.775 5        33.000
G07  23649806.039 6 124280587.869 6        36.000    23649824.422 5  96842074.869 5        30.200    23649824.367 6  96842072.873 6        36.000
G01  23275047.328 6 122311179.670 6        38.000    23275074.750 3  95307536.663 3        22.600    23275074.336 6  95307453.673 6        40.400    23275078.410 7  91336297.185 7        44.400
G14  20356247.531 7 106972803.354 7        47.700    20356264.293 7  83355501.968 7        43.200    20356264.430 8  83355501.956 8        52.500    20356272.039 9  79882317.222 9        55.800
G03  22440088.313 6 117923455.327 6        41.800    22440112.051 6  91888504.723 6        41.300    22440112.516 7  91888430.720 7        44.100    22440117.750 8  88059735.185 8        48.000
G06  21365848.531 7 112278290.392 7        46.300    21365868.625 8  87489662.221 8        50.000    21365869.395 7  87489664.217 7        47.000    21365873.465 8  83844277.730 8        51.500
R20  22018078.117 6 117740602.401 6        36.300    22018077.301 5 117740545.442 5        35.700    22018099.910 6  91576076.435 6        37.600    22018099.387 6  91576074.438 6        37.100
E33  23651573.641 8 124289858.403 8        48.800    23651592.910 8  92813839.125 8        51.300    23651588.176 8  95235058.558 8        52.400    23651590.621 9  94024557.949 9        58.500
E01  23979346.273 8 126012315.186 8        50.100    23979365.688 8  94100182.695 8        51.200    23979361.047 8  96554951.520 8        51.700    23979363.410 9  95327566.715 9        57.800
E26  26259002.016 6 137991984.512 6        41.000    26259028.566 7 103046048.063 7        43.200    26259023.176 7 105734190.807 7        43.300    26259025.996 8 104390128.544 8        49.600
E31  24478469.383 8 128635228.211 8        48.600    24478492.566 8  96058768.881 8        48.800    24478487.738 8  98564649.701 8        50.300    24478490.191 9  97311731.896 9        55.800
R22  22424082.039 7 119701262.876 7        44.300    22424081.074 7 119701258.874 7        42.600    22424101.547 6  93100992.376 6        40.900    22424101.332 6  93100988.372 6        40.200
R11  20910460.039 8 111739166.131 8        49.900    20910458.855 8 111739152.142 8        48.500    20910476.695 7  86908238.401 7        47.000    20910476.676 7  86908234.398 7        46.100
R21  20549621.164 8 109965173.204 8        52.000    20549620.660 8 109965164.213 8        51.100    20549639.406 8  85528470.434 8        48.000    20549639.609 8  85528467.437 8        48.000
R10  19284236.492 7 102795833.098 7        46.800    19284234.887 7 102795816.106 7        45.300
R09  21633150.109 7 115519795.000 7        46.400    21633149.078 7 115519804.989 7        43.700    21633164.930 7  89848746.652 7        44.900    21633164.688 7  89848740.649 7        43.300
R05  24222693.688 6 129484247.831 6        36.000    24222692.008 5 129484146.791 5        34.800    24222719.680 5 100710004.183 5        33.600    24222719.793 5 100710010.184 5        33.600
C14  25136705.031 6 130893425.675 6        36.800    25136715.715 6 101215137.863 6        40.400
C13  36984600.250 7 192588520.311 7        45.000    36984612.738 7 148921713.034 7        44.300
C11  23474646.477 7 122238641.507 7        43.700    23474658.516 7  94522720.035 7        45.600
C10  36627407.930 7 190728523.594 7        43.800    36627417.766 7 147483435.900 7        45.700
C09  38403874.313 6 199979048.531 6        37.200    38403884.973 6 154636530.963 6        39.400
C08  36478159.969 7 189951351.184 7        44.500    36478165.105 7 146882456.520 7        46.100
C07  36332925.484 7 189195075.698 7        46.000    36332931.473 7 146297661.604 7        46.700
C05  38398785.836 6 199952551.174 6        36.400    38398796.609 6 154616044.701 6        40.500
C04  38987605.266 5 203018684.287 5        34.900    38987616.203 6 156986979.438 6        39.100
C03  36231457.305 7 188666705.579 7        43.900    36231462.445 7 145889087.272 7        46.500
C02  36960517.070 6 192463109.454 6        40.800    36960521.766 7 148824707.453 7        45.000
C01  37504400.063 6 195295253.568 6        40.000    37504410.316 7 151014721.420 7        42.400
S27  38724211.078 6 203497101.799 6        40.200
S37  36742923.609 7 193085381.556 7        42.000
> 2023  2 14 10 24  1.0000000  0 33       0.000000000000
G30  21977841.266 7 115494333.828 7        45.500    21977860.523 7  89995657.087 7        45.500    21977860.934 7  89995611.082 7        45.700    21977864.414 8  86245783.183 8        49.900
G17  21780964.031 7 114459736.727 7        45.400    21780983.738 7  89189486.403 7        47.300    21780983.805 7  89189487.393 7        44.500
G19  22414167.797 7 117787253.921 7        42.700    22414189.996 5  91782366.639 5        32.600
G07  23650463.148 6 124284046.434 6        36.300    23650482.754 5  96844769.848 5        30.400    23650482.512 5  96844767.852 5        35.900
G01  23275713.336 6 122314679.920 6        37.300    23275740.625 3  95310264.120 3        22.800    23275740.191 6  95310181.144 6        40.500    23275744.406 7  91338911.006 7        44.500
G14  20356120.773 7 106972136.989 7        47.500    20356137.754 7  83354982.726 7        43.300    20356137.805 8  83354982.714 8        52.800    20356145.324 9  79881819.620 9        55.700
G03  22440087.641 6 117923454.811 6        41.800    22440111.930 6  91888504.325 6        41.400    22440112.117 7  91888430.321 7        44.000    22440117.570 8  88059734.805 8        48.300
G06  21365482.953 7 112276371.939 7        46.300    21365502.840 8  87488167.324 8        49.900    21365503.195 7  87488169.319 7        47.500    21365507.738 8  83842845.117 8        51.400
R20  22018632.055 5 117743567.675 5        35.700    22018631.473 5 117743510.685 5        34.800    22018654.121 6  91578382.764 6        37.800    22018653.766 6  91578380.767 6        37.500
E33  23651756.977 8 124290821.792 8        48.200    23651776.102 8  92814558.538 8        51.700    23651771.648 8  95235796.736 8        52.400    23651773.898 9  94025286.747 9        58.500
E01  23979479.594 8 126013015.078 8        50.100    23979499.000 8  94100705.345 8        51.100    23979494.313 8  96555487.801 8        51.800    23979496.699 9  95328096.181 9        57.800
E26  26259472.508 6 137994455.382 6        41.300    26259498.879 7 103047893.190 7        43.500    26259493.582 7 105736084.068 7        44.200    26259496.359 8 104391997.738 8        49.700
E31  24478127.711 8 128633432.294 8        48.800    24478150.688 8  96057427.777 8        48.900    24478146.047 8  98563273.611 8        50.300    24478148.414 9  97310373.308 9        55.900
R22  22423724.586 7 119699359.421 7        44.100    22423724.559 7 119699355.432 7        42.700    22423744.367 6  93099511.908 6        40.800    22423744.945 6  93099507.903 6        40.300
R11  20909871.422 8 111736021.842 8        49.800    20909871.180 8 111736007.845 8        48.800    20909889.348 7  86905792.859 7        46.900    20909889.289 7  86905788.855 7        46.300
R21  20549689.063 8 109965534.520 8        51.900    20549688.324 8 109965525.529 8        50.700    20549706.473 7  85528751.456 7        47.900    20549707.145 8  85528748.459 8        48.000
R10  19284404.703 7 102796733.411 7        46.600    19284403.918 7 102796716.403 7        45.200
R09  21633854.289 7 115523554.966 7        46.500    21633853.609 7 115523564.952 7        43.900    21633869.406 7  89851671.066 7        44.700    21633869.016 7  89851665.070 7        43.600
R05  24222388.250 5 129482621.155 5        35.800    24222387.395 5 129482520.184 5        34.700    24222415.500 5 100708738.992 5        33.600    24222415.391 5 100708744.988 5        33.700
C14  25136306.297 6 130891347.294 6        36.300    25136316.309 6 101213530.732 6        40.500
C13  36984385.031 7 192587400.037 7        45.200    36984397.418 7 148920846.767 7        44.600
C11  23474962.195 7 122240287.787 7        43.700    23474974.852 7  94523993.047 7        45.700
C10  36627298.422 7 190727952.522 7        43.700    36627307.648 7 147482994.313 7        45.900
C09  38404183.563 6 199980656.576 6        37.600    38404193.648 6 154637774.408 6        39.400
C08  36477945.461 7 189950233.952 7        44.500    36477950.594 7 146881592.609 7        46.300
C07  36332838.867 7 189194626.284 7        46.000    36332845.359 7 146297314.088 7        46.600
C05  38398780.969 5 199952526.725 5        35.800    38398791.992 6 154616025.795 6        40.700
C04  38987601.438 5 203018668.183 5        35.000    38987613.168 6 156986966.987 6        39.300
C03  36231450.664 7 188666671.710 7        43.900    36231455.953 7 145889061.086 7        46.400
C02  36960513.867 6 192463094.622 6        40.600    36960518.750 7 148824695.991 7        45.400
C01  37504394.555 6 195295222.867 6        39.900    37504404.320 7 151014697.688 7        42.500
S27  38724212.906 6 203497112.479 6        40.000
S37  36742922.094 7 193085386.695 7        42.100
> 2023  2 14 10 24  2.0000000  0 33       0.000000000000
G30  21978317.281 7 115496835.335 7        45.300    21978336.598 7  89997606.312 7        45.500    21978336.910 7  89997560.308 7        46.100    21978340.609 8  86247651.193 8        49.800
G17  21780978.695 7 114459814.759 7        45.300    21780998.371 7  89189547.209 7        47.500    21780998.273 7  89189548.199 7        44.500
G19  22413959.984 7 117786161.692 7        42.800    22413982.063 5  91781515.561 5        32.700
G07  23651121.805 6 124287504.921 6        36.600    23651140.875 5  96847464.770 5        30.300    23651140.934 6  96847462.771 6        36.000
G01  23276379.469 6 122318180.212 6        37.300    23276406.359 3  95312991.626 3        22.900    23276405.895 6  95312908.644 6        40.600    23276410.078 7  91341524.861 7        44.600
G14  20355994.117 7 106971471.099 7        47.600    20356010.801 7  83354463.850 7        43.700    20356010.906 8  83354463.845 8        52.900    20356018.605 9  79881322.370 9        55.700
G03  22440087.461 6 117923454.871 6        41.800    22440111.570 6  91888504.373 6        41.500    22440111.785 7  91888430.370 7        44.200    22440117.152 8  88059734.850 8        48.100
G06  21365118.602 7 112274453.974 7        46.200    21365138.730 8  87486672.810 8        50.000    21365139.211 7  87486674.805 7        47.500    21365143.395 8  83841412.878 8        51.400
R20  22019187.461 6 117746532.867 6        36.100    22019186.059 5 117746475.867 5        35.200    22019208.922 6  91580689.020 6        37.600    22019208.219 6  91580687.023 6        37.400
E33  23651940.453 8 124291785.474 8        48.400    23651959.691 8  92815278.171 8        51.400    23651955.051 8  95236535.142 8        52.400    23651957.340 9  94026015.767 9        58.500
E01  23979612.844 8 126013715.311 8        49.900    23979632.293 8  94101228.246 8        50.900    23979627.508 8  96556024.343 8        52.100    23979629.906 9  95328625.905 9        57.800
E26  26259942.484 6 137996926.228 6        41.300    26259968.891 7 103049738.302 7        43.800    26259963.684 7 105737977.308 7        44.000    26259966.402 8 104393866.917 8        49.700
E31  24477786.023 8 128631636.583 8        48.800    24477808.969 8  96056086.838 8        49.000    24477804.234 8  98561897.688 8        50.100    24477806.691 9  97309014.868 9        55.800
R22  22423369.008 7 119697456.390 7        43.700    22423368.043 7 119697452.405 7        42.600    22423388.164 6  93098031.770 6        41.100    22423388.305 6  93098027.766 6        40.600
R11  20909282.773 8 111732878.057 8        49.700    20909282.766 8 111732864.045 8        48.900    20909300.676 7  86903347.691 7        46.900    20909300.801 7  86903343.687 7        46.300
R21  20549756.469 8 109965896.259 8        51.600    20549755.379 8 109965887.268 8        50.500    20549773.445 8  85529032.814 8        48.100    20549774.305 7  85529029.817 7        47.700
R10  19284573.984 7 102797634.577 7        46.500    19284572.613 7 102797617.570 7        45.000
R09  21634558.859 7 115527315.382 7        46.600    21634557.828 7 115527325.382 7        43.900    21634573.039 7  89854595.837 7        44.900    21634572.930 7  89854589.835 7        43.400
R05  24222082.469 5 129480994.851 5        35.400    24222082.434 5 129480893.872 5        34.300    24222111.078 5 100707474.086 5        34.000    24222110.770 5 100707480.074 5        33.600
C14  25135906.984 6 130889268.903 6        36.500    25135917.137 6 101211923.591 6        40.000
C13  36984170.023 7 192586279.902 7        45.600    36984182.570 7 148919980.612 7        44.500
C11  23475278.688 7 122241934.040 7        43.800    23475290.625 7  94525266.030 7        45.800
C10  36627188.102 7 190727381.408 7        44.100    36627197.832 7 147482552.694 7        45.900
C09  38404492.602 6 199982264.603 6        37.500    38404502.426 6 154639017.839 6        39.500
C08  36477730.570 7 189949116.880 7        44.700    36477735.961 7 146880728.816 7        46.400
C07  36332752.648 7 189194176.862 7        46.200    36332758.930 7 146296966.573 7        46.800
C05  38398776.125 6 199952502.269 6        36.500    38398787.172 6 154616006.882 6        40.500
C04  38987598.133 5 203018652.058 5        35.000    38987610.316 6 156986954.521 6        39.200
C03  36231444.445 7 188666637.821 7        44.000    36231449.816 7 145889034.884 7        46.200
C02  36960510.711 6 192463079.780 6        40.800    36960515.934 7 148824684.513 7        45.300
C01  37504388.664 6 195295192.177 6        40.000    37504398.484 7 151014673.960 7        42.300
S27  38724215.563 6 203497123.170 6        40.200
S37  36742922.828 7 193085391.839 7        42.000
> 2023  2 14 10 24  3.0000000  0 33       0.000000000000
G30  21978793.109 7 115499337.132 7        45.100    21978812.430 7  89999555.764 7        45.700    21978812.809 7  89999509.760 7        46.000    21978816.266 8  86249519.415 8        49.800
G17  21780993.313 7 114459892.759 7        45.300    21781013.301 7  89189607.993 7        47.200    21781013.539 7  89189608.984 7        45.000
G19  22413752.523 7 117785069.507 7        43.000    22413774.234 5  91780664.511 5        32.500
G07  23651779.891 6 124290963.466 6        36.700    23651799.102 5  96850159.731 5        30.200    23651799.102 5  96850157.735 5        35.800
G01  23277045.641 6 122321680.582 6        37.100    23277073.109 3  95315719.176 3        23.400    23277072.699 6  95315636.198 6        40.900    23277076.887 7  91344138.766 7        44.700
G14  20355867.555 7 106970805.636 7        47.600    20355884.172 7  83353945.314 7        43.200    20355884.043 8  83353945.303 8        52.900    20355891.738 9  79880825.431 9        55.700
G03  22440087.969 6 117923455.501 6        41.700    22440112.207 6  91888504.862 6        41.400    22440112.313 7  91888430.857 7        44.300    22440117.848 8  88059735.322 8        48.400
G06  21364753.547 7 112272536.469 7        46.300    21364773.805 8  87485178.657 8        50.000    21364774.316 7  87485180.645 7        47.500    21364778.523 8  83839980.973 8        51.400
R20  22019741.563 6 117749498.005 6        36.900    22019740.629 5 117749440.980 5        34.800    22019763.520 6  91582995.232 6        37.600    22019762.906 6  91582993.229 6        37.400
E33  23652123.891 8 124292749.418 8        48.700    23652143.031 8  92815997.997 8        51.500    23652138.156 8  95237273.747 8        52.700    23652140.637 9  94026744.985 9        58.500
E01  23979746.133 8 126014415.873 8        49.500    23979765.598 8  94101751.396 8        50.900    23979760.770 8  96556561.139 8        52.000    23979763.184 9  95329155.877 9        57.700
E26  26260412.602 6 137999397.099 6        41.500    26260439.168 7 103051583.429 7        43.700    26260433.871 7 105739870.569 7        43.500    26260436.570 8 104395736.111 8        49.600
E31  24477444.227 8 128629841.043 8        48.600    24477467.441 8  96054746.017 8        49.100    24477462.656 8  98560521.893 8        49.800    24477465.016 9  97307656.563 9        55.900
R22  22423012.391 7 119695553.794 7        43.900    22423011.426 7 119695549.802 7        42.700    22423031.793 6  93096551.982 6        41.300    22423031.746 6  93096547.977 6        40.700
R11  20908694.695 8 111729734.757 8        49.900    20908694.453 8 111729720.761 8        48.900    20908712.637 7  86900902.907 7        47.100    20908712.332 7  86900898.903 7        46.400
R21  20549824.461 8 109966258.401 8        51.800    20549823.605 8 109966249.418 8        50.800    20549841.539 7  85529314.483 7        47.900    20549842.387 7  85529311.486 7        47.300
R10  19284743.109 7 102798536.571 7        46.500    19284742.324 7 102798519.579 7        44.900
R09  21635263.938 7 115531076.158 7        46.500    21635262.203 7 115531086.160 7        43.700    21635277.738 7  89857520.882 7        45.100    21635277.641 7  89857514.885 7        43.600
R05  24221778.609 6 129479368.855 6        36.600    24221779.043 5 129479267.854 5        35.300    24221807.957 5 100706209.404 5        33.400    24221807.453 5 100706215.393 5        34.100
C14  25135507.781 5 130887190.434 5        35.800    25135518.273 6 101210316.388 6        40.200
C13  36983954.742 7 192585159.904 7        45.200    36983967.332 7 148919114.559 7        43.900
C11  23475594.695 7 122243580.250 7        44.200    23475607.180 7  94526538.985 7        45.600
C10  36627078.766 7 190726810.206 7        44.300    36627088.316 7 147482111.006 7        46.000
C09  38404801.367 6 199983872.566 6        37.700    38404811.227 6 154640261.215 6        39.900
C08  36477516.414 7 189947999.984 7        44.600    36477521.070 7 146879865.162 7        46.600
C07  36332666.070 7 189193727.353 7        45.900    36332672.652 7 146296618.988 7        46.400
C05  38398771.891 6 199952477.791 6        36.900    38398782.762 6 154615987.960 6        40.400
C04  38987595.414 5 203018635.954 5        34.800    38987607.180 6 156986942.069 6        39.100
C03  36231437.930 7 188666603.923 7        43.900    36231443.254 7 145889008.671 7        46.300
C02  36960507.781 6 192463064.933 6        40.700    36960513.512 7 148824673.035 7        45.700
C01  37504382.406 6 195295161.445 6        39.900    37504392.555 7 151014650.195 7        42.800
S27  38724218.469 6 203497133.823 6        40.000
S37  36742932.125 7 193085396.952 7        42.100
> 2023  2 14 10 24  4.0000000  0 33       0.000000000000
G30  21979269.313 7 115501839.252 7        44.900    21979288.730 7  90001505.468 7        45.700    21979288.949 7  90001459.464 7        45.600    21979292.625 8  86251387.884 8        49.800
G17  21781007.719 7 114459970.732 7        45.300    21781027.996 7  89189668.749 7        47.300    21781028.105 7  89189669.746 7        44.900
G19  22413544.805 7 117783977.367 7        43.100    22413566.816 5  91779813.496 5        33.200
G07  23652437.836 6 124294421.924 6        36.500    23652457.398 5  96852854.638 5        30.700    23652457.555 5  96852852.635 5        35.200
G01  23277711.805 6 122325181.078 6        37.500    23277739.074 3  95318446.841 3        22.500    23277738.480 6  95318363.851 6        40.900    23277742.793 7  91346752.773 7        44.700
G14  20355740.859 7 106970140.667 7        47.900    20355757.855 7  83353427.158 7        43.500    20355757.891 8  83353427.147 8        53.000    20355765.480 9  79880328.872 9        55.700
G03  22440087.648 6 117923456.729 6        41.700    22440111.949 6  91888505.821 6        41.300    22440112.074 7  91888431.812 7        44.400    22440117.648 8  88059736.235 8        48.100
G06  21364388.719 7 112270619.482 7        46.200    21364408.730 8  87483684.899 8        50.000    21364409.398 7  87483686.894 7        47.700    21364413.512 8  83838549.462 8        51.400
R20  22020296.953 6 117752463.081 6        36.800    22020294.730 5 117752406.071 5        35.100    22020317.418 6  91585301.397 6        37.500    22020317.199 6  91585299.401 6        37.500
E33  23652307.484 8 124293713.664 8        48.500    23652326.430 8  92816718.050 8        51.700    23652321.645 8  95238012.589 8        52.700    23652324.102 9  94027474.427 9        58.500
E01  23979879.570 8 126015116.809 8        49.000    23979898.887 8  94102274.824 8        50.600    23979894.289 8  96557098.219 8        52.200    23979896.602 9  95329686.135 9        57.800
E26  26260882.953 6 138001867.989 6        41.200    26260909.262 7 103053428.572 7        43.300    26260903.961 7 105741763.846 7        43.700    26260906.754 8 104397605.314 8        49.600
E31  24477102.602 8 128628045.681 8        48.600    24477125.621 8  96053405.337 8        49.500    24477120.840 8  98559146.232 8        50.000    24477123.336 9  97306298.393 9        55.900
R22  22422655.977 7 119693651.654 7        44.100    22422655.480 7 119693647.656 7        43.200    22422675.594 6  93095072.537 6        41.500    22422675.719 6  93095068.538 6        40.900
R11  20908106.734 8 111726591.988 8        50.200    20908106.727 8 111726577.992 8        48.300    20908124.594 7  86898458.540 7        46.800    20908124.531 7  86898454.537 7        46.900
R21  20549891.938 8 109966620.963 8        51.800    20549891.199 8 109966611.957 8        50.900    20549909.836 7  85529596.472 7        47.800    20549910.262 7  85529593.475 7        47.300
R10  19284913.266 7 102799439.431 7        46.400    19284911.426 7 102799422.426 7        45.100
R09  21635968.273 7 115534837.331 7        46.400    21635966.070 7 115534847.349 7        44.000    21635981.777 7  89860446.240 7        45.200    21635981.609 7  89860440.236 7        43.600
R05  24221476.469 6 129477743.178 6        36.600    24221475.258 5 129477642.191 5        35.500    24221503.715 5 100704944.960 5        33.900    24221503.793 5 100704950.956 5        34.000
C14  25135108.813 6 130885111.885 6        36.000    25135118.699 6 101208709.123 6        40.100
C13  36983739.883 7 192584040.036 7        45.100    36983752.133 7 148918248.613 7        43.900
C11  23475910.875 7 122245226.454 7        44.300    23475923.113 7  94527811.937 7        45.700
C10  36626968.961 7 190726238.957 7        44.300    36626978.527 7 147481669.284 7        45.900
C09  38405109.828 6 199985480.464 6        37.400    38405119.910 6 154641504.547 6        40.000
C08  36477302.055 7 189946883.277 7        44.300    36477306.820 7 146879001.657 7        46.100
C07  36332579.852 7 189193277.862 7        46.300    36332586.078 7 146296271.418 7        46.600
C05  38398767.383 5 199952453.327 5        35.900    38398778.008 6 154615969.044 6        40.500
C04  38987591.961 5 203018619.841 5        34.900    38987604.070 6 156986929.613 6        39.100
C03  36231430.992 7 188666570.019 7        43.900    36231436.699 7 145888982.458 7        46.300
C02  36960505.195 6 192463050.096 6        40.600    36960510.465 7 148824661.561 7        45.300
C01  37504376.680 6 195295130.739 6        39.600    37504386.645 7 151014626.454 7        42.300
S27  38724220.469 6 203497144.485 6        40.100
S37  36742931.813 7 193085402.073 7        42.000
> 2023  2 14 10 24  5.0000000  0 33       0.000000000000
G30  21979745.570 7 115504341.691 7        45.100    21979764.922 7  90003455.421 7        45.500    21979765.414 7  90003409.415 7        45.200    21979768.758 8  86253256.584 8        50.000
G17  21781023.047 7 114460048.699 7        45.400    21781042.797 7  89189729.506 7        47.300    21781042.688 7  89189730.503 7        44.700
G19  22413336.781 7 117782885.306 7        43.100    22413358.676 5  91778962.542 5        32.700
G07  23653096.359 6 124297880.393 6        36.700    23653114.891 5  96855549.545 5        31.000    23653115.289 5  96855547.550 5        35.400
G01  23278378.352 6 122328681.651 6        37.200    23278405.570 3  95321174.567 3        23.200    23278405.285 6  95321091.562 6        41.100    23278409.406 7  91349366.831 7        44.400
G14  20355614.617 7 106969476.153 7        47.500    20355631.129 7  83352909.356 7        43.200    20355631.273 8  83352909.351 8        53.200    20355638.816 9  79879832.644 9        55.600
G03  22440088.570 6 117923458.558 6        41.500    22440112.871 6  91888507.243 6        41.100    22440113.055 7  91888433.240 7        44.500    22440118.395 8  88059737.601 8        48.400
G06  21364023.875 7 112268702.978 7        46.300    21364044.211 8  87482191.525 8        49.900    21364044.508 7  87482193.518 7        47.500    21364048.934 8  83837118.312 8        51.400
R20  22020849.984 6 117755428.102 6        36.000    22020848.465 5 117755371.149 5        35.200    22020871.465 6  91587607.533 6        37.500    22020871.309 6  91587605.530 6        37.800
E33  23652491.055 8 124294678.208 8        48.600    23652510.246 8  92817438.327 8        51.200    23652505.559 8  95238751.654 8        52.200    23652507.848 9  94028204.100 9        58.500
E01  23980012.938 8 126015818.101 8        49.300    23980032.398 8  94102798.515 8        51.000    23980027.895 8  96557635.577 8        51.900    23980030.203 9  95330216.657 9        57.800
E26  26261352.898 7 138004338.885 7        42.000    26261379.664 7 103055273.717 7        43.100    26261374.316 7 105743657.130 7        43.600    26261377.012 8 104399474.532 8        49.600
E31  24476760.961 8 128626250.542 8        48.600    24476784.117 8  96052064.816 8        49.300    24476779.336 8  98557770.745 8        50.100    24476781.738 9  97304940.388 9        55.800
R22  22422300.039 7 119691749.941 7        44.400    22422298.719 7 119691745.950 7        42.900    22422319.027 6  93093593.427 6        41.300    22422319.223 6  93093589.426 6        40.700
R11  20907518.453 8 111723449.764 8        49.800    20907518.445 8 111723435.761 8        48.500    20907536.398 7  86896014.601 7        46.900    20907536.445 7  86896010.590 7        46.900
R21  20549959.477 8 109966983.883 8        51.800    20549958.855 8 109966974.892 8        51.100    20549977.367 8  85529878.746 8        48.000    20549977.785 7  85529875.750 7        46.800
R10  19285082.328 7 102800343.144 7        46.400    19285080.957 7 102800326.145 7        45.300
R09  21636672.148 7 115538598.944 7        46.700    21636670.414 7 115538608.941 7        44.100    21636686.551 7  89863371.935 7        45.300    21636686.148 7  89863365.938 7        43.500
R05  24221172.234 6 129476117.858 6        36.800    24221171.379 5 129476016.854 5        35.500    24221199.336 5 100703680.798 5        33.600    24221199.160 5 100703686.797 5        34.100
C14  25134710.000 6 130883033.285 6        36.200    25134719.516 6 101207101.823 6        40.900
C13  36983525.156 7 192582920.339 7        45.100    36983537.328 7 148917382.793 7        43.900
C11  23476227.023 7 122246872.649 7        44.300    23476239.223 7  94529084.876 7        46.200
C10  36626859.492 7 190725667.694 7        44.000    36626868.992 7 147481227.549 7        46.100
C09  38405418.352 6 199987088.414 6        37.100    38405428.676 6 154642747.911 6        40.000
C08  36477087.758 7 189945766.727 7        44.400    36477092.324 7 146878138.270 7        46.200
C07  36332493.781 7 189192828.355 7        45.800    36332500.172 7 146295923.833 7        46.400
C05  38398762.836 5 199952428.863 5        35.900    38398773.242 6 154615950.125 6        40.600
C04  38987589.305 5 203018603.721 5        35.200    38987600.504 6 156986917.150 6        39.100
C03  36231424.930 7 188666536.131 7        43.900    36231430.004 7 145888956.254 7        46.100
C02  36960502.336 6 192463035.260 6        40.600    36960507.660 7 148824650.087 7        45.600
C01  37504370.914 6 195295100.033 6        39.900    37504380.613 7 151014602.706 7        42.400
S27  38724220.063 6 203497155.140 6        40.200
S37  36742928.734 7 193085407.209 7        42.100
> 2023  2 14 10 24  6.0000000  0 33       0.000000000000
G30  21980221.867 7 115506844.419 7        44.800    21980241.203 7  90005405.599 7        45.700    21980241.684 7  90005359.590 7        45.200    21980245.098 8  86255125.508 8        49.800
G17  21781037.875 7 114460126.621 7        45.300    21781057.566 7  89189790.226 7        47.300    21781057.555 7  89189791.228 7        44.500
G19  22413129.023 7 117781793.290 7        43.100    22413150.766 5  91778111.625 5        32.600
G07  23653755.406 6 124301338.811 6        36.100    23653772.953 5  96858244.423 5        30.000    23653773.313 5  96858242.426 5        35.900
G01  23279044.680 6 122332182.280 6        37.300    23279071.539 3  95323902.327 3        22.300    23279071.242 6  95323819.329 6        40.800    23279075.316 7  91351980.935 7        44.400
G14  20355488.070 8 106968812.075 8        48.000    20355504.887 7  83352391.899 7        43.200    20355504.965 8  83352391.887 8        53.100    20355512.633 9  79879336.748 9        55.700
G03  22440088.906 6 117923461.002 6        41.900    22440113.102 6  91888509.146 6        41.400    22440113.508 7  91888435.143 7        43.900    22440118.742 8  88059739.423 8        48.300
G06  21363659.234 7 112266786.934 7        46.100    21363679.719 8  87480698.503 8        49.800    21363680.195 7  87480700.498 7        47.900    21363684.438 8  83835687.495 8        51.400
R20  22021405.875 6 117758393.135 6        36.100    22021403.652 5 117758336.154 5        34.800    22021426.625 6  91589913.671 6        37.400    22021426.316 6  91589911.673 6        37.600
E33  23652674.664 8 124295643.028 8        48.400    23652693.629 8  92818158.808 8        51.300    23652688.938 8  95239490.933 8        52.300    23652691.359 9  94028933.978 9        58.500
E01  23980146.547 8 126016519.728 8        49.500    23980165.633 8  94103322.462 8        51.000    23980161.035 8  96558173.190 8        52.000    23980163.379 9  95330747.436 9        57.800
E26  26261823.352 6 138006809.829 6        41.400    26261849.656 7 103057118.895 7        43.100    26261844.355 7 105745550.441 7        43.300    26261847.023 8 104401343.778 8        49.500
E31  24476419.320 8 128624455.556 8        48.900    24476442.434 8  96050724.409 8        49.500    24476437.559 8  98556395.370 8        50.400    24476440.066 9  97303582.499 9        55.800
R22  22421943.492 7 119689848.653 7        44.300    22421942.879 7 119689844.666 7        42.700    22421963.570 6  93092114.642 6        41.400    22421963.395 6  93092110.645 6        40.800
R11  20906930.469 8 111720307.998 8        49.900    20906929.992 8 111720294.002 8        48.800    20906947.527 7  86893571.014 7        47.300    20906947.941 7  86893567.011 7        47.000
R21  20550027.617 8 109967347.171 8        51.700    20550026.410 8 109967338.187 8        50.700    20550044.891 7  85530161.306 7        47.400    20550045.543 7  85530158.302 7        47.300
R10  19285251.961 7 102801247.708 7        46.700    19285250.590 7 102801230.703 7        45.200
R09  21637376.359 7 115542360.976 7        46.200    21637374.742 7 115542370.963 7        44.100    21637390.789 7  89866297.958 7        45.100    21637390.508 7  89866291.963 7        43.800
R05  24220867.852 6 129474492.820 6        36.800    24220868.051 6 129474391.882 6        36.200    24220896.477 5 100702416.865 5        33.300    24220895.992 5 100702422.860 5        33.700
C14  25134310.570 5 130880954.686 5        35.800    25134320.676 6 101205494.518 6        40.900
C13  36983309.711 7 192581800.780 7        45.700    36983322.105 7 148916517.082 7        44.100
C11  23476543.227 7 122248518.804 7        44.700    23476555.531 7  94530357.786 7        46.000
C10  36626749.648 7 190725096.379 7        44.100    36626759.703 7 147480785.775 7        46.000
C09  38405727.617 6 199988696.273 6        37.300    38405737.504 6 154643991.211 6        39.800
C08  36476873.531 7 189944650.330 7        44.700    36476878.051 7 146877275.006 7        46.500
C07  36332407.391 7 189192378.812 7        45.800    36332413.410 7 146295576.221 7        46.300
C05  38398757.648 6 199952404.380 6        36.500    38398768.664 6 154615931.193 6        40.600
C04  38987585.961 5 203018587.583 5        35.500    38987597.488 6 156986904.672 6        39.400
C03  36231418.078 7 188666502.204 7        43.900    36231423.586 7 145888930.019 7        46.200
C02  36960499.977 6 192463020.431 6        40.600    36960505.039 7 148824638.625 7        45.200
C01  37504365.125 6 195295069.301 6        39.700    37504374.836 7 151014578.948 7        42.500
S27  38724223.531 6 203497165.736 6        40.000
S37  36742930.828 6 193085412.313 6        41.800
> 2023  2 14 10 24  7.0000000  0 33       0.000000000000
G30  21980698.531 7 115509347.447 7        45.300    21980717.340 7  90007356.007 7        45.600    21980717.676 7  90007310.003 7        45.800    21980721.176 8  86256994.651 8        49.600
G17  21781052.703 7 114460204.491 7        45.300    21781072.270 7  89189850.910 7        47.400    21781072.238 7  89189851.906 7        44.300
G19  22412921.172 7 117780701.298 7        43.400    22412942.875 5  91777260.732 5        32.900
G07  23654412.719 6 124304797.146 6        36.000    23654431.129 5  96860939.226 5        30.000    23654431.133 6  96860937.230 6        36.100
G01  23279709.766 6 122335683.036 6        37.700    23279737.629 3  95326630.198 3        23.000    23279737.258 6  95326547.188 6        40.200    23279741.348 7  91354595.132 7        44.600
G14  20355361.953 8 106968148.442 8        48.600    20355378.500 7  83351874.783 7        43.400    20355378.578 8  83351874.778 8        53.000    20355386.129 9  79878841.179 9        55.600
G03  22440088.953 6 117923463.979 6        41.700    22440113.684 6  91888511.470 6        41.400    22440113.879 7  91888437.464 7        44.400    22440119.207 8  88059741.647 8        48.100
G06  21363294.461 7 112264871.355 7        46.100    21363315.422 8  87479205.850 8        49.900    21363316.094 7  87479207.845 7        47.900    21363320.141 8  83834257.033 8        51.400
R20  22021958.641 6 117761358.121 6        36.100    22021958.059 5 117761301.108 5        35.000    22021981.168 6  91592219.769 6        37.300    22021980.750 6  91592217.771 6        37.100
E33  23652858.289 8 124296608.125 8        48.500    23652877.219 8  92818879.498 8        51.300    23652872.621 8  95240230.417 8        52.400    23652874.957 9  94029664.070 9        58.500
E01  23980279.898 8 126017221.715 8        49.400    23980299.445 8  94103846.676 8        51.300    23980294.805 8  96558711.077 8        52.000    23980297.148 9  95331278.487 9        57.700
E26  26262293.750 6 138009280.787 6        41.500    26262320.063 7 103058964.089 7        43.400    26262314.625 7 105747443.773 7        43.700    26262317.469 8 104403213.043 8        49.700
E31  24476077.813 8 128622660.772 8        49.000    24476100.859 8  96049384.155 8        49.600    24476096.359 8  98555020.153 8        50.300    24476098.609 9  97302224.759 9        55.800
R22  22421587.180 7 119687947.797 7        44.300    22421586.566 7 119687943.818 7        42.800    22421607.051 6  93090636.197 6        41.400    22421607.008 6  93090632.200 6        41.200
R11  20906342.906 8 111717166.767 8        50.100    20906342.430 8 111717152.771 8        48.800    20906360.418 7  86891127.851 7        47.400    20906360.625 7  86891123.848 7        46.700
R21  20550095.992 8 109967710.868 8        52.200    20550094.434 8 109967701.891 8        50.600    20550113.203 7  85530444.177 7        47.400    20550113.531 7  85530441.181 7        47.200
R10  19285422.070 7 102802153.112 7        47.000    19285420.816 7 102802136.099 7        44.900
R09  21638080.219 7 115546123.419 7        46.100    21638079.773 7 115546133.423 7        43.900    21638095.324 7  89869224.311 7        45.100    21638095.461 7  89869218.307 7        43.700
R05  24220563.109 5 129472868.182 5        35.800    24220563.309 5 129472767.254 5        35.500    24220592.105 5 100701153.240 5        33.800    24220591.586 5 100701159.236 5        33.800
C14  25133911.125 6 130878875.985 6        36.100    25133921.488 6 101203887.132 6        41.100
C13  36983094.742 7 192580681.334 7        45.200    36983107.207 7 148915651.454 7        44.100
C11  23476859.023 7 122250164.938 7        44.300    23476871.605 7  94531630.683 7        45.400
C10  36626640.188 7 190724524.997 7        44.300    36626649.707 7 147480343.951 7        45.800
C09  38406035.852 6 199990304.069 6        36.900    38406046.148 6 154645234.459 6        40.100
C08  36476658.875 7 189943534.118 7        44.700    36476663.379 7 146876411.878 7        46.500
C07  36332320.922 7 189191929.263 7        45.800    36332327.055 7 146295228.602 7        46.200
C05  38398752.750 6 199952379.894 6        36.300    38398763.992 6 154615912.263 6        40.800
C04  38987583.148 5 203018571.431 5        35.400    38987594.363 6 156986892.185 6        39.400
C03  36231411.383 7 188666468.296 7        44.000    36231417.113 7 145888903.801 7        46.000
C02  36960496.781 6 192463005.554 6        40.700    36960502.156 7 148824627.122 7        45.300
C01  37504358.883 6 195295038.558 6        39.700    37504368.891 7 151014555.181 7        42.500
S27  38724225.453 6 203497176.343 6        40.200
S37  36742936.109 6 193085417.404 6        41.900
> 2023  2 14 10 24  8.0000000  0 33       0.000000000000
G30  21981174.977 7 115511850.812 7        45.100    21981193.848 7  90009306.682 7        45.600    21981194.316 7  90009260.678 7        46.000    21981197.797 8  86258864.049 8        49.700
G17  21781067.258 7 114460282.384 7        45.100    21781087.469 7  89189911.611 7        47.200    21781087.230 7  89189912.607 7        44.400
G19  22412713.266 7 117779609.409 7        43.100    22412735.242 5  91776409.918 5        32.500
G07  23655070.406 6 124308255.528 6        36.400    23655089.309 5  96863634.071 5        30.300    23655089.211 5  96863632.068 5        35.900
G01  23280376.297 6 122339183.865 6        37.900    23280403.582 3  95329358.108 3        22.500    23280403.129 6  95329275.103 6        40.600    23280407.301 7  91357209.386 7        44.800
G14  20355235.906 8 106967485.302 8        48.800    20355252.332 7  83351358.050 7        43.400    20355252.617 8  83351358.046 8        53.200    20355260.137 9  79878345.980 9        55.600
G03  22440090.102 6 117923467.606 6        41.800    22440114.211 6  91888514.293 6        41.300    22440114.332 7  91888440.284 7        44.300    22440119.910 8  88059744.355 8        48.000
G06  21362930.586 7 112262956.324 7        46.100    21362951.023 8  87477713.620 8        50.000    21362951.387 7  87477715.617 7        47.800    21362955.629 8  83832826.987 8        51.600
R20  22022512.531 6 117764323.010 6        36.400    22022511.832 5 117764266.023 5        35.300    22022535.094 6  91594525.787 6        37.900    22022534.672 6  91594523.791 6        37.900
E33  23653041.813 8 124297573.535 8        48.500    23653060.723 8  92819600.421 8        51.300    23653055.988 8  95240970.146 8        52.300    23653058.453 9  94030394.396 9        58.500
E01  23980413.727 8 126017924.086 8        49.300    23980433.055 8  94104371.173 8        51.200    23980428.414 8  96559249.255 8        51.900    23980430.809 9  95331809.824 9        57.800
E26  26262763.734 6 138011751.738 6        41.300    26262790.164 7 103060809.277 7        43.500    26262784.773 7 105749337.095 7        43.800    26262787.684 8 104405082.292 8        49.600
E31  24475736.500 8 128620866.206 8        48.800    24475759.262 8  96048044.065 8        48.900    24475754.668 8  98553645.105 8        50.200    24475757.066 9  97300867.190 9        55.900
R22  22421231.570 7 119686047.423 7        44.300    22421231.074 7 119686043.421 7        42.400    22421251.305 6  93089158.119 6        41.300    22421251.266 6  93089154.135 6        41.200
R11  20905755.359 8 111714026.109 8        50.000    20905755.117 8 111714012.134 8        48.600    20905773.211 7  86888685.129 7        47.300    20905773.137 7  86888681.126 7        46.900
R21  20550163.320 8 109968075.026 8        52.000    20550162.582 8 109968066.042 8        50.800    20550180.766 7  85530727.409 7        47.600    20550181.590 7  85530724.420 7        47.300
R10  19285592.680 7 102803059.380 7        46.600    19285591.191 7 102803042.374 7        45.100
R09  21638785.398 7 115549886.315 7        45.700    21638783.781 7 115549896.318 7        43.800    21638800.078 7  89872151.007 7        45.000    21638799.773 7  89872145.004 7        43.600
R05  24220259.867 6 129471243.982 6        36.600    24220259.598 5 129471142.979 5        34.700    24220288.004 5 100699889.962 5        34.200    24220287.730 5 100699895.959 5        34.000
C14  25133512.594 6 130876797.285 6        36.200    25133522.523 6 101202279.752 6        40.700
C13  36982880.000 7 192579562.089 7        45.100    36982892.223 7 148914785.991 7        44.600
C11  23477175.211 7 122251811.088 7        43.800    23477187.832 7  94532903.591 7        45.900
C10  36626529.836 7 190723953.591 7        44.500    36626539.605 7 147479902.105 7        46.000
C09  38406344.961 6 199991911.801 6        37.100    38406355.063 6 154646477.665 6        39.700
C08  36476444.828 7 189942418.070 7        44.700    36476449.043 7 146875548.885 7        46.400
C07  36332234.594 7 189191479.664 7        45.500    36332240.652 7 146294880.946 7        46.300
C05  38398748.719 6 199952355.419 6        36.100    38398759.137 6 154615893.341 6        40.600
C04  38987579.992 5 203018555.354 5        35.300    38987591.141 6 156986879.758 6        39.500
C03  36231405.117 7 188666434.420 7        43.900    36231410.473 7 145888877.608 7        46.200
C02  36960494.008 6 192462990.721 6        40.600    36960498.863 7 148824615.651 7        45.600
C01  37504352.883 6 195295007.863 6        39.700    37504363.168 7 151014531.448 7        42.400
S27  38724226.391 6 203497186.998 6        40.100
S37  36742937.109 7 193085422.538 7        42.000
> 2023  2 14 10 24  9.0000000  0 33       0.000000000000
G30  21981651.313 7 115514354.460 7        45.000    21981670.559 7  90011257.585 7        45.300    21981670.973 7  90011211.581 7        45.800    21981674.453 8  86260733.656 8        49.600
G17  21781081.992 7 114460360.218 7        45.200    21781101.844 7  89189972.261 7        47.200    21781101.848 7  89189973.257 7        44.400
G19  22412505.297 7 117778517.544 7        42.800    22412527.262 5  91775559.125 5        33.100
G07  23655728.938 5 124311713.902 5        35.800    23655747.746 5  96866328.910 5        30.800    23655747.539 6  96866326.900 6        36.300
G01  23281042.578 6 122342684.796 6        37.800    23281069.551 3  95332086.095 3        22.600    23281069.281 6  95332003.098 6        40.300    23281073.387 7  91359823.715 7        44.300
G14  20355109.688 8 106966822.588 8        48.800    20355126.234 7  83350841.655 7        43.000    20355126.336 8  83350841.651 8        53.000    20355133.801 9  79877851.103 9        55.700
G03  22440090.922 6 117923471.795 6        41.800    22440114.938 6  91888517.557 6        41.500    22440115.422 7  91888443.548 7        44.200    22440120.637 8  88059747.480 8        48.000
G06  21362565.906 7 112261041.747 7        46.200    21362586.227 8  87476221.743 8        49.900    21362586.738 7  87476223.738 7        47.600    21362590.949 8  83831397.271 8        51.500
R20  22023067.820 6 117767287.908 6        36.300    22023067.590 5 117767230.940 5        35.400    22023090.707 6  91596831.816 6        37.700    22023090.152 6  91596829.819 6        37.400
E33  23653225.719 8 124298539.229 8        48.600    23653244.789 8  92820321.557 8        51.200    23653240.102 8  95241710.096 8        52.400    23653242.551 9  94031124.935 9        58.500
E01  23980547.461 8 126018626.776 8        49.300    23980566.688 8  94104895.912 8        51.400    23980562.047 8  96559787.684 8        52.100    23980564.457 9  95332341.406 9        57.800
E26  26263233.797 6 138014222.699 6        41.300    26263260.223 7 103062654.471 7        43.600    26263254.875 7 105751230.426 7        43.900    26263257.684 8 104406951.558 8        49.500
E31  24475394.953 8 128619071.797 8        48.800    24475417.816 8  96046704.091 8        48.800    24475413.035 8  98552270.170 8        50.200    24475415.512 9  97299509.742 9        55.800
R22  22420874.906 7 119684147.462 7        44.300    22420875.348 7 119684143.455 7        42.500    22420895.512 6  93087680.364 6        41.600    22420895.488 6  93087676.383 6        40.800
R11  20905167.594 8 111710885.944 8        50.400    20905167.703 8 111710871.955 8        48.600    20905185.711 7  86886242.790 7        47.100    20905185.664 7  86886238.787 7        46.600
R21  20550231.742 8 109968439.573 8        52.200    20550230.770 8 109968430.580 8        50.800    20550249.023 7  85531010.948 7        47.800    20550249.516 7  85531007.951 7        47.500
R10  19285761.648 7 102803966.487 7        46.700    19285760.863 7 102803949.479 7        45.100
R09  21639490.281 7 115553649.578 7        45.800    21639489.016 7 115553659.566 7        43.900    21639505.129 7  89875077.984 7        44.600    21639504.914 7  89875071.988 7        43.900
R05  24219956.414 6 129469620.060 6        37.100    24219955.203 5 129469519.048 5        35.100    24219983.148 5 100698626.905 5        34.000    24219983.742 5 100698632.900 5        33.600
C14  25133113.086 6 130874718.473 6        36.400    25133123.000 6 101200672.292 6        40.800
C13  36982665.234 7 192578442.941 7        45.300    36982677.547 7 148913920.593 7        44.300
C11  23477491.531 7 122253457.161 7        43.400    23477503.754 7  94534176.438 7        46.000
C10  36626420.172 7 190723382.119 7        44.700    36626430.188 7 147479460.208 7        46.300
C09  38406653.773 6 199993519.616 6        37.300    38406663.617 6 154647720.934 6        39.700
C08  36476230.180 7 189941302.188 7        45.000    36476234.926 7 146874686.012 7        46.300
C07  36332148.250 7 189191030.019 7        45.500    36332154.555 7 146294533.252 7        46.600
C05  38398743.484 6 199952330.948 6        36.100    38398754.355 6 154615874.417 6        40.100
C04  38987577.086 5 203018539.201 5        35.100    38987587.836 6 156986867.269 6        38.700
C03  36231398.422 7 188666400.492 7        43.900    36231404.012 7 145888851.373 7        46.600
C02  36960491.313 6 192462975.852 6        40.800    36960496.266 7 148824604.161 7        45.100
C01  37504347.055 6 195294977.147 6        39.800    37504357.113 7 151014507.697 7        42.100
S27  38724228.453 6 203497197.615 6        40.300
S37  36742930.109 7 193085427.635 7        42.000
> 2023  2 14 10 24 10.0000000  0 33       0.000000000000
G30  21982127.492 7 115516858.426 7        44.700    21982146.934 7  90013208.724 7        45.600    21982147.500 7  90013162.725 7        45.600    21982151.063 8  86262603.500 8        49.600
G17  21781096.852 7 114460438.031 7        45.200    21781116.961 7  89190032.897 7        47.500    21781117.152 7  89190033.893 7        44.700
G19  22412297.508 7 117777425.740 7        43.200    22412319.723 5  91774708.377 5        33.400
G07  23656387.008 5 124315172.246 5        35.500    23656405.438 4  96869023.716 4        29.600    23656405.152 6  96869021.713 6        36.000
G01  23281708.609 6 122346185.787 6        37.500    23281735.996 3  95334814.145 3        22.300    23281735.594 6  95334731.147 6        40.300    23281739.598 7  91362438.090 7        44.300
G14  20354983.688 8 106966160.328 8        48.300    20355000.328 7  83350325.609 7        43.200    20355000.516 8  83350325.605 8        53.000    20355007.957 9  79877356.562 9        55.900
G03  22440092.039 7 117923476.627 7        42.000    22440116.043 5  91888521.328 5        35.500    22440116.297 7  91888447.317 7        43.900    22440121.625 8  88059751.097 8        48.200
G06  21362201.797 7 112259127.640 7        46.400    21362222.094 8  87474730.237 8        49.900    21362222.383 7  87474732.232 7        47.600    21362226.816 8  83829967.911 8        51.500
R20  22023621.953 6 117770252.700 6        36.200    22023620.902 5 117770195.694 5        35.700    22023644.340 6  91599137.760 6        37.500    22023643.516 6  91599135.763 6        37.400
E33  23653409.578 8 124299505.204 8        48.400    23653428.555 8  92821042.902 8        51.500    23653423.914 8  95242450.257 8        52.300    23653426.266 9  94031855.691 9        58.500
E01  23980681.211 8 126019329.833 8        49.500    23980700.387 8  94105420.925 8        51.200    23980695.793 8  96560326.389 8        52.200    23980698.199 9  95332873.264 9        57.800
E26  26263704.227 6 138016693.696 6        41.500    26263730.586 7 103064499.694 7        43.600    26263725.148 7 105753123.788 7        44.300    26263728.059 8 104408820.853 8        49.400
E31  24475053.406 8 128617277.578 8        48.900    24475076.309 8  96045364.260 8        49.000    24475071.668 8  98550895.388 8        50.000    24475074.031 9  97298152.431 9        55.800
R22  22420520.414 7 119682247.917 7        44.200    22420519.449 7 119682243.913 7        42.000    22420539.305 6  93086202.944 6        41.400    22420539.770 6  93086198.962 6        41.500
R11  20904580.031 8 111707746.293 8        50.500    20904579.672 8 111707732.289 8        49.000    20904597.563 7  86883800.845 7        47.200    20904597.445 7  86883796.842 7        46.700
R21  20550299.742 8 109968804.535 8        52.500    20550299.121 8 109968795.536 8        50.600    20550317.504 8  85531294.807 8        48.000    20550318.020 7  85531291.811 7        47.600
R10  19285933.172 7 102804874.408 7        46.800    19285930.746 7 102804857.409 7        45.000
R09  21640195.156 7 115557413.259 7        45.800    21640193.305 7 115557423.275 7        44.100    21640209.180 7  89878005.295 7        44.900    21640209.035 7  89877999.299 7        43.600
R05  24219652.719 6 129467996.493 6        36.900    24219651.508 5 129467895.519 5        35.700    24219679.441 5 100697364.121 5        33.800    24219679.715 5 100697370.121 5        33.800
C14  25132713.508 6 130872639.680 6        36.300    25132723.707 6 101199064.842 6        40.600
C13  36982450.336 7 192577323.974 7        45.200    36982462.730 7 148913055.340 7        44.200
C11  23477807.813 7 122255103.219 7        43.500    23477820.133 7  94535449.270 7        46.200
C10  36626310.625 7 190722810.581 7        44.900    36626320.270 7 147479018.263 7        46.000
C09  38406963.000 6 199995127.310 6        37.100    38406972.184 6 154648964.112 6        39.900
C08  36476016.047 7 189940186.472 7        44.500    36476020.777 7 146873823.268 7        46.600
C07  36332061.938 7 189190580.381 7        46.000    36332068.105 7 146294185.563 7        46.900
C05  38398738.695 5 199952306.460 5        35.900    38398749.672 6 154615855.482 6        40.500
C04  38987574.242 5 203018523.056 5        35.000    38987585.277 6 156986854.785 6        38.800
C03  36231392.117 7 188666366.595 7        43.900    36231397.695 7 145888825.163 7        46.400
C02  36960488.305 6 192462960.963 6        40.700    36960493.516 7 148824592.642 7        45.200
C01  37504341.172 6 195294946.416 6        39.800    37504351.258 7 151014483.935 7        42.600
S27  38724231.688 6 203497208.305 6        40.100
S37  36742940.766 7 193085432.737 7        42.000
> 2023  2 14 10 24 11.0000000  0 33       0.000000000000
G30  21982603.898 7 115519362.663 7        44.800    21982623.410 7  90015160.074 7        45.700    21982623.906 7  90015114.075 7        45.500    21982627.188 8  86264473.547 8        49.800
G17  21781111.953 7 114460515.818 7        45.200    21781131.816 7  89190093.516 7        47.300    21781132.020 7  89190094.505 7        45.000
G19  22412090.445 7 117776333.979 7        43.100    22412112.043 5  91773857.655 5        33.600
G07  23657045.063 5 124318630.537 5        35.700    23657063.703 5  96871718.482 5        30.500    23657063.699 5  96871716.478 5        35.500
G01  23282375.328 6 122349686.913 6        37.400    23282402.887 3  95337542.290 3        22.800    23282402.535 6  95337459.296 6        40.400    23282406.605 7  91365052.570 7        44.500
G14  20354857.633 8 106965498.549 8        48.100    20354874.512 7  83349809.942 7        43.200    20354874.414 8  83349809.937 8        53.000    20354882.199 9  79876862.378 9        55.800
G03  22440092.563 7 117923482.005 7        42.300    22440116.629 5  91888525.514 5        35.000    22440116.840 7  91888451.512 7        43.800    22440122.152 8  88059755.108 8        48.100
G06  21361837.617 7 112257214.045 7        46.300    21361857.703 8  87473239.124 8        49.900    21361858.188 7  87473241.119 7        47.700    21361862.426 8  83828538.925 8        51.300
R20  22024176.719 5 117773217.500 5        35.800    22024176.020 5 117773160.520 5        35.600    22024199.754 6  91601443.714 6        37.200    22024198.461 6  91601441.718 6        37.700
E33  23653593.352 8 124300471.462 8        48.500    23653612.570 8  92821764.455 8        51.300    23653607.738 8  95243190.638 8        52.400    23653610.109 9  94032586.653 9        58.500
E01  23980814.992 8 126020033.250 8        49.500    23980834.445 8  94105946.204 8        51.000    23980829.758 8  96560865.376 8        52.000    23980832.133 9  95333405.397 9        57.800
E26  26264174.102 6 138019164.734 6        41.400    26264200.590 7 103066344.952 7        43.400    26264195.199 7 105755017.183 7        44.000    26264198.000 8 104410690.175 8        49.600
E31  24474712.172 8 128615483.553 8        48.900    24474735.047 8  96044024.573 8        49.600    24474730.406 8  98549520.754 8        50.300    24474732.758 9  97296795.272 9        55.900
R22  22420164.461 7 119680348.802 7        44.500    22420163.141 7 119680344.798 7        42.100    22420183.059 6  93084725.865 6        41.100    22420183.563 6  93084721.870 6        41.100
R11  20903993.281 8 111704607.144 8        50.600    20903992.684 8 111704593.155 8        48.500    20904010.289 7  86881359.292 7        46.800    20904010.641 7  86881355.289 7        46.700
R21  20550368.281 8 109969169.867 8        52.500    20550366.723 8 109969160.875 8        50.400    20550385.570 8  85531578.954 8        48.000    20550386.004 7  85531575.958 7        47.400
R10  19286103.641 7 102805783.191 7        46.800    19286101.566 7 102805766.179 7        45.400
R09  21640899.914 7 115561177.357 7        46.000    21640898.883 7 115561187.368 7        44.300    21640914.629 7  89880932.928 7        45.000    21640914.449 7  89880926.925 7        43.600
R05  24219349.898 5 129466373.268 5        35.900    24219349.160 5 129466272.341 5        35.000    24219376.684 5 100696101.595 5        33.700    24219376.766 5 100696107.595 5        33.300
C14  25132314.461 6 130870560.790 6        36.800    25132325.070 6 101197457.310 6        40.800
C13  36982235.359 7 192576205.143 7        45.000    36982247.809 7 148912190.191 7        44.400
C11  23478123.555 7 122256749.263 7        43.400    23478135.961 7  94536722.093 7        46.300
C10  36626200.930 7 190722239.048 7        44.800    36626210.547 7 147478576.321 7        45.800
C09  38407271.445 6 199996735.011 6        37.100    38407281.023 6 154650207.283 6        39.800
C08  36475801.555 7 189939070.908 7        44.500    36475806.641 7 146872960.647 7        46.800
C07  36331975.539 7 189190130.708 7        45.800    36331981.711 7 146293837.852 7        47.200
C05  38398734.172 6 199952281.947 6        36.200    38398745.262 6 154615836.525 6        40.500
C04  38987570.445 5 203018506.962 5        35.000    38987581.949 6 156986842.343 6        39.100
C03  36231385.625 7 188666332.658 7        43.800    36231391.012 7 145888798.923 7        46.500
C02  36960485.250 6 192462946.114 6        40.800    36960490.434 7 148824581.165 7        45.800
C01  37504335.031 6 195294915.687 6        39.900    37504345.047 7 151014460.177 7        42.600
S27  38724232.656 6 203497218.974 6        39.900
S37  36742930.297 6 193085437.841 6        41.600
> 2023  2 14 10 24 12.0000000  0 33       0.000000000000
G30  21983080.539 7 115521867.263 7        44.800    21983100.023 7  90017111.712 7        45.500    21983100.309 7  90017065.708 7        45.500    21983103.801 8  86266343.866 8        49.800
G17  21781126.805 7 114460593.586 7        45.200    21781146.363 7  89190154.111 7        47.300    21781146.570 7  89190155.108 7        44.900
G19  22411882.469 7 117775242.305 7        43.200    22411903.891 5  91773007.001 5        33.000
G07  23657703.125 6 124322088.787 6        36.300    23657721.457 5  96874413.217 5        31.100    23657721.152 5  96874411.213 5        35.400
G01  23283041.117 6 122353188.039 6        37.300    23283068.750 3  95340270.433 3        22.000    23283068.555 6  95340187.450 6        40.100    23283072.352 7  91367667.044 7        44.300
G14  20354731.641 7 106964837.227 7        47.900    20354748.520 7  83349294.629 7        43.300    20354748.457 8  83349294.624 8        53.000    20354756.145 9  79876368.536 9        55.700
G03  22440093.727 7 117923488.015 7        42.100    22440118.090 5  91888530.195 5        35.200    22440118.398 7  91888456.192 7        43.700    22440123.906 8  88059759.598 8        48.100
G06  21361473.461 7 112255300.912 7        46.200    21361493.879 8  87471748.374 8        49.900    21361494.324 8  87471750.369 8        48.000    21361498.656 8  83827110.289 8        51.400
R20  22024730.930 5 117776182.278 5        35.700    22024731.051 5 117776125.266 5        35.400    22024754.070 6  91603749.651 6        37.400    22024753.098 6  91603747.655 6        38.100
E33  23653777.352 8 124301438.045 8        48.300    23653796.465 8  92822486.256 8        51.700    23653791.633 8  95243931.268 8        52.500    23653794.078 9  94033317.871 9        58.500
E01  23980948.992 8 126020737.009 8        49.600    23980968.293 8  94106471.739 8        51.000    23980963.602 8  96561404.621 8        51.500    23980966.090 9  95333937.791 9        57.800
E26  26264644.641 6 138021635.768 6        41.100    26264671.023 7 103068190.203 7        43.100    26264665.680 7 105756910.565 7        44.000    26264668.516 8 104412559.494 8        49.500
E31  24474370.836 8 128613689.730 8        48.500    24474393.840 8  96042685.042 8        49.500    24474389.059 8  98548146.270 8        50.300    24474391.492 9  97295438.265 9        55.900
R22  22419808.727 7 119678450.155 7        44.200    22419807.406 7 119678446.161 7        42.200    22419827.344 6  93083249.146 6        41.200    22419828.051 6  93083245.150 6        41.400
R11  20903405.273 8 111701468.539 8        50.500    20903405.031 8 111701454.543 8        48.300    20903422.617 7  86878918.161 7        47.400    20903422.648 7  86878914.158 7        46.900
R21  20550436.234 8 109969535.571 8        52.100    20550435.262 8 109969526.587 8        50.700    20550453.656 7  85531863.388 7        47.800    20550454.320 7  85531860.391 7        47.400
R10  19286273.820 7 102806692.816 7        47.100    19286273.152 7 102806675.812 7        45.300
R09  21641605.141 7 115564941.888 7        45.600    21641603.758 7 115564951.900 7        44.300    21641619.902 7  89883860.895 7        45.100    21641619.539 7  89883854.898 7        43.800
R05  24219044.898 5 129464750.460 5        35.300    24219045.332 5 129464649.428 5        34.200    24219073.305 5 100694839.391 5        34.400    24219073.230 5 100694845.395 5        33.100
C14  25131914.453 6 130868481.893 6        36.500    25131925.570 6 101195849.774 6        40.600
C13  36982020.391 7 192575086.443 7        45.200    36982033.074 7 148911325.145 7        44.400
C11  23478439.594 7 122258395.309 7        43.400    23478452.355 7  94537994.922 7        45.800
C10  36626091.125 7 190721667.471 7        45.000    36626100.949 7 147478134.348 7        45.700
C09  38407579.977 6 199998342.683 6        37.300    38407589.555 6 154651450.436 6        39.700
C08  36475587.391 7 189937955.558 7        44.300    36475592.250 7 146872098.194 7        46.600
C07  36331889.047 7 189189681.020 7        45.200    36331895.438 7 146293490.125 7        47.200
C05  38398729.328 6 199952257.468 6        36.100    38398740.395 6 154615817.596 6        40.700
C04  38987567.555 5 203018490.837 5        35.300    38987579.055 6 156986829.877 6        39.400
C03  36231379.125 7 188666298.752 7        43.900    36231384.465 7 145888772.702 7        46.100
C02  36960482.922 6 192462931.251 6        40.800    36960487.844 7 148824569.678 7        45.800
C01  37504329.445 6 195294884.928 6        39.900    37504339.219 7 151014436.392 7        42.400
S27  38724235.766 6 203497229.680 6        40.100
S37  36742936.313 6 193085442.954 6        41.800
> 2023  2 14 10 24 13.0000000  0 33       0.000000000000
G30  21983557.641 7 115524372.135 7        44.700    21983576.637 7  90019063.560 7        45.600    21983577.414 7  90019017.556 7        45.500    21983580.531 8  86268214.383 8        49.800
G17  21781141.547 7 114460671.323 7        45.200    21781161.297 7  89190214.693 7        47.300    21781161.313 7  89190215.684 7        44.900
G19  22411675.102 7 117774150.664 7        43.200    22411696.238 5  91772156.383 5        32.800
G07  23658361.953 5 124325547.101 5        35.900    23658379.500 5  96877108.008 5        30.500    23658379.348 5  96877106.005 5        35.600
G01  23283707.625 6 122356689.329 6        37.500    23283735.109 3  95342998.716 3        22.000    23283734.883 6  95342915.733 6        40.200    23283738.594 7  91370281.643 7        44.200
G14  20354606.016 7 106964176.379 7        47.600    20354622.832 7  83348779.684 7        43.400    20354622.914 8  83348779.680 8        52.700    20354630.461 9  79875875.046 9        55.800
G03  22440094.867 7 117923494.616 7        42.200    22440118.723 5  91888535.345 5        35.400    22440119.105 7  91888461.335 7        43.700    22440124.539 7  88059764.523 7        47.900
G06  21361109.359 7 112253388.301 7        46.100    21361130.410 8  87470258.029 8        49.800    21361130.691 7  87470260.024 7        47.900    21361135.133 8  83825682.048 8        51.600
R20  22025284.227 6 117779146.984 6        36.700    22025285.641 5 117779089.960 5        35.800    22025308.512 6  91606055.528 6        37.800    22025307.656 6  91606053.530 6        37.700
E33  23653961.305 8 124302404.906 8        48.500    23653980.379 8  92823208.259 8        51.500    23653975.645 8  95244672.110 8        52.500    23653978.090 9  94034049.296 9        58.500
E01  23981082.945 8 126021441.153 8        50.000    23981102.434 8  94106997.562 8        51.000    23981097.742 8  96561944.164 8        51.300    23981100.059 9  95334470.472 9        57.800
E26  26265114.828 6 138024106.824 6        41.100    26265141.262 7 103070035.465 7        43.100    26265136.008 7 105758803.970 7        44.100    26265138.738 8 104414428.827 8        49.500
E31  24474029.469 8 128611896.120 8        49.000    24474052.227 8  96041345.665 8        49.100    24474047.680 8  98546771.952 8        50.500    24474050.043 9  97294081.416 9        55.900
R22  22419453.383 7 119676551.956 7        44.400    22419451.828 7 119676547.967 7        42.500    22419472.148 6  93081772.769 6        40.900    22419472.477 6  93081768.772 6        41.200
R11  20902818.070 8 111698330.471 8        50.300    20902817.594 8 111698316.468 8        48.800    20902835.566 7  86876477.443 7        47.100    20902835.535 7  86876473.439 7        47.200
R21  20550504.914 8 109969901.678 8        52.100    20550503.824 8 109969892.687 8        50.700    20550522.199 7  85532148.145 7        47.800    20550522.688 7  85532145.149 7        47.300
R10  19286444.375 7 102807603.284 7        47.300    19286443.238 7 102807586.294 7        45.200
R09  21642310.008 7 115568706.838 7        45.700    21642308.742 7 115568716.850 7        44.100    21642324.535 7  89886789.185 7        44.800    21642324.371 7  89886783.190 7        44.000
R05  24218741.016 5 129463127.939 5        35.400    24218741.801 5 129463026.917 5        35.000    24218770.004 5 100693577.414 5        34.600    24218769.789 5 100693583.418 5        32.800
C14  25131515.836 6 130866402.919 6        36.300    25131526.277 6 101194242.180 6        40.200
C13  36981805.734 7 192573967.920 7        45.500    36981818.160 7 148910460.235 7        44.500
C11  23478755.852 7 122260041.347 7        43.700    23478768.320 7  94539267.742 7        46.000
C10  36625981.539 7 190721095.847 7        44.400    36625991.051 7 147477692.330 7        45.500
C09  38407889.023 6 199999950.316 6        37.100    38407898.758 6 154652693.561 6        39.600
C08  36475372.977 7 189936840.409 7        44.600    36475378.020 7 146871235.891 7        46.800
C07  36331802.891 7 189189231.297 7        45.500    36331809.012 7 146293142.375 7        47.200
C05  38398724.742 6 199952232.971 6        36.200    38398735.852 6 154615798.661 6        40.800
C04  38987564.742 5 203018473.70815        34.700    38987575.738 6 156986816.48516        37.800
C03  36231372.672 7 188666264.853 7        44.000    36231378.195 7 145888746.493 7        45.800
C02  36960479.773 6 192462916.408 6        40.600    36960485.039 7 148824558.199 7        45.600
C01  37504323.328 6 195294854.226 6        39.700    37504333.563 7 151014412.659 7        42.500
S27  38724236.969 6 203497240.335 6        39.900
S37  36742936.250 7 193085448.069 7        42.100
> 2023  2 14 10 24 14.0000000  0 33       0.000000000000
G30  21984034.008 7 115526877.338 7        44.600    21984053.277 7  90021015.668 7        45.700    21984053.926 7  90020969.658 7        45.500    21984057.344 8  86270085.157 8        49.800
G17  21781156.398 7 114460749.051 7        45.200    21781176.066 7  89190275.262 7        47.200    21781176.121 7  89190276.259 7        44.800
G19  22411466.617 7 117773059.097 7        43.000    22411488.719 5  91771305.818 5        32.900
G07  23659019.906 6 124329005.378 6        36.000    23659037.734 4  96879802.763 4        29.500    23659037.715 5  96879800.768 5        35.500
G01  23284374.453 6 122360190.708 6        37.100    23284401.551 3  95345727.058 3        22.500    23284401.359 6  95345644.075 6        40.600    23284405.094 7  91372896.301 7        44.200
G14  20354480.406 7 106963515.983 7        47.800    20354496.895 7  83348265.093 7        43.200    20354496.879 8  83348265.089 8        53.100    20354504.582 9  79875381.895 9        55.700
G03  22440096.820 7 117923501.838 7        42.100    22440120.285 5  91888540.969 5        34.900    22440120.563 7  91888466.963 7        44.000    22440126.043 8  88059769.918 8        48.100
G06  21360745.758 7 112251476.173 7        46.400    21360765.973 8  87468768.058 8        49.900    21360766.441 8  87468770.053 8        48.200    21360770.867 8  83824254.161 8        51.700
R20  22025840.445 6 117782111.617 6        36.900    22025839.277 5 117782054.608 5        35.400    22025862.297 6  91608361.357 6        37.700    22025861.621 6  91608359.360 6        38.000
E33  23654145.430 8 124303372.062 8        48.300    23654164.363 8  92823930.489 8        51.400    23654159.676 8  95245413.172 8        52.200    23654162.070 9  94034780.942 9        58.600
E01  23981216.930 8 126022145.631 8        49.800    23981236.402 8  94107523.639 8        50.900    23981231.758 8  96562483.955 8        51.100    23981234.176 9  95335003.408 9        57.800
E26  26265585.016 6 138026577.894 6        40.600    26265611.512 7 103071880.743 7        43.400    26265606.121 7 105760697.385 7        44.300    26265608.988 8 104416298.175 8        49.800
E31  24473688.102 8 128610102.674 8        48.600    24473711.004 8  96040006.407 8        48.900    24473706.316 8  98545397.758 8        50.500    24473708.703 9  97292724.694 9        55.900
R22  22419096.398 7 119674654.183 7        44.600    22419096.371 7 119674650.196 7        42.700    22419116.609 6  93080296.725 6        41.000    22419117.008 6  93080292.729 6        41.000
R11  20902230.992 8 111695192.921 8        50.300    20902230.160 8 111695178.924 8        49.100    20902248.543 7  86874037.137 7        47.000    20902248.148 7  86874033.134 7        46.700
R21  20550573.711 8 109970268.198 8        51.800    20550572.387 8 109970259.207 8        50.900    20550591.027 7  85532433.212 7        47.800    20550591.488 7  85532430.216 7        47.600
R10  19286615.516 7 102808514.597 7        47.000    19286613.676 7 102808497.613 7        45.200
R09  21643014.922 7 115572472.223 7        45.900    21643013.656 7 115572482.212 7        44.000    21643029.348 7  89889717.822 7        44.700    21643028.961 7  89889711.819 7        43.600
R05  24218439.289 5 129461505.834 5        35.900    24218438.078 5 129461404.788 5        34.400    24218466.234 5 100692315.765 5        34.200    24218466.445 5 100692321.761 5        33.300
C14  25131116.492 6 130864323.915 6        36.500    25131126.750 6 101192634.565 6        40.100
C13  36981590.977 7 192572849.529 7        45.300    36981603.297 7 148909595.424 7        44.500
C11  23479071.805 7 122261687.355 7        44.000    23479084.355 7  94540540.540 7        45.800
C10  36625871.719 7 190720524.180 7        44.600    36625881.336 7 147477250.286 7        45.700
C09  38408196.992 6 200001557.872 6        37.000    38408207.625 6 154653936.624 6        39.500
C08  36475159.344 7 189935725.396 7        44.700    36475164.211 7 146870373.692 7        46.800
C07  36331716.773 7 189188781.600 7        45.400    36331722.523 7 146292794.645 7        47.300
C05  38398720.406 6 199952208.516 6        36.100    38398731.211 6 154615779.753 6        40.800
C04  38987561.336 5 203018457.571 5        35.400    38987572.637 6 156986803.936 6        37.900
C03  36231366.031 7 188666230.955 7        44.000    36231371.824 7 145888720.280 7        45.700
C02  36960477.203 6 192462901.546 6        40.700    36960481.730 7 148824546.708 7        45.400
C01  37504317.914 6 195294823.487 6        39.800    37504327.609 7 151014388.893 7        42.600
S27  38724239.703 6 203497250.913 6        40.100
S37  36742941.516 6 193085453.187 6        41.800
> 2023  2 14 10 24 15.0000000  0 33       0.000000000000
G30  21984510.664 7 115529382.839 7        44.500    21984530.352 7  90022968.010 7        45.600    21984530.629 7  90022922.000 7        45.300    21984534.246 8  86271956.146 8        49.600
G17  21781171.086 7 114460826.761 7        45.200    21781191.094 7  89190335.820 7        47.300    21781191.074 7  89190336.811 7        44.700
G19  22411259.211 7 117771967.597 7        43.000    22411281.016 5  91770455.308 5        33.000
G07  23659678.070 6 124332463.589 6        36.100    23659696.078 5  96882497.474 5        30.300    23659696.211 5  96882495.474 5        35.800
G01  23285040.625 6 122363692.143 6        37.400    23285067.023 3  95348455.453 3        23.000    23285066.547 6  95348372.462 6        40.600    23285070.566 7  91375511.008 7        44.300
G14  20354354.602 8 106962856.041 8        48.000    20354371.539 7  83347750.856 7        43.100    20354371.703 8  83347750.844 8        52.900    20354379.105 9  79874889.085 9        55.800
G03  22440098.688 7 117923509.629 7        42.000    22440122.473 5  91888547.040 5        35.400    22440122.551 7  91888473.034 7        44.000    22440128.172 8  88059775.738 8        48.100
G06  21360382.102 7 112249564.513 7        46.300    21360401.988 8  87467278.459 8        50.000    21360402.758 7  87467280.453 7        47.600    21360406.883 8  83822826.625 8        51.400
R20  22026393.297 6 117785076.194 6        37.000    22026394.125 5 117785019.241 5        35.300    22026417.125 6  91610667.144 6        37.500    22026416.344 6  91610665.146 6        37.100
E33  23654329.523 8 124304339.490 8        48.500    23654348.465 8  92824652.920 8        51.600    23654343.777 8  95246154.451 8        52.100    23654346.148 9  94035512.792 9        58.500
E01  23981351.109 8 126022850.485 8        49.900    23981370.504 8  94108049.992 8        50.800    23981365.906 8  96563024.038 8        51.400    23981368.320 9  95335536.626 9        57.800
E26  26266055.539 6 138029049.042 6        41.400    26266081.770 7 103073726.080 7        43.100    26266076.375 7 105762590.857 7        44.500    26266079.277 8 104418167.578 8        49.600
E31  24473346.961 8 128608309.443 8        48.900    24473369.941 8  96038667.313 8        49.400    24473365.207 8  98544023.732 8        50.300    24473367.563 9  97291368.134 9        55.900
R22  22418741.656 7 119672756.863 7        44.700    22418740.809 7 119672752.860 7        43.000    22418761.508 6  93078821.037 6        40.700    22418761.285 6  93078817.033 6        41.400
R11  20901643.961 8 111692055.882 8        50.300    20901643.246 8 111692041.900 8        49.000    20901661.191 7  86871597.221 7        47.000    20901661.285 7  86871593.218 7        46.800
R21  20550642.250 8 109970635.163 8        51.800    20550641.160 8 109970626.178 8        50.500    20550659.445 7  85532718.631 7        47.700    20550660.035 7  85532715.634 7        47.200
R10  19286786.305 7 102809426.767 7        46.900    19286785.402 7 102809409.766 7        45.400
R09  21643720.461 7 115576238.010 7        46.100    21643719.078 7 115576248.015 7        44.300    21643734.848 7  89892646.767 7        44.700    21643734.563 7  89892640.764 7        43.600
R05  24218134.828 5 129459883.984 5        35.500    24218134.676 5 129459782.994 5        35.000    24218163.625 5 100691054.311 5        34.200    24218163.223 5 100691060.309 5        33.400
C14  25130717.086 5 130862244.868 5        35.800    25130727.391 6 101191026.914 6        40.200
C13  36981376.344 7 192571731.270 7        45.200    36981388.438 7 148908730.721 7        44.600
C11  23479388.195 7 122263333.327 7        44.100    23479400.488 7  94541813.305 7        45.900
C10  36625761.320 7 190719952.455 7        44.000    36625771.473 7 147476808.194 7        45.100
C09  38408506.023 6 200003165.449 6        37.000    38408516.227 6 154655179.705 6        39.200
C08  36474945.273 7 189934610.564 7        44.300    36474949.957 7 146869511.639 7        46.500
C07  36331630.289 7 189188331.835 7        45.800    36331636.098 7 146292446.857 7        47.600
C05  38398715.461 5 199952183.984 5        35.900    38398726.363 6 154615760.779 6        40.400
C04  38987558.836 5 203018441.461 5        34.900    38987569.777 6 156986791.442 6        38.200
C03  36231359.813 7 188666197.062 7        44.000    36231364.961 7 145888694.077 7        45.800
C02  36960474.102 6 192462886.721 6        40.700    36960479.004 7 148824535.244 7        45.400
C01  37504312.031 6 195294792.780 6        39.600    37504321.441 7 151014365.151 7        42.400
S27  38724242.156 6 203497261.510 6        39.700
S37  36742949.484 6 193085458.299 6        41.800
> 2023  2 14 10 24 16.0000000  0 33       0.000000000000
G30  21984987.859 7 115531888.667 7        44.700    21985007.074 7  90024920.601 7        45.700    21985007.422 7  90024874.597 7        45.800    21985010.969 8  86273827.383 8        49.800
G17  21781185.914 7 114460904.413 7        45.400    21781205.836 7  89190396.330 7        47.300    21781205.879 7  89190397.325 7        45.100
G19  22411051.281 7 117770876.142 7        43.200    22411073.270 5  91769604.834 5        32.300
G07  23660335.242 6 124335921.796 6        36.400    23660354.113 4  96885192.178 4        29.700    23660354.203 5  96885190.175 5        35.700
G01  23285706.375 6 122367193.656 6        37.300    23285733.746 3  95351183.899 3        22.600    23285733.508 6  95351100.902 6        40.400    23285737.113 7  91378125.770 7        44.300
G14  20354229.398 7 106962196.583 7        47.900    20354245.777 7  83347236.996 7        43.500    20354246.051 8  83347236.992 8        53.000    20354253.465 9  79874396.637 9        55.800
G03  22440100.211 7 117923518.036 7        42.100    22440123.855 6  91888553.589 6        36.100    22440123.813 7  91888479.584 7        43.800    22440129.438 8  88059782.011 8        48.100
G06  21360018.055 7 112247653.372 7        46.300    21360038.730 8  87465789.266 8        50.000    21360038.973 7  87465791.261 7        47.200    21360043.449 8  83821399.479 8        51.500
R20  22026947.273 6 117788040.805 6        36.900    22026948.219 5 117787983.797 5        35.600    22026971.094 6  91612972.963 6        38.100    22026970.641 6  91612970.960 6        37.300
E33  23654513.641 8 124305307.237 8        48.600    23654532.738 8  92825375.585 8        51.500    23654527.953 8  95246895.971 8        52.200    23654530.410 9  94036244.885 9        58.500
E01  23981485.328 8 126023555.686 8        49.900    23981504.691 8  94108576.605 8        50.900    23981499.859 8  96563564.394 8        51.400    23981502.414 9  95336070.105 9        57.800
E26  26266525.617 6 138031520.151 6        41.800    26266551.699 7 103075571.383 7        42.700    26266546.539 7 105764484.303 7        44.500    26266549.344 8 104420036.953 8        49.500
E31  24473005.734 8 128606516.399 8        48.800    24473028.703 8  96037328.356 8        49.500    24473024.105 8  98542649.849 8        50.000    24473026.398 9  97290011.712 9        55.900
R22  22418386.406 7 119670859.972 7        43.900    22418385.793 7 119670855.968 7        43.000    22418406.020 6  93077345.683 6        40.900    22418406.172 6  93077341.679 6        41.500
R11  20901056.391 8 111688919.367 8        50.400    20901056.031 8 111688905.370 8        49.100    20901074.227 7  86869157.723 7        47.300    20901073.844 7  86869153.719 7        47.100
R21  20550710.531 8 109971002.524 8        51.600    20550709.324 8 109970993.540 8        50.200    20550727.723 7  85533004.354 7        47.400    20550728.266 7  85533001.365 7        47.100
R10  19286957.586 7 102810339.776 7        47.000    19286956.098 7 102810322.769 7        45.500
R09  21644425.344 7 115580004.215 7        46.100    21644424.430 7 115580014.210 7        44.300    21644440.039 7  89895576.030 7        44.700    21644439.840 7  89895570.035 7        43.300
R05  24217833.305 5 129458262.503 5        35.400    24217830.805 5 129458161.532 5        34.200    24217859.918 5 100689793.152 5        34.600    24217859.914 5 100689799.148 5        33.900
C14  25130317.789 6 130860165.766 6        36.400    25130328.297 6 101189419.230 6        40.600
C13  36981161.242 7 192570613.182 7        45.500    36981173.703 7 148907866.143 7        44.200
C11  23479704.453 7 122264979.293 7        43.200    23479716.844 7  94543086.070 7        46.300
C10  36625652.273 7 190719380.718 7        43.700    36625661.691 7 147476366.094 7        45.500
C09  38408814.680 6 200004772.939 6        37.600    38408824.820 6 154656422.718 6        39.100
C08  36474731.023 7 189933495.903 7        44.300    36474735.816 7 146868649.713 7        46.000
C07  36331543.938 7 189187882.086 7        46.200    36331549.938 7 146292099.086 7        47.100
C05  38398710.750 5 199952159.529 5        35.900    38398721.938 6 154615741.874 6        40.600
C04  38987555.086 5 203018425.291 5        35.100    38987566.508 6 156986778.933 6        38.100
C03  36231353.055 7 188666163.152 7        43.900    36231358.148 7 145888667.853 7        45.900
C02  36960470.914 6 192462871.885 6        40.600    36960475.961 7 148824523.774 7        45.200
C01  37504305.859 6 195294762.047 6        39.900    37504316.020 7 151014341.383 7        42.500
S27  38724243.641 6 203497272.194 6        40.100
S37  36742941.875 7 193085463.415 7        42.300
> 2023  2 14 10 24 17.0000000  0 33       0.000000000000
G30  21985464.234 7 115534394.789 7        44.800    21985483.637 7  90026873.421 7        45.600    21985484.293 7  90026827.417 7        46.100    21985487.707 8  86275698.835 8        49.700
G17  21781200.680 7 114460982.083 7        45.200    21781220.246 7  89190456.855 7        47.400    21781220.129 7  89190457.846 7        44.400
G19  22410843.555 7 117769784.772 7        43.100    22410865.590 5  91768754.421 5        33.000
G07  23660993.398 6 124339379.971 6        36.600    23661012.094 4  96887886.862 4        29.900    23661011.902 5  96887884.859 5        35.000
G01  23286372.438 6 122370695.305 6        37.500    23286399.641 3  95353912.454 3        22.500    23286399.363 6  95353829.456 6        40.600    23286403.125 7  91380740.635 7        44.200
G14  20354103.703 7 106961537.568 7        47.800    20354120.422 7  83346723.483 7        43.400    20354120.516 8  83346723.478 8        52.700    20354128.051 9  79873904.521 9        55.800
G03  22440101.313 7 117923527.049 7        42.000    22440125.500 5  91888560.613 5        35.700    22440125.809 7  91888486.609 7        43.400    22440131.141 8  88059788.743 8        48.000
G06  21359654.633 7 112245742.717 7        46.300    21359675.215 8  87464300.439 8        49.900    21359675.656 7  87464302.441 7        47.200    21359679.879 8  83819972.692 8        51.400
R20  22027501.992 6 117791005.312 6        36.900    22027502.348 5 117790948.361 5        35.200    22027525.051 6  91615278.686 6        38.100    22027524.848 6  91615276.682 6        37.100
E33  23654697.727 8 124306275.277 8        48.500    23654716.859 8  92826098.469 8        51.400    23654712.172 8  95247637.713 8        52.100    23654714.621 9  94036977.204 9        58.500
E01  23981619.664 8 126024261.266 8        50.200    23981639.188 8  94109103.496 8        51.000    23981634.359 8  96564105.036 8        51.700    23981636.844 9  95336603.876 9        57.700
E26  26266995.805 6 138033991.317 6        41.400    26267021.988 7 103077416.735 7        42.800    26267016.781 7 105766377.793 7        44.200    26267019.594 8 104421906.370 8        49.600
E31  24472664.461 8 128604723.543 8        48.200    24472687.574 8  96035989.544 8        49.300    24472682.742 8  98541276.113 8        50.100    24472685.191 9  97288655.434 9        55.900
R22  22418030.508 7 119668963.512 7        44.300    22418030.129 7 119668959.515 7        43.100    22418050.199 6  93075870.656 6        40.900    22418050.313 6  93075866.654 6        41.200
R11  20900470.367 8 111685783.381 8        50.800    20900469.418 8 111685769.400 8        49.200    20900487.266 7  86866718.642 7        47.200    20900487.254 7  86866714.631 7        46.800
R21  20550779.039 8 109971370.260 8        51.700    20550778.652 8 109971361.283 8        50.300    20550796.875 7  85533290.377 7        47.400    20550797.793 7  85533287.381 7        47.300
R10  19287129.484 7 102811253.640 7        47.200    19287128.348 7 102811236.641 7        45.500
R09  21645130.898 7 115583770.853 7        45.800    21645130.336 7 115583780.849 7        44.500    21645146.160 7  89898505.640 7        44.700    21645145.563 7  89898499.643 7        43.700
R05  24217528.609 5 129456641.431 5        35.200    24217527.871 5 129456540.412 5        34.300    24217556.695 5 100688532.308 5        34.900    24217556.641 5 100688538.304 5        33.400
C14  25129918.656 6 130858086.671 6        36.200    25129928.980 6 101187811.540 6        40.600
C13  36980946.820 7 192569495.238 7        45.300    36980959.000 7 148907001.684 7        44.300
C11  23480020.492 7 122266625.260 7        43.800    23480032.871 7  94544358.836 7        46.000
C10  36625542.547 7 190718808.935 7        43.500    36625551.719 7 147475923.956 7        45.800
C09  38409123.000 6 200006380.409 6        37.000    38409133.578 6 154657665.710 6        39.000
C08  36474517.031 7 189932381.436 7        44.600    36474522.035 7 146867787.944 7        46.000
C07  36331457.555 7 189187432.311 7        46.000    36331463.496 7 146291751.294 7        47.000
C05  38398705.961 6 199952135.070 6        36.400    38398717.309 6 154615722.961 6        40.900
C04  38987551.852 5 203018409.223 5        34.900    38987562.785 6 156986766.529 6        38.400
C03  36231346.742 7 188666129.282 7        43.800    36231352.246 7 145888641.670 7        45.800
C02  36960468.422 6 192462857.037 6        40.600    36960472.953 7 148824512.291 7        45.200
C01  37504299.633 6 195294731.326 6        39.800    37504309.840 7 151014317.632 7        42.400
S27  38724244.859 6 203497282.905 6        39.700
S37  36742940.250 6 193085468.541 6        41.800
> 2023  2 14 10 24 18.0000000  0 33       0.000000000000
G30  21985941.086 7 115536901.212 7        44.900    21985960.750 7  90028826.475 7        45.600    21985960.805 7  90028780.471 7        45.800    21985964.469 8  86277570.514 8        49.900
G17  21781215.484 7 114461059.699 7        45.400    21781235.125 7  89190517.334 7        47.300    21781235.047 7  89190518.331 7        43.900
G19  22410635.922 7 117768693.410 7        43.000    22410658.070 5  91767904.018 5        32.500
G07  23661651.641 6 124342838.118 6        36.300    23661670.160 4  96890581.518 4        29.800    23661669.926 5  96890579.522 5        35.300
G01  23287038.633 6 122374197.046 6        37.700    23287066.363 3  95356641.078 3        23.000    23287066.129 6  95356558.080 6        40.300    23287069.559 7  91383355.574 7        44.300
G14  20353978.461 8 106960879.020 8        48.100    20353995.395 7  83346210.331 7        43.200    20353995.383 8  83346210.320 8        52.600    20354003.141 9  79873412.753 9        55.700
G03  22440103.297 6 117923536.685 6        41.800    22440127.535 5  91888568.117 5        35.700    22440127.691 7  91888494.113 7        43.700    22440133.176 8  88059795.941 8        48.300
G06  21359291.094 7 112243832.538 7        46.200    21359311.418 8  87462811.992 8        50.000    21359311.945 7  87462813.987 7        47.300    21359316.195 8  83818546.264 8        51.400
R20  22028056.836 6 117793969.781 6        36.800    22028056.488 5 117793912.787 5        35.700    22028079.977 6  91617584.386 6        38.000    22028079.441 6  91617582.380 6        37.000
E33  23654882.148 8 124307243.592 8        48.500    23654901.195 8  92826821.566 8        51.200    23654896.457 8  95248379.669 8        52.000    23654898.895 9  94037709.725 9        58.400
E01  23981754.102 8 126024967.190 8        50.000    23981773.523 8  94109630.651 8        51.400    23981768.742 8  96564645.934 8        51.800    23981771.188 9  95337137.902 9        57.800
E26  26267466.055 6 138036462.456 6        41.700    26267492.266 7 103079262.063 7        43.000    26267487.105 7 105768271.262 7        44.000    26267489.875 8 104423775.775 8        49.500
E31  24472323.273 8 128602930.879 8        48.300    24472346.223 8  96034650.876 8        49.400    24472341.672 8  98539902.518 8        50.100    24472344.043 9  97287299.304 9        55.800
R22  22417675.898 7 119667067.483 7        44.500    22417675.402 7 119667063.486 7        42.900    22417695.160 6  93074395.967 6        41.600    22417695.664 6  93074391.963 6        41.100
R11  20899882.625 8 111682647.909 8        50.900    20899882.383 8 111682633.920 8        49.300    20899900.277 7  86864279.947 7        47.200    20899900.414 7  86864275.944 7        47.000
R21  20550848.094 8 109971738.366 8        52.100    20550847.355 8 109971729.374 8        50.800    20550865.293 7  85533576.682 7        47.200    20550866.086 7  85533573.685 7        47.300
R10  19287300.609 7 102812168.336 7        47.000    19287299.473 7 102812151.343 7        45.700
R09  21645835.797 7 115587537.899 7        45.800    21645835.234 7 115587547.895 7        44.300    21645851.176 7  89901435.567 7        44.900    21645850.648 7  89901429.570 7        43.300
R05  24217225.781 5 129455020.630 5        35.500    24217225.277 5 129454919.677 5        34.500    24217253.328 5 100687271.680 5        35.000    24217253.633 5 100687277.674 5        33.500
C14  25129519.516 5 130856007.451 5        35.900    25129529.605 6 101186203.760 6        40.400
C13  36980731.977 7 192568377.419 7        45.300    36980744.207 7 148906137.322 7        44.100
C11  23480336.422 7 122268271.180 7        43.100    23480349.023 7  94545631.561 7        46.000
C10  36625431.898 7 190718237.084 7        43.900    36625442.082 7 147475481.765 7        45.700
C09  38409431.523 6 200007987.890 6        37.600    38409442.277 6 154658908.715 6        38.800
C08  36474302.578 7 189931267.072 7        44.400    36474307.781 7 146866926.245 7        45.800
C07  36331370.938 7 189186982.517 7        46.300    36331376.855 7 146291403.488 7        46.800
C05  38398701.219 6 199952110.531 6        36.200    38398712.672 6 154615703.989 6        41.100
C04  38987549.375 5 203018393.100 5        35.000    38987560.031 6 156986754.077 6        38.300
C03  36231339.906 7 188666095.365 7        43.900    36231345.293 7 145888615.442 7        46.000
C02  36960465.789 6 192462842.163 6        40.600    36960470.535 7 148824500.792 7        45.200
C01  37504294.531 6 195294700.595 6        39.700    37504303.727 7 151014293.874 7        42.500
S27  38724248.125 6 203497293.575 6        40.000
S37  36742944.063 6 193085473.655 6        41.700
> 2023  2 14 10 24 19.0000000  0 33       0.000000000000
G30  21986418.414 7 115539407.968 7        45.100    21986437.910 7  90030779.791 7        45.500    21986438.000 7  90030733.785 7        45.800    21986441.629 8  86279442.440 8        49.700
G17  21781230.148 7 114461137.316 7        45.300    21781249.863 7  89190577.816 7        47.300    21781249.887 7  89190578.812 7        44.100
G19  22410428.547 7 117767602.156 7        43.000    22410449.992 5  91767053.694 5        32.300
G07  23662309.680 6 124346296.287 6        36.400    23662327.992 5  96893276.196 5        30.800    23662327.762 5  96893274.204 5        35.000
G01  23287705.492 6 122377698.880 6        37.600    23287733.004 3  95359369.775 3        23.200    23287732.863 6  95359286.778 6        40.600    23287736.430 7  91385970.580 7        44.400
G14  20353853.227 8 106960220.953 8        48.200    20353869.898 7  83345697.551 7        43.500    20353869.887 8  83345697.547 8        52.600    20353877.645 9  79872921.342 9        55.700
G03  22440105.492 7 117923546.878 7        42.000    22440129.438 5  91888576.060 5        35.900    22440129.414 7  91888502.062 7        43.700    22440135.137 8  88059803.549 8        48.000
G06  21358927.727 7 112241922.868 7        46.100    21358948.074 8  87461323.938 8        50.000    21358948.391 7  87461325.932 7        47.500    21358952.680 8  83817120.214 8        51.400
R20  22028611.102 6 117796934.253 6        37.100    22028610.520 5 117796877.270 5        35.300    22028634.527 6  91619890.078 6        37.700    22028633.797 6  91619888.074 6        36.900
E33  23655066.625 8 124308212.218 8        48.900    23655085.609 8  92827544.884 8        51.400    23655080.781 8  95249121.864 8        52.200    23655083.250 9  94038442.486 9        58.400
E01  23981888.352 8 126025673.482 8        49.600    23981907.660 8  94110158.079 8        51.300    23981903.160 8  96565187.121 8        52.000    23981905.410 9  95337672.213 9        57.700
E26  26267936.445 6 138038933.690 6        41.200    26267962.813 7 103081107.466 7        42.900    26267957.418 7 105770164.807 7        43.600    26267960.230 8 104425645.242 8        49.500
E31  24471982.156 8 128601138.431 8        48.300    24472005.117 8  96033312.368 8        49.600    24472000.566 8  98538529.089 8        49.700    24472002.883 9  97285943.338 9        55.800
R22  22417321.391 7 119665171.942 7        44.100    22417320.070 7 119665167.932 7        43.000    22417340.168 6  93072921.655 6        41.300    22417340.477 6  93072917.653 6        41.100
R11  20899296.242 8 111679512.975 8        50.800    20899296.000 8 111679498.987 8        48.800    20899313.672 7  86861841.676 7        46.800    20899313.789 7  86861837.673 7        46.800
R21  20550916.766 8 109972106.922 8        52.200    20550915.793 8 109972097.938 8        50.700    20550934.117 7  85533863.334 7        47.200    20550934.824 7  85533860.338 7        47.200
R10  19287472.820 7 102813083.912 7        46.800    19287471.801 7 102813066.919 7        45.400
R09  21646541.852 7 115591305.356 7        45.600    21646540.703 7 115591315.358 7        44.300    21646556.383 7  89904365.818 7        45.000    21646556.184 7  89904359.815 7        43.600
R05  24216922.703 5 129453400.248 5        35.700    24216921.730 5 129453299.269 5        33.800    24216949.816 5 100686011.375 5        34.300    24216950.270 5 100686017.365 5        33.100
C14  25129120.148 6 130853928.225 6        36.000    25129130.527 6 101184595.970 6        40.400
C13  36980517.500 7 192567259.790 7        45.100    36980529.801 7 148905273.103 7        44.200
C11  23480652.484 7 122269917.144 7        43.400    23480665.129 7  94546904.328 7        45.800
C10  36625322.281 7 190717665.214 7        44.000    36625332.223 7 147475039.566 7        46.100
C09  38409740.250 6 200009595.338 6        37.000    38409751.234 6 154660151.705 6        39.100
C08  36474088.727 7 189930152.957 7        44.000    36474093.699 7 146866064.745 7        46.100
C07  36331284.516 7 189186532.705 7        46.300    36331290.754 7 146291055.668 7        46.800
C05  38398696.516 6 199952086.059 6        36.000    38398707.621 6 154615685.068 6        40.800
C04  38987546.188 5 203018377.021 5        35.000    38987557.063 6 156986741.657 6        38.700
C03  36231333.828 7 188666061.478 7        43.900    36231338.813 7 145888589.237 7        45.800
C02  36960462.703 6 192462827.352 6        40.700    36960467.656 7 148824489.341 7        45.300
C01  37504287.945 6 195294669.915 6        40.200    37504298.113 7 151014270.149 7        42.600
S27  38724250.641 6 203497304.211 6        40.000
S37  36742937.703 6 193085478.784 6        41.800
> 2023  2 14 10 24 20.0000000  0 33       0.000000000000
G30  21986895.523 7 115541915.025 7        45.200    21986915.043 7  90032733.341 7        45.500    21986915.363 7  90032687.337 7        45.500    21986918.820 8  86281314.593 8        49.800
G17  21781245.016 7 114461214.889 7        45.400    21781265.137 7  89190638.270 7        47.200    21781265.082 7  89190639.261 7        44.900
G19  22410220.430 7 117766510.938 7        43.200    22410242.211 5  91766203.409 5        32.600
G07  23662968.172 6 124349754.415 6        36.300    23662985.902 4  96895970.846 4        29.600    23662985.461 5  96895968.842 5        34.700
G01  23288371.773 6 122381200.789 6        38.100    23288399.215 3  95362098.527 3        22.900    23288399.020 6  95362015.536 6        40.900    23288402.348 7  91388585.639 7        44.600
G14  20353728.227 8 106959563.320 8        48.000    20353744.855 7  83345185.112 7        43.400    20353744.805 8  83345185.108 8        52.600    20353752.367 9  79872430.257 9        55.700
G03  22440107.578 6 117923557.680 6        41.700    22440131.387 5  91888584.477 5        35.800    22440131.543 7  91888510.474 7        43.900    22440137.145 8  88059811.613 8        48.200
G06  21358564.484 7 112240013.658 7        46.400    21358584.453 8  87459836.247 8        50.100    21358584.836 7  87459838.242 7        47.600    21358589.230 8  83815694.507 8        51.500
R20  22029165.180 6 117799898.613 6        36.700    22029165.184 5 117799841.597 5        35.400    22029189.039 6  91622195.682 6        38.100    22029188.340 6  91622193.692 6        37.100
E33  23655250.797 8 124309181.135 8        48.800    23655269.762 8  92828268.429 8        51.700    23655265.121 8  95249864.282 8        52.500    23655267.523 9  94039175.464 9        58.500
E01  23982022.664 8 126026380.110 8        49.700    23982042.063 8  94110685.760 8        51.000    23982037.465 8  96565728.566 8        51.900    23982039.805 9  95338206.773 9        57.700
E26  26268406.688 6 138041404.890 6        41.000    26268433.039 7 103082952.837 7        42.500    26268427.738 7 105772058.321 7        44.100    26268430.551 8 104427514.691 8        49.500
E31  24471641.289 8 128599346.160 8        48.600    24471664.168 8  96031973.988 8        49.400    24471659.574 8  98537155.796 8        50.000    24471661.910 9  97284587.504 9        55.800
R22  22416966.586 7 119663276.792 7        44.500    22416965.031 7 119663272.800 7        43.000    22416985.156 6  93071447.640 6        41.600    22416985.316 6  93071443.642 6        41.400
R11  20898709.992 8 111676378.574 8        50.600    20898709.516 8 111676364.599 8        49.100    20898727.508 7  86859403.812 7        46.800    20898727.578 7  86859399.808 7        46.600
R21  20550985.992 8 109972475.891 8        52.300    20550984.551 8 109972466.906 8        50.800    20551003.133 7  85534150.313 7        47.300    20551003.746 7  85534147.317 7        46.700
R10  19287645.078 7 102814000.326 7        46.700    19287643.238 7 102813983.328 7        45.600
R09  21647246.734 7 115595073.206 7        45.700    21647246.289 7 115595083.210 7        44.400    21647262.215 7  89907296.367 7        45.400    21647261.723 7  89907290.363 7        43.800
R05  24216620.289 5 129451780.132 5        35.200    24216618.844 5 129451679.100 5        33.200    24216646.660 5 100684751.271 5        34.700    24216647.656 5 100684757.266 5        32.800
C14  25128720.539 6 130851848.998 6        36.800    25128730.703 6 101182988.181 6        40.500
C13  36980302.602 7 192566142.293 7        45.300    36980315.109 7 148904408.981 7        43.900
C11  23480968.781 7 122271563.037 7        43.400    23480980.828 7  94548177.032 7        46.000
C10  36625212.656 7 190717093.298 7        44.500    36625222.586 7 147474597.331 7        46.000
C09  38410048.570 6 200011202.775 6        37.500    38410059.758 6 154661394.670 6        39.200
C08  36473875.328 7 189929039.002 7        44.100    36473880.094 7 146865203.362 7        46.400
C07  36331198.125 7 189186082.852 7        46.400    36331204.582 7 146290707.812 7        47.200
C05  38398691.852 6 199952061.567 6        36.100    38398702.648 6 154615666.130 6        40.200
C04  38987542.867 5 203018360.895 5        35.500    38987553.938 6 156986729.201 6        38.400
C03  36231327.242 7 188666027.587 7        43.800    36231332.594 7 145888563.030 7        46.000
C02  36960459.734 6 192462812.500 6        40.700    36960464.820 7 148824477.860 7        45.500
C01  37504282.242 6 195294639.207 6        39.600    37504291.934 7 151014246.407 7        42.900
S27  38724251.469 6 203497314.903 6        39.800
S37  36742944.516 7 193085483.909 7        42.000
> 2023  2 14 10 24 21.0000000  0 33       0.000000000000
G30  21987373.031 7 115544422.353 7        45.100    21987391.852 7  90034687.106 7        45.600    21987392.070 7  90034641.100 7        45.500    21987395.863 8  86283186.951 8        49.800
G17  21781259.406 7 114461292.416 7        45.400    21781279.645 7  89190698.685 7        47.300    21781279.750 7  89190699.675 7        44.700
G19  22410013.406 7 117765419.778 7        43.400    22410034.922 5  91765353.164 5        32.500
G07  23663626.219 6 124353212.525 6        36.400    23663644.184 4  96898665.472 4        29.600    23663643.875 5  96898663.469 5        34.700
G01  23289038.367 6 122384702.729 6        38.300    23289065.758 3  95364827.314 3        22.000    23289065.645 6  95364744.323 6        40.500    23289069.129 7  91391200.720 7        44.700
G14  20353603.086 7 106958906.145 7        47.800    20353619.938 7  83344673.031 7        43.400    20353620.063 8  83344673.026 8        52.900    20353627.684 9  79871939.510 9        55.700
G03  22440109.477 7 117923569.060 7        42.100    22440133.535 5  91888593.342 5        35.500    22440133.832 7  91888519.338 7        44.200    22440139.352 8  88059820.102 8        48.400
G06  21358201.320 7 112238104.911 7        46.400    21358221.719 8  87458348.914 8        50.000    21358222.258 7  87458350.908 7        47.900    21358226.496 8  83814269.150 8        51.500
R20  22029720.367 6 117802862.934 6        37.000    22029718.965 5 117802805.950 5        35.000    22029742.734 6  91624501.263 6        37.800    22029742.070 6  91624499.267 6        37.100
E33  23655435.148 8 124310150.293 8        48.500    23655454.141 8  92828992.150 8        51.700    23655449.500 8  95250606.884 8        52.400    23655451.910 9  94039908.626 9        58.400
E01  23982157.227 8 126027087.075 8        49.800    23982176.848 8  94111213.693 8        51.100    23982172.160 8  96566270.270 8        51.700    23982174.539 9  95338741.588 9        57.700
E26  26268876.977 6 138043876.076 6        41.500    26268903.258 7 103084798.202 7        42.600    26268898.004 7 105773951.818 7        44.000    26268900.762 8 104429384.119 8        49.500
E31  24471300.094 8 128597554.057 8        48.400    24471323.109 8  96030635.734 8        49.100    24471318.422 8  98535782.634 8        50.300    24471320.777 9  97283231.793 9        55.900
R22  22416612.211 7 119661382.054 7        44.600    22416609.602 7 119661378.045 7        42.800    22416630.012 6  93069973.951 6        41.800    22416630.320 6  93069969.954 6        41.400
R11  20898123.391 8 111673244.658 8        50.300    20898123.148 8 111673230.662 8        48.900    20898141.008 7  86856966.325 7        47.000    20898141.129 7  86856962.322 7        46.300
R21  20551054.680 8 109972845.241 8        52.000    20551053.590 8 109972836.249 8        50.800    20551072.059 7  85534437.581 7        47.300    20551072.684 7  85534434.591 7        46.700
R10  19287816.336 7 102814917.563 7        46.800    19287814.965 7 102814900.556 7        45.200
R09  21647952.727 7 115598841.486 7        45.600    21647951.930 7 115598851.484 7        44.100    21647967.934 7  89910227.253 7        45.000    21647967.340 7  89910221.251 7        43.700
R05  24216315.797 5 129450160.350 5        34.800    24216315.410 5 129450059.345 5        33.300    24216343.996 5 100683491.421 5        33.500    24216344.730 5 100683497.422 5        32.600
C14  25128321.344 6 130849769.594 6        36.800    25128331.453 6 101181380.259 6        40.400
C13  36980088.289 7 192565024.917 7        45.300    36980100.801 7 148903544.954 7        44.300
C11  23481284.445 7 122273208.882 7        44.000    23481296.988 7  94549449.708 7        45.800
C10  36625102.945 7 190716521.334 7        44.700    36625112.816 7 147474155.051 7        46.100
C09  38410358.117 6 200012810.075 6        37.600    38410368.480 6 154662637.540 6        39.500
C08  36473661.117 7 189927925.195 7        43.800    36473665.863 7 146864342.100 7        46.400
C07  36331111.852 7 189185632.966 7        46.500    36331117.934 7 146290359.939 7        47.000
C05  38398686.867 5 199952037.079 5        35.900    38398698.355 6 154615647.192 6        40.200
C04  38987539.750 5 203018344.772 5        35.200    38987551.199 6 156986716.736 6        38.700
C03  36231320.875 7 188665993.667 7        43.900    36231326.012 7 145888536.803 7        45.800
C02  36960456.852 6 192462797.617 6        40.600    36960461.852 7 148824466.352 7        45.000
C01  37504276.328 6 195294608.443 6        39.700    37504285.949 7 151014222.617 7        42.600
S27  38724254.219 6 203497325.516 6        39.800
S37  36742944.656 6 193085489.001 6        41.800
> 2023  2 14 10 24 22.0000000  0 33       0.000000000000
G30  21987850.375 7 115546930.035 7        45.000    21987869.820 7  90036641.146 7        45.400    21987870.125 7  90036595.141 7        45.400    21987873.480 8  86285059.572 8        49.500
G17  21781274.461 7 114461369.926 7        45.100    21781294.441 7  89190759.082 7        47.300    21781294.543 7  89190760.079 7        44.500
G19  22409805.578 7 117764328.689 7        43.300    22409827.230 5  91764502.970 5        32.300
G07  23664283.828 6 124356670.589 6        36.600    23664302.320 5  96901360.066 5        30.700    23664302.191 5  96901358.062 5        35.000
G01  23289704.492 6 122388204.812 6        37.900    23289732.164 3  95367556.210 3        22.900    23289732.047 6  95367473.217 6        40.700    23289735.648 7  91393815.906 7        44.500
G14  20353477.930 8 106958249.429 8        48.100    20353495.008 7  83344161.310 7        43.600    20353495.105 8  83344161.299 8        53.000    20353502.637 9  79871449.109 9        55.600
G03  22440111.828 7 117923581.054 7        42.300    22440136.016 5  91888602.685 5        35.600    22440136.207 7  91888528.682 7        44.200    22440141.656 8  88059829.058 8        48.300
G06  21357838.305 7 112236196.705 7        46.200    21357858.191 8  87456862.002 8        50.000    21357858.754 8  87456863.997 8        48.200    21357862.973 8  83812844.191 8        51.500
R20  22030274.586 6 117805827.254 6        36.900    22030274.004 5 117805770.265 5        35.400    22030297.207 6  91626806.839 6        37.900    22030296.699 6  91626804.851 6        37.500
E33  23655619.602 8 124311119.798 8        49.000    23655638.547 8  92829716.133 8        51.800    23655633.813 8  95251349.752 8        52.400    23655636.230 9  94040642.054 9        58.500
E01  23982291.836 8 126027794.414 8        49.400    23982311.324 8  94111741.900 8        51.000    23982306.590 8  96566812.258 8        51.700    23982308.973 9  95339276.688 9        57.800
E26  26269347.023 6 138046347.335 6        41.800    26269373.359 7 103086643.616 7        42.700    26269368.203 7 105775845.381 7        44.100    26269370.965 8 104431253.610 8        49.500
E31  24470959.156 8 128595762.178 8        48.500    24470982.051 8  96029297.650 8        49.200    24470977.406 8  98534409.641 8        50.500    24470979.785 9  97281876.255 9        55.900
R22  22416256.758 7 119659487.777 7        45.000    22416255.438 7 119659483.787 7        43.000    22416275.535 6  93068500.626 6        40.900    22416275.695 6  93068496.629 6        41.400
R11  20897536.859 8 111670111.314 8        50.300    20897536.734 8 111670097.310 8        49.000    20897554.270 7  86854529.285 7        47.100    20897554.496 7  86854525.281 7        46.300
R21  20551124.680 8 109973214.983 8        51.800    20551122.414 8 109973205.984 8        50.700    20551140.910 7  85534725.166 7        47.500    20551141.484 7  85534722.170 7        46.900
R10  19287988.891 7 102815835.656 7        47.200    19287987.988 7 102815818.667 7        45.300
R09  21648659.000 7 115602610.171 7        45.800    21648658.086 7 115602620.166 7        44.200    21648673.832 7  89913158.443 7        44.900    21648673.605 7  89913152.446 7        44.000
R05  24216012.867 5 129448540.996 5        35.100    24216011.777 5 129448439.970 5        33.100    24216040.906 5 100682231.905 5        34.300    24216041.359 5 100682237.904 5        32.900
C14  25127921.617 6 130847690.301 6        36.600    25127932.191 6 101179772.416 6        40.300
C13  36979873.688 7 192563907.725 7        45.200    36979886.254 7 148902681.075 7        43.900
C11  23481600.664 7 122274854.741 7        43.900    23481613.090 7  94550722.391 7        45.700
C10  36624993.039 7 190715949.338 7        44.800    36625002.660 7 147473712.749 7        46.700
C09  38410666.609 6 200014417.430 6        37.400    38410677.430 6 154663880.451 6        39.900
C08  36473447.531 7 189926811.610 7        43.400    36473452.469 7 146863481.009 7        46.400
C07  36331025.508 7 189185183.088 7        46.300    36331031.719 7 146290012.067 7        46.900
C05  38398681.891 6 199952012.578 6        36.200    38398693.457 6 154615628.250 6        40.500
C04  38987536.383 5 203018328.647 5        35.400    38987548.359 6 156986704.262 6        38.700
C03  36231313.781 7 188665959.786 7        43.900    36231319.340 7 145888510.603 7        45.600
C02  36960453.664 6 192462782.816 6        40.600    36960458.895 7 148824454.912 7        45.100
C01  37504270.383 6 195294577.739 6        39.800    37504280.336 7 151014198.875 7        42.800
S27  38724255.828 6 203497336.178 6        40.200
S37  36742945.500 7 193085494.122 7        42.000
> 2023  2 14 10 24 23.0000000  0 33       0.000000000000
G30  21988327.039 7 115549438.008 7        45.200    21988346.324 7  90038595.414 7        45.700    21988346.695 7  90038549.410 7        45.400    21988350.156 8  86286932.412 8        49.600
G17  21781289.164 7 114461447.430 7        45.300    21781309.066 7  89190819.474 7        47.300    21781309.004 7  89190820.469 7        44.300
G19  22409598.000 7 117763237.645 7        43.200    22409619.371 5  91763652.811 5        32.300
G07  23664942.094 6 124360128.662 6        36.300    23664960.164 5  96904054.668 5        30.300    23664959.957 5  96904052.661 5        35.400
G01  23290371.375 6 122391706.974 6        38.400    23290398.742 4  95370285.171 4        24.900    23290398.492 6  95370202.174 6        40.800    23290402.227 7  91396431.157 7        44.100
G14  20353353.008 8 106957593.190 8        48.500    20353369.898 7  83343649.957 7        43.300    20353370.152 8  83343649.945 8        53.000    20353377.586 9  79870959.063 9        55.900
G03  22440114.094 7 117923593.668 7        42.000    22440138.195 5  91888612.516 5        35.300    22440138.488 7  91888538.511 7        44.100    22440144.129 8  88059838.478 8        48.100
G06  21357475.172 7 112234288.962 7        46.300    21357495.453 8  87455375.456 8        50.000    21357495.930 8  87455377.451 8        48.200    21357500.176 8  83811419.582 8        51.400
R20  22030829.664 6 117808791.471 6        37.200    22030828.613 5 117808734.496 5        35.100    22030852.078 6  91629112.342 6        37.300    22030851.387 6  91629110.352 6        37.800
E33  23655804.125 8 124312089.582 8        48.600    23655823.250 8  92830440.322 8        51.700    23655818.469 8  95252092.831 8        52.600    23655820.922 9  94041375.684 9        58.500
E01  23982426.570 8 126028502.138 8        49.700    23982446.039 8  94112270.396 8        51.200    23982441.207 8  96567354.541 8        51.700    23982443.758 9  95339812.077 9        57.800
E26  26269817.148 6 138048818.633 6        41.800    26269843.797 7 103088489.065 7        42.800    26269838.313 7 105777738.968 7        44.000    26269841.246 8 104433123.129 8        49.500
E31  24470618.289 8 128593970.486 8        48.300    24470641.027 8  96027959.709 8        49.500    24470636.387 8  98533036.790 8        50.300    24470638.816 9  97280520.857 9        55.900
R22  22415901.609 7 119657593.953 7        44.700    22415900.055 7 119657589.951 7        43.000    22415921.020 6  93067027.658 6        40.700    22415920.777 6  93067023.654 6        41.600
R11  20896950.922 8 111666978.483 8        50.500    20896950.445 8 111666964.471 8        48.900    20896967.953 7  86852092.653 7        47.200    20896968.254 7  86852088.649 7        46.500
R21  20551193.531 8 109973585.119 8        51.500    20551192.207 8 109973576.120 8        51.000    20551210.488 7  85535013.049 7        47.500    20551211.180 7  85535010.053 7        46.700
R10  19288160.844 7 102816754.606 7        47.000    19288159.824 7 102816737.594 7        45.400
R09  21649364.750 7 115606379.255 7        45.800    21649363.719 7 115606389.272 7        44.500    21649379.207 7  89916089.948 7        45.100    21649379.371 7  89916083.952 7        43.900
R05  24215711.250 5 129446921.941 5        34.700    24215709.219 5 129446820.939 5        32.600    24215737.898 5 100680972.617 5        33.300    24215738.652 5 100680978.613 5        32.900
C14  25127522.578 6 130845610.851 6        36.400    25127533.063 6 101178164.454 6        40.700
C13  36979659.148 7 192562790.655 7        45.400    36979671.449 7 148901817.286 7        43.800
C11  23481917.000 7 122276500.566 7        43.700    23481929.305 7  94551995.042 7        45.900
C10  36624883.164 7 190715377.303 7        44.700    36624892.664 7 147473270.414 7        46.700
C09  38410975.398 6 200016024.750 6        37.100    38410986.027 6 154665123.327 6        40.000
C08  36473233.406 7 189925698.172 7        44.100    36473238.535 7 146862620.031 7        46.300
C07  36330938.977 7 189184733.188 7        46.300    36330945.309 7 146289664.173 7        47.000
C05  38398677.617 6 199951988.105 6        36.400    38398688.809 6 154615609.327 6        40.200
C04  38987533.805 5 203018312.558 5        35.700    38987545.512 6 156986691.812 6        39.000
C03  36231307.305 7 188665925.902 7        43.800    36231313.051 7 145888484.402 7        46.400
C02  36960451.328 6 192462767.975 6        40.800    36960456.121 7 148824443.433 7        45.100
C01  37504264.383 6 195294547.008 6        40.000    37504274.434 7 151014175.119 7        42.900
S27  38724257.172 6 203497346.820 6        40.200
S37  36742956.875 7 193085499.243 7        42.300
