     3.04           OBSERVATION DATA    M (MIXED)           RINEX VERSION / TYPE
NetR9 5.54          Receiver Operator   20230214 102358 UTC PGM / RUN BY / DATE
JNAV                                                        MARKER NAME
JNAV                                                        MARKER NUMBER
GEODETIC                                                    MARKER TYPE         
NAVIS               HUST                                    OBSERVER / AGENCY   
5426R48968          TRIMBLE NETR9       5.54                REC # / TYPE / VERS
                    TRM57971.00     NONE                    ANT # / TYPE
 -1626347.1400  5730607.7483  2271882.3974                  APPROX POSITION XYZ
        0.0000        0.0000        0.0000                  ANTENNA: DELTA H/E/N
G   12 C1C L1C S1C C2W L2W S2W C2X L2X S2X C5X L5X S5X      SYS / # / OBS TYPES
S    3 C1C L1C S1C                                          SYS / # / OBS TYPES
R   12 C1C L1C S1C C1P L1P S1P C2C L2C S2C C3X L3X S3X      SYS / # / OBS TYPES
E   12 C1X L1X S1X C5X L5X S5X C7X L7X S7X C8X L8X S8X      SYS / # / OBS TYPES
J   15 C1C L1C S1C C1X L1X S1X C1Z L1Z S1Z C2X L2X S2X C5X  SYS / # / OBS TYPES
       L5X S5X                                              SYS / # / OBS TYPES
C    6 C2I L2I S2I C7I L7I S7I                              SYS / # / OBS TYPES
     1.000                                                  INTERVAL
  2023     2    14    10    23   58.0000000     GPS         TIME OF FIRST OBS
G L2X -0.25000                                              SYS / PHASE SHIFT   
R L1P  0.25000                                              SYS / PHASE SHIFT   
R L2C -0.25000                                              SYS / PHASE SHIFT   
J L2X  0.25000                                              SYS / PHASE SHIFT   
DBHZ                                                        SIGNAL STRENGTH UNIT
  7 R05  1 R09 -2 R10 -7 R11  0 R20  2 R21  4 R22 -3        GLONASS SLOT / FRQ #
                                                            GLONASS COD/PHS/BIS 
                                                            END OF HEADER       
> 2023  2 14 10 23 58.0000000  0 42       0.000000000000
G30  21976445.367 7 115487017.84217        44.400    21976463.715 7  89989939.29517        43.400    21976464.352 7  89989896.29517        44.300    21976467.387 8  86240326.06918        49.400
R09  21631774.250 7 115512491.56717        44.100    21631773.586 7 115512457.56817        42.400    21631788.168 7  89843037.60717        44.100    21631785.203 7  86733154.34817        43.200
R05  24223335.352 5 129487717.63015        34.600    24223334.395 5 129487589.66015        32.700    24223360.453 5 100712568.36015        32.500
G19  22414823.461 6 117790699.71116        41.500    22414844.387 5  91785031.63915        30.900
G11  24880686.195 5 130748891.61015        34.400    24880706.809 2 101882337.82112        15.600    24880707.480 6 101882279.75416        36.100    24880716.289 6  97637160.63416        39.700
G14  20356533.336 7 106974310.15117        47.000    20356549.328 6  83356661.97116        40.900    20356549.637 8  83356630.96818        51.700    20356556.543 9  79883429.98219        54.500
G03  22440120.031 6 117923616.97216        40.500    22440143.414 6  91888624.48216        39.400    22440144.535 7  91888568.47917        43.400    22440148.746 7  88059863.91417        46.700
J02  37112986.125 7 195030050.98517        44.000    37112986.305 8 195030057.00018        48.000    37112982.895 7 195030089.12917        44.500    37113005.227 7 151971503.97717        47.900    37113009.473 8 145639350.13718        49.800
J07  36742951.938 6 193085526.84416        38.300    36742952.027 7 193085484.83117        42.500    36742946.203 7 193085544.44717        45.400    36742968.984 8 150456281.11918        48.500    36742974.102 8 144187263.82718        51.000
J03  40060756.453 7 210520691.15217        44.200    40060756.137 7 210520792.15817        47.900    40060752.656 7 210520723.62317        45.000    40060775.555 7 164042158.23717        47.400    40060780.480 8 157207060.54518        48.600
J04  37104640.156 6 194986202.25216        39.500    37104639.820 7 194986199.25917        43.400    37104637.898 6 194986227.97716        41.200    37104658.824 7 151937330.39917        43.100    37104664.289 7 145606599.04017        45.800
R21  20549519.008 8 109964623.41518        50.000    20549518.332 8 109964626.42518        49.200    20549535.352 7  85528050.42217        46.200    20549531.555 7  82393964.40317        46.700
R22  22424828.531 7 119705268.26117        43.000    22424827.543 6 119705236.26916        41.400    22424846.246 6  93104093.09716        40.200
G17  21780950.891 7 114459686.22417        43.900    21780969.797 7  89189419.35617        45.000    21780969.746 7  89189380.34917        44.100
G07  23648521.172 5 124273831.43815        34.600    23648538.883 4  96836805.34714        28.100    23648539.402 5  96836773.37215        34.800
R11  20911669.125 8 111745630.73018        48.800    20911669.305 7 111745618.74117        47.300    20911685.867 7  86913274.68017        45.600
R10  19283930.922 7 102794189.94317        44.900    19283929.199 7 102794189.95117        43.400
G06  21366610.453 7 112282287.47917        44.700    21366630.098 7  87492770.62017        47.200    21366630.652 7  87492719.61717        46.200    21366634.387 8  83847189.56518        50.300
R20  22017000.281 5 117734790.30215        34.700    22017000.492 5 117734786.34315        34.700    22017020.738 5  91571511.75615        35.900
G01  23273747.406 6 122304374.21216        37.300    23273773.848 3  95302205.45813        20.900    23273773.164 6  95302128.47616        39.400    23273776.871 7  91331204.31617        43.400
C03  36231504.172 7 188666962.24017        42.900    36231510.961 7 145889279.95417        45.200
C11  23474048.055 7 122235532.80217        43.200    23474061.641 7  94520238.28117        44.500
C04  38987644.906 5 203018961.37715        34.800    38987657.785 6 156987142.60816        37.900
C28  24396129.719 7 127037049.73617        42.200
C05  38398829.617 5 199952815.93515        35.700    38398841.383 6 154616220.77816        39.200
C13  36985064.844 7 192590925.21417        44.600    36985078.195 7 148923509.21017        42.500
C25  22270384.844 8 115967754.76418        49.000
C14  25137537.844 6 130897738.20216        36.500    25137548.754 6 101218490.32416        39.800
C01  37504446.547 6 195295531.86116        38.500    37504457.176 6 151014906.18216        41.600
C06  39684910.586 5 206649721.69315        33.800    39684919.836 5 159794726.48315        35.500
C16  39637355.398 5 206402115.40015        34.600    39637369.836 5 159603261.74315        33.500
C23  22618322.508 8 117779549.38818        49.700
C02  36960556.625 6 192463356.01216        39.700    36960562.785 7 148824871.67917        44.200
E12  25031106.766 7 131539353.40117        43.200    25031124.590 7  98227475.08817        44.300    25031121.672 7 100789917.25017        44.000    25031123.559 7  99508642.28617        47.800
E24  28610830.398 5 150350913.61815        35.000    28610855.770 6 112275036.06316        36.100    28610852.930 5 115203889.21515        35.400
E26  26258093.039 6 137987213.40016        41.200    26258118.691 7 103042327.98217        42.600    26258114.781 7 105730457.49317        43.000    26258117.273 7 104386407.35217        46.400
E01  23979112.070 8 126011082.01318        50.200    23979130.191 8  94099233.29318        49.800    23979126.926 8  96553986.91018        51.200    23979128.977 8  95326542.71118        53.800
E31  24479185.031 8 128638989.09118        49.000    24479206.598 8  96061536.54818        48.500    24479203.457 8  98567493.40118        49.100    24479205.375 8  97314534.58318        52.200
E21  27256149.648 6 143232035.11116        38.200    27256171.727 6 106958923.79116        39.900    27256168.234 6 109749219.79716        39.700    27256170.395 7 108354072.91617        43.500
E33  23651239.266 8 124288100.01618        48.500    23651256.949 8  92812600.02118        51.300    23651253.598 8  95233788.98718        51.300    23651255.703 9  94023113.11519        54.000
E10  27097553.539 6 142398620.57016        38.600    27097578.313 6 106336558.41116        41.400    27097573.730 6 109110608.06316        41.200    27097576.398 7 107723577.84417        44.600
S26  38095844.969 6 200195022.44916        36.200
> 2023  2 14 10 23 59.0000000  0 42       0.000000000000
G30  21976920.969 7 115489517.684 7        44.500    21976939.578 7  89991887.223 7        43.200    21976940.246 7  89991844.227 7        44.200    21976943.141 8  86242192.827 8        49.200
R09  21632477.719 7 115516249.953 7        44.000    21632477.469 7 115516215.961 7        42.400    21632492.035 7  89845960.771 7        43.900    21632488.840 7  86735976.343 7        43.100
R05  24223030.055 5 129486089.523 5        34.000    24223029.559 5 129485961.547 5        32.500    24223056.820 5 100711301.993 5        33.200
G19  22414615.656 6 117789606.543 6        41.600    22414636.477 5  91784179.833 5        30.400
G11  24880075.859 5 130745684.863 5        33.600    24880096.629 2 101879839.039 2        16.300    24880097.543 6 101879781.012 6        36.900    24880105.871 6  97634765.990 6        39.400
G14  20356406.227 7 106973642.141 7        47.000    20356422.207 6  83356141.448 6        41.100    20356422.559 8  83356110.445 8        51.900    20356429.480 9  79882931.152 9        54.500
G03  22440119.789 6 117923614.503 6        40.400    22440142.949 6  91888622.552 6        39.500    22440143.527 7  91888566.558 7        43.400    22440148.367 7  88059862.066 7        47.200
J02  37112795.609 7 195029046.866 7        43.900    37112795.406 7 195029052.872 7        47.900    37112791.898 7 195029085.011 7        44.700    37112813.902 7 151970721.558 7        47.700    37112818.340 8 145638600.320 8        49.600
J07  36742952.578 6 193085531.214 6        37.900    36742952.895 7 193085489.237 7        42.500    36742947.113 7 193085548.817 7        45.400    36742969.984 8 150456284.544 8        48.600    36742974.938 8 144187267.107 8        51.100
J03  40060828.125 7 210521070.068 7        44.600    40060828.344 7 210521171.061 7        47.900    40060824.664 7 210521102.533 7        45.300    40060847.816 7 164042453.506 7        47.400    40060852.586 8 157207343.499 8        48.600
J04  37104683.516 6 194986429.645 6        39.600    37104683.207 7 194986426.651 7        43.500    37104681.012 6 194986455.370 6        40.900    37104701.965 7 151937507.593 7        42.800    37104707.480 7 145606768.854 7        46.200
R21  20549586.047 8 109964983.187 8        49.600    20549585.730 8 109964986.196 8        49.100    20549602.250 7  85528330.240 7        46.600    20549598.789 7  82394233.972 7        47.000
R22  22424470.461 7 119703363.198 7        42.500    22424470.543 6 119703331.183 6        41.100    22424489.418 6  93102611.341 6        40.200
G17  21780965.844 7 114459763.577 7        43.800    21780984.688 7  89189479.629 7        45.700    21780984.844 7  89189440.645 7        43.900
G07  23649179.250 5 124277289.287 5        34.600    23649196.855 4  96839499.777 4        28.500    23649197.035 5  96839467.792 5        35.000
R11  20911080.430 8 111742484.612 8        48.300    20911080.566 7 111742472.607 7        47.200    20911097.109 7  86910827.712 7        45.900
R10  19284099.422 7 102795087.825 7        45.000    19284097.746 7 102795087.827 7        43.300
G06  21366245.547 7 112280367.309 7        44.700    21366264.688 7  87491274.390 7        47.500    21366265.551 7  87491223.386 7        46.500    21366268.996 8  83845755.680 8        50.300
R20  22017554.578 5 117737754.900 5        34.600    22017554.840 5 117737750.898 5        34.100    22017576.086 6  91573817.550 6        36.000
G01  23274412.703 6 122307873.488 6        37.100    23274439.766 3  95304932.153 3        21.100    23274439.004 6  95304855.184 6        39.400    23274442.879 7  91333817.441 7        43.300
C03  36231497.969 7 188666927.628 7        42.900    36231504.246 7 145889253.194 7        45.300
C11  23474364.281 7 122237178.389 7        43.000    23474377.441 7  94521510.756 7        45.000
C04  38987642.336 5 203018944.564 5        34.600    38987654.438 6 156987129.613 6        37.900
C28  24395905.516 7 127035881.177 7        42.200
C05  38398824.844 5 199952790.749 5        35.400    38398836.453 6 154616201.302 6        39.300
C13  36984849.836 7 192589803.884 7        44.400    36984862.941 7 148922642.127 7        42.600
C25  22270752.391 8 115969669.579 8        49.100
C14  25137138.305 6 130895659.169 6        36.200    25137149.625 6 101216882.687 6        39.900
C01  37504440.203 6 195295500.424 6        38.900    37504451.082 6 151014881.884 6        41.700
C06  39685185.719 5 206651154.724 5        34.300    39685194.711 5 159795834.596 5        35.700
C16  39637623.023 5 206403510.634 5        34.200    39637637.926 5 159604340.622 5        33.300
C23  22618137.867 8 117778586.476 8        49.900
C02  36960553.406 6 192463340.444 6        39.800    36960559.902 7 148824859.645 7        44.000
E12  25030832.906 7 131537912.593 7        43.700    25030850.309 7  98226399.157 7        44.200    25030847.305 7 100788813.250 7        44.400    25030849.371 8  99507552.308 8        48.000
E24  28610334.570 5 150348308.403 5        34.900    28610360.559 6 112273090.575 6        36.500    28610356.789 6 115201893.020 6        36.100
E26  26258563.477 6 137989683.453 6        41.300    26258588.848 7 103044172.501 7        42.600    26258585.027 7 105732350.148 7        43.400    26258587.324 7 104388275.934 7        46.300
E01  23979244.938 8 126011780.431 8        50.100    23979263.031 8  94099754.843 8        49.800    23979259.820 8  96554522.073 8        51.200    23979261.895 9  95327071.065 9        54.000
E31  24478842.938 8 128637192.068 8        49.100    24478864.781 8  96060194.626 8        48.400    24478861.332 8  98566116.470 8        49.500    24478863.410 8  97313175.157 8        52.300
E21  27256578.422 6 143234289.918 6        38.100    27256600.523 6 106960607.572 6        39.600    27256597.230 6 109750947.561 6        39.800    27256599.492 7 108355778.667 7        43.400
E33  23651422.148 8 124289062.078 8        48.600    23651440.059 8  92813318.446 8        51.000    23651436.852 8  95234526.158 8        51.500    23651438.777 9  94023840.914 9        54.000
E10  27097145.242 6 142396470.648 6        38.700    27097169.223 6 106334952.977 6        41.200    27097164.844 6 109108960.732 6        40.900    27097167.277 7 107721951.457 7        44.600
S26  38095845.156 6 200194970.056 6        36.000
> 2023  2 14 10 24  0.0000000  0 42       0.000000000000
G30  21977396.750 7 115492017.855 7        44.700    21977415.352 7  89993835.412 7        43.200    21977415.922 7  89993792.417 7        44.100    21977418.844 8  86244059.837 8        48.800
R09  21633182.164 7 115520008.770 7        43.900    21633181.184 7 115519974.770 7        42.600    21633195.824 7  89848884.300 7        44.100    21633192.844 7  86738798.677 7        43.200
R05  24222726.016 5 129484461.806 5        34.200    24222725.113 5 129484333.751 5        33.200    24222751.316 5 100710035.958 5        32.800
G19  22414407.344 6 117788513.483 6        41.600    22414428.438 5  91783328.102 5        30.500
G11  24879465.500 5 130742478.294 5        34.300    24879486.375 2 101877340.425 2        15.600    24879487.371 6 101877282.443 6        37.200    24879495.742 6  97632371.484 6        39.500
G14  20356279.375 7 106972974.609 7        47.100    20356295.195 6  83355621.297 6        41.200    20356295.555 8  83355590.294 8        51.700    20356302.457 9  79882432.666 9        54.500
G03  22440119.680 6 117923612.590 6        40.300    22440142.715 6  91888621.068 6        39.800    22440143.199 7  91888565.093 7        43.400    22440147.973 7  88059860.670 7        47.300
J02  37112603.672 7 195028042.869 7        43.600    37112604.242 8 195028048.863 8        48.000    37112600.488 7 195028081.015 7        45.000    37112622.805 7 151969939.208 7        47.700    37112627.203 8 145637850.570 8        49.900
J07  36742953.750 6 193085535.678 6        38.000    36742953.809 7 193085493.646 7        42.500    36742948.105 7 193085553.289 7        45.300    36742970.801 8 150456287.988 8        48.500    36742975.715 8 144187270.404 8        51.100
J03  40060900.688 7 210521448.918 7        44.500    40060900.387 8 210521549.917 8        48.000    40060896.637 7 210521481.383 7        45.200    40060919.633 7 164042748.710 7        47.400    40060924.727 8 157207626.415 8        48.200
J04  37104726.672 6 194986657.113 6        39.600    37104726.527 7 194986654.088 7        43.600    37104723.965 6 194986682.838 6        40.300    37104745.234 7 151937684.837 7        43.100    37104750.781 7 145606938.698 7        45.800
R21  20549653.578 8 109965343.347 8        49.600    20549652.813 8 109965346.356 8        49.300    20549669.867 7  85528610.364 7        46.700    20549666.160 7  82394503.824 7        47.100
R22  22424113.406 7 119701458.589 7        42.400    22424113.684 6 119701426.597 6        40.800    22424132.543 6  93101129.984 6        40.000
G17  21780980.422 7 114459840.944 7        43.900    21780999.297 7  89189539.916 7        45.600    21781000.035 7  89189500.904 7        43.800
G07  23649837.742 5 124280747.124 5        34.700    23649854.891 4  96842194.194 4        29.000    23649855.031 5  96842162.205 5        35.200
R11  20910491.703 8 111739339.029 8        48.800    20910491.918 7 111739327.040 7        47.300    20910507.969 7  86908381.155 7        45.700
R10  19284267.234 7 102795986.560 7        44.800    19284266.660 7 102795986.577 7        43.600
G06  21365879.828 7 112278447.654 7        44.900    21365899.203 7  87489778.562 7        47.400    21365900.324 7  87489727.553 7        46.300    21365903.707 8  83844322.175 8        50.200
R20  22018109.070 5 117740719.410 5        34.800    22018109.348 5 117740715.437 5        34.300    22018131.379 6  91576123.274 6        36.400
G01  23275078.703 6 122311372.917 6        38.100    23275105.617 3  95307658.999 3        21.100    23275105.219 6  95307582.002 6        39.500    23275108.727 7  91336430.613 7        43.600
C03  36231491.203 7 188666893.022 7        42.800    36231497.594 7 145889226.437 7        44.700
C11  23474680.227 7 122238823.952 7        43.200    23474693.504 7  94522783.204 7        45.100
C04  38987639.430 5 203018927.720 5        34.600    38987651.305 6 156987116.596 6        37.900
C28  24395681.430 7 127034712.820 7        42.500
C05  38398819.758 5 199952765.597 5        35.700    38398831.609 6 154616181.846 6        39.500
C13  36984634.078 7 192588682.754 7        44.300    36984647.676 7 148921775.198 7        42.900
C25  22271120.203 8 115971584.820 8        49.300
C14  25136739.000 6 130893580.153 6        36.300    25136750.340 6 101215275.059 6        39.400
C01  37504434.172 6 195295469.025 6        38.800    37504445.027 6 151014857.596 6        41.700
C06  39685460.039 5 206652587.728 5        33.700    39685470.008 5 159796942.683 5        35.700
C16  39637890.914 5 206404905.787 5        34.600    39637905.707 5 159605419.449 5        33.600
C23  22617952.867 8 117777624.075 8        50.000
C02  36960550.898 6 192463324.883 6        39.800    36960556.691 7 148824847.613 7        44.100
E12  25030558.609 7 131536472.127 7        43.700    25030576.266 7  98225323.476 7        44.400    25030573.262 7 100787709.521 7        44.100    25030575.262 8  99506462.609 8        48.100
E24  28609838.797 5 150345703.187 5        35.300    28609864.961 6 112271145.098 6        36.400    28609861.148 5 115199896.776 5        35.400
E26  26259033.445 6 137992153.553 6        41.300    26259058.754 7 103046017.065 7        42.100    26259054.910 7 105734242.807 7        42.700    26259057.363 7 104390144.539 7        46.100
E01  23979377.922 8 126012479.230 8        50.000    23979396.023 8  94100276.687 8        49.800    23979392.820 8  96555057.515 8        51.300    23979394.863 9  95327599.710 9        54.000
E31  24478500.977 8 128635395.252 8        48.800    24478522.770 8  96058852.853 8        48.200    24478519.520 8  98564739.694 8        49.200    24478521.484 8  97311815.885 8        52.100
E21  27257007.258 6 143236544.979 6        38.500    27257029.789 6 106962291.560 6        40.000    27257026.438 6 109752675.446 6        39.900    27257028.613 7 108357484.611 7        43.900
E33  23651605.258 8 124290024.445 8        48.600    23651623.223 8  92814037.100 8        50.800    23651619.840 8  95235263.555 8        51.400    23651621.906 8  94024568.937 8        53.900
E10  27096735.961 6 142394321.023 6        38.900    27096760.055 6 106333347.728 6        41.100    27096755.773 6 109107313.622 6        40.900    27096758.227 7 107720325.270 7        44.400
S26  38095826.469 6 200194917.608 6        36.100
> 2023  2 14 10 24  1.0000000  0 42       0.000000000000
G30  21977872.742 7 115494518.364 7        44.700    21977891.125 7  89995783.858 7        43.100    21977891.961 7  89995740.865 7        44.200    21977894.648 8  86245927.085 8        48.900
R09  21633886.273 7 115523768.016 7        44.000    21633885.500 7 115523734.000 7        42.700    21633900.406 7  89851808.152 7        43.400    21633897.043 7  86741621.316 7        43.300
R05  24222420.078 5 129482834.371 5        34.200    24222420.895 5 129482706.413 5        33.200    24222447.328 5 100708770.242 5        32.800
G19  22414199.211 6 117787420.462 6        41.300    22414220.391 5  91782476.407 5        30.400
G11  24878856.047 5 130739271.965 5        34.800    24878876.352 2 101874842.014 2        17.400    24878877.512 6 101874784.007 6        37.100    24878885.504 6  97629977.153 6        39.800
G14  20356152.352 7 106972307.533 7        47.000    20356168.188 6  83355101.499 6        41.400    20356168.535 8  83355070.495 8        51.900    20356175.520 9  79881934.536 9        54.700
G03  22440119.375 6 117923611.356 6        40.400    22440142.418 6  91888620.098 6        39.800    22440142.910 7  91888564.097 7        43.500    22440147.707 7  88059859.721 7        47.300
J02  37112413.125 7 195027038.938 7        43.300    37112413.160 8 195027044.924 8        48.100    37112409.914 7 195027077.089 7        44.600    37112431.605 8 151969156.924 8        48.000    37112436.230 8 145637100.874 8        49.900
J07  36742954.609 6 193085540.061 6        37.700    36742954.379 7 193085498.072 7        42.500    36742949.102 7 193085557.672 7        45.200    36742971.668 8 150456291.431 8        48.200    36742976.570 8 144187273.707 8        50.900
J03  40060972.656 7 210521827.673 7        44.300    40060972.410 7 210521928.659 7        47.800    40060968.707 7 210521860.138 7        45.400    40060991.934 7 164043043.849 7        47.500    40060996.777 8 157207909.255 8        48.700
J04  37104770.031 6 194986884.556 6        39.500    37104769.836 7 194986881.569 7        43.600    37104767.293 6 194986910.281 6        39.900    37104788.578 7 151937862.093 7        43.200    37104793.898 7 145607108.567 7        46.000
R21  20549720.773 8 109965703.927 8        50.200    20549720.469 8 109965706.937 8        49.200    20549736.566 7  85528890.826 7        46.600    20549733.496 7  82394774.004 7        47.400
R22  22423756.695 7 119699554.400 7        42.500    22423756.617 6 119699522.404 6        40.800    22423774.473 6  93099648.966 6        39.600
G17  21780995.148 7 114459918.275 7        43.900    21781013.879 7  89189600.181 7        44.800    21781014.309 7  89189561.184 7        43.900
G07  23650495.461 5 124284204.950 5        35.400    23650512.938 4  96844888.608 4        28.000    23650513.523 5  96844856.623 5        34.900
R11  20909903.430 8 111736194.003 8        48.600    20909903.340 7 111736182.006 7        47.200    20909919.820 7  86905935.032 7        45.800
R10  19284436.289 7 102796886.148 7        44.600    19284435.230 7 102796886.148 7        43.600
G06  21365514.391 7 112276528.483 7        44.800    21365534.035 7  87488283.101 7        47.200    21365534.707 7  87488232.092 7        46.800    21365538.520 8  83842889.034 8        50.200
R20  22018664.305 5 117743683.948 5        34.700    22018663.691 5 117743679.967 5        34.100    22018685.355 6  91578428.994 6        36.800
G01  23275744.594 6 122314872.444 6        37.500    23275771.492 3  95310385.899 3        21.100    23275771.598 6  95310308.901 6        39.800    23275774.594 7  91339043.890 7        43.700
C03  36231484.734 7 188666858.442 7        42.900    36231490.926 7 145889199.704 7        45.000
C11  23474996.141 7 122240469.519 7        43.400    23475009.367 7  94524055.663 7        45.000
C04  38987635.422 5 203018910.879 5        34.500    38987647.941 6 156987103.571 6        37.600
C28  24395456.852 7 127033544.681 7        42.300
C05  38398814.586 5 199952740.435 5        35.600    38398826.832 6 154616162.400 6        39.500
C13  36984418.969 7 192587561.765 7        44.600    36984432.340 7 148920908.385 7        43.100
C25  22271488.375 8 115973500.486 8        49.300
C14  25136340.367 5 130891501.021 5        35.300    25136350.965 6 101213667.340 6        39.600
C01  37504428.703 6 195295437.603 6        38.800    37504438.953 6 151014833.306 6        40.800
C06  39685734.914 5 206654020.595 5        33.400    39685745.289 6 159798050.656 6        36.000
C16  39638159.242 5 206406300.849 5        34.200    39638173.578 5 159606498.191 5        33.400
C23  22617768.195 8 117776662.186 8        49.900
C02  36960547.695 6 192463309.332 6        39.600    36960553.715 7 148824835.587 7        44.500
E12  25030284.484 7 131535031.977 7        43.900    25030302.227 7  98224248.037 7        44.000    25030299.191 7 100786606.045 7        44.700    25030301.227 8  99505373.151 8        48.200
E24  28609343.313 5 150343097.843 5        35.300    28609369.234 6 112269199.534 6        36.500    28609365.250 5 115197900.449 5        35.700
E26  26259503.773 6 137994623.694 6        41.300    26259528.762 7 103047861.615 7        42.300    26259524.965 7 105736135.501 7        43.000    26259527.414 7 104392013.167 7        46.400
E01  23979510.953 8 126013178.404 8        50.000    23979529.086 8  94100798.777 8        49.900    23979525.844 8  96555593.245 8        51.200    23979527.910 8  95328128.624 8        53.600
E31  24478158.961 8 128633598.627 8        49.100    24478180.766 8  96057511.230 8        48.000    24478177.637 8  98563363.069 8        49.300    24478179.578 8  97310456.755 8        52.100
E21  27257437.055 6 143238800.198 6        37.700    27257458.949 6 106963975.684 6        39.800    27257455.578 6 109754403.503 6        40.200    27257457.758 7 108359190.712 7        43.900
E33  23651788.477 8 124290987.114 8        48.400    23651806.398 8  92814755.982 8        51.000    23651803.145 8  95236001.189 8        51.400    23651805.109 9  94025297.195 9        54.400
E10  27096327.367 6 142392171.640 6        38.900    27096351.148 6 106331742.667 6        41.300    27096346.844 6 109105666.665 6        41.100    27096349.191 7 107718699.271 7        44.600
S26  38095819.500 6 200194865.226 6        36.400
> 2023  2 14 10 24  2.0000000  0 42       0.000000000000
G30  21978349.117 7 115497019.159 7        44.500    21978366.902 7  89997732.528 7        43.200    21978367.855 7  89997689.518 7        44.700    21978370.574 8  86247794.575 8        49.000
R09  21634590.281 7 115527527.682 7        44.200    21634589.508 7 115527493.696 7        42.700    21634603.766 7  89854732.346 7        43.600    21634600.914 7  86744444.280 7        43.300
R05  24222116.195 5 129481207.373 5        33.500    24222115.949 5 129481079.377 5        32.400    24222142.559 5 100707504.727 5        32.800
G19  22413991.125 6 117786327.518 6        41.400    22414012.387 5  91781624.770 5        31.200
G11  24878246.102 5 130736065.781 5        34.400    24878266.250 2 101872343.678 2        17.400    24878266.441 6 101872285.687 6        36.600    24878275.449 6  97627582.955 6        39.800
G14  20356025.180 7 106971640.930 7        47.000    20356041.348 6  83354582.073 6        41.400    20356041.770 8  83354551.070 8        52.100    20356048.586 9  79881436.752 9        54.800
G03  22440118.969 6 117923610.685 6        40.400    22440142.156 6  91888619.571 6        39.600    22440142.617 7  91888563.571 7        43.000    22440147.547 7  88059859.225 7        47.200
J02  37112222.406 7 195026035.078 7        43.800    37112222.223 8 195026041.071 8        48.000    37112218.789 7 195026073.223 7        44.600    37112240.832 8 151968374.703 8        48.300    37112245.191 8 145636351.249 8        49.900
J07  36742955.172 6 193085544.512 6        38.100    36742955.320 7 193085502.493 7        42.300    36742949.809 7 193085562.130 7        45.200    36742972.387 8 150456294.870 8        48.400    36742977.379 8 144187277.014 8        50.900
J03  40061044.516 7 210522206.328 7        44.300    40061044.566 7 210522307.342 7        47.800    40061040.625 7 210522238.793 7        44.900    40061063.781 7 164043338.920 7        47.500    40061068.742 8 157208192.042 8        48.300
J04  37104812.953 6 194987112.072 6        39.800    37104812.977 7 194987109.078 7        43.400    37104810.805 6 194987137.790 6        39.900    37104832.059 7 151938039.364 7        43.200    37104837.277 7 145607278.450 7        46.200
R21  20549788.266 8 109966064.943 8        50.200    20549787.754 8 109966067.946 8        49.100    20549803.855 7  85529171.617 7        46.700    20549801.020 7  82395044.498 7        47.200
R22  22423400.320 7 119697650.635 7        42.000    22423400.059 6 119697618.639 6        40.900    22423419.711 6  93098168.254 6        39.800
G17  21781009.984 7 114459995.594 7        43.800    21781028.770 7  89189660.432 7        44.800    21781028.816 7  89189621.449 7        43.700
G07  23651153.758 5 124287662.748 5        35.400    23651170.941 4  96847582.986 4        28.200    23651172.078 5  96847550.994 5        35.100
R11  20909315.156 8 111733049.479 8        48.300    20909314.793 7 111733037.475 7        47.000    20909331.137 7  86903489.283 7        46.000
R10  19284605.320 7 102797786.581 7        45.000    19284604.184 7 102797786.588 7        43.200
G06  21365149.977 7 112274609.804 7        44.700    21365169.074 7  87486788.031 7        47.400    21365169.648 7  87486737.026 7        47.200    21365173.414 8  83841456.246 8        50.200
R20  22019218.867 5 117746648.446 5        34.700    22019218.027 5 117746644.440 5        33.700    22019239.332 6  91580734.697 6        36.600
G01  23276410.203 6 122318372.025 6        37.000    23276437.469 3  95313112.834 3        21.300    23276437.434 6  95313035.849 6        40.200    23276440.734 7  91341657.224 7        43.800
C03  36231478.281 7 188666823.835 7        42.900    36231484.363 7 145889172.947 7        44.900
C11  23475312.625 7 122242115.062 7        43.700    23475325.785 7  94525328.099 7        44.700
C04  38987632.367 5 203018894.072 5        34.200    38987644.586 6 156987090.577 6        38.400
C28  24395232.289 6 127032376.717 6        41.800
C05  38398809.969 6 199952715.290 6        36.100    38398821.977 6 154616142.953 6        39.500
C13  36984203.602 7 192586440.928 7        44.600    36984217.352 7 148920041.680 7        43.000
C25  22271856.227 8 115975416.572 8        48.800
C14  25135940.766 5 130889421.926 5        35.900    25135951.797 6 101212059.659 6        39.500
C01  37504422.320 6 195295406.193 6        38.700    37504432.996 6 151014809.023 6        41.100
C06  39686011.219 5 206655453.417 5        33.400    39686020.406 5 159799158.617 5        35.800
C16  39638427.070 5 206407695.804 5        34.600    39638441.570 5 159607576.861 5        33.600
C23  22617583.484 8 117775700.779 8        49.800
C02  36960544.570 6 192463293.805 6        39.800    36960550.711 7 148824823.585 7        44.400
E12  25030010.758 7 131533592.177 7        43.900    25030028.297 7  98223172.886 7        44.200    25030025.270 7 100785502.798 7        44.900    25030027.234 8  99504283.950 8        48.300
E24  28608847.828 5 150340492.497 5        35.200    28608873.633 6 112267253.963 6        36.500    28608869.324 6 115195904.158 6        36.000
E26  26259973.883 6 137997093.848 6        41.200    26259998.949 7 103049706.210 7        42.400    26259995.082 7 105738028.217 7        43.000    26259997.492 7 104393881.827 7        46.900
E01  23979644.086 8 126013877.919 8        49.800    23979662.273 8  94101321.146 8        49.800    23979658.953 8  96556129.240 8        51.100    23979661.027 8  95328657.803 8        53.700
E31  24477817.391 8 128631802.191 8        49.100    24477838.949 7  96056169.744 7        47.800    24477835.789 8  98561986.586 8        49.100    24477837.727 8  97309097.771 8        52.000
E21  27257865.727 6 143241055.712 6        37.800    27257888.223 6 106965659.964 6        39.700    27257884.781 6 109756131.733 6        40.000    27257886.969 7 108360896.956 7        43.800
E33  23651971.945 8 124291950.076 8        48.400    23651989.559 8  92815475.075 8        50.900    23651986.406 8  95236739.040 8        51.200    23651988.359 9  94026025.666 9        54.500
E10  27095918.297 6 142390022.484 6        39.100    27095942.047 6 106330137.771 6        41.000    27095937.922 6 109104019.925 6        41.300    27095940.230 7 107717073.445 7        44.600
S26  38095811.813 5 200194812.806 5        35.600
> 2023  2 14 10 24  3.0000000  0 42       0.000000000000
G30  21978824.492 7 115499520.273 7        44.400    21978843.000 7  89999681.449 7        43.300    21978843.387 7  89999638.456 7        44.500    21978846.508 8  86249662.283 8        48.800
R09  21635294.898 7 115531287.760 7        44.700    21635293.719 7 115531253.774 7        43.200    21635307.742 7  89857656.864 7        43.400    21635305.105 7  86747267.580 7        43.300
R05  24221812.430 5 129479580.657 5        34.100    24221811.625 5 129479452.656 5        33.500    24221838.109 5 100706239.506 5        32.900
G19  22413783.602 6 117785234.649 6        41.400    22413804.445 5  91780773.188 5        30.600
G11  24877635.063 5 130732859.873 5        34.800    24877656.180 2 101869845.574 2        17.800    24877656.477 6 101869787.562 6        36.900    24877665.379 6  97625188.920 6        39.400
G14  20355898.750 7 106970974.784 7        47.100    20355914.742 6  83354063.000 6        41.600    20355914.926 8  83354031.997 8        51.800    20355921.805 9  79880939.309 9        54.500
G03  22440119.273 6 117923610.643 6        40.300    22440142.246 6  91888619.550 6        40.200    22440142.746 7  91888563.544 7        43.300    22440147.551 7  88059859.186 7        47.300
J02  37112031.563 7 195025031.309 7        43.700    37112030.988 8 195025037.310 8        48.000    37112027.512 7 195025069.458 7        44.300    37112049.645 8 151967592.550 8        48.000    37112054.227 8 145635601.689 8        49.700
J07  36742956.438 6 193085548.926 6        38.200    36742956.148 7 193085506.903 7        42.500    36742950.707 7 193085566.538 7        45.300    36742973.488 8 150456298.330 8        48.600    36742978.289 8 144187280.321 8        50.800
J03  40061116.484 7 210522584.942 7        44.200    40061116.766 7 210522685.937 7        47.900    40061113.152 7 210522617.407 7        45.100    40061136.043 7 164043633.933 7        47.300    40061140.906 8 157208474.752 8        48.300
J04  37104856.141 6 194987339.627 6        39.600    37104856.273 7 194987336.633 7        43.700    37104853.961 6 194987365.352 6        40.400    37104875.391 7 151938216.667 7        42.800    37104880.719 7 145607448.394 7        46.000
R21  20549856.258 8 109966426.386 8        50.200    20549855.348 8 109966429.395 8        49.000    20549872.227 7  85529452.743 7        46.900    20549868.535 7  82395315.335 7        47.300
R22  22423045.086 7 119695747.356 7        42.300    22423043.520 6 119695715.368 6        41.100    22423063.676 6  93096687.926 6        40.300
G17  21781024.594 7 114460072.897 7        43.800    21781043.363 7  89189720.671 7        44.800    21781044.117 7  89189681.666 7        43.700
G07  23651811.242 5 124291120.604 5        35.400    23651828.855 4  96850277.410 4        27.700    23651829.809 5  96850245.402 5        35.000
R11  20908726.313 8 111729905.493 8        48.200    20908726.504 7 111729893.503 7        47.000    20908743.340 7  86901043.989 7        46.100
R10  19284774.070 7 102798687.892 7        45.100    19284773.434 7 102798687.887 7        43.400
G06  21364784.750 7 112272691.608 7        45.000    21364803.957 7  87485293.332 7        47.500    21364804.656 7  87485242.336 7        47.200    21364808.391 8  83840023.844 8        50.300
R20  22019771.555 5 117749612.864 5        35.500    22019772.199 5 117749608.870 5        33.900    22019794.020 6  91583040.420 6        36.500
G01  23277076.750 6 122321871.717 6        36.900    23277103.480 3  95315839.855 3        20.600    23277103.117 6  95315762.888 6        40.000    23277106.637 7  91344270.653 7        44.100
C03  36231471.531 7 188666789.252 7        42.900    36231477.629 7 145889146.203 7        44.500
C11  23475628.445 7 122243760.588 7        43.900    23475641.652 7  94526600.525 7        44.900
C04  38987629.391 5 203018877.304 5        34.600    38987641.582 6 156987077.615 6        37.600
C28  24395007.930 6 127031208.972 6        41.800
C05  38398805.555 6 199952690.139 6        36.000    38398817.234 6 154616123.501 6        39.100
C13  36983988.352 7 192585320.242 7        44.600    36984002.117 7 148919175.103 7        42.500
C25  22272224.594 8 115977333.082 8        48.900
C14  25135540.836 5 130887342.747 5        35.500    25135552.566 6 101210451.913 6        39.400
C01  37504416.273 6 195295374.811 6        38.800    37504427.211 6 151014784.758 6        41.500
C06  39686286.203 5 206656886.105 5        33.800    39686295.594 6 159800266.452 6        36.100
C16  39638695.219 5 206409090.675 5        34.700    39638709.523 5 159608655.470 5        33.900
C23  22617398.969 8 117774739.898 8        50.000
C02  36960541.375 6 192463278.281 6        39.500    36960547.914 7 148824811.583 7        44.200
E12  25029736.336 7 131532152.706 7        43.700    25029754.289 7  98222097.950 7        44.600    25029751.285 7 100784399.836 7        44.800    25029753.316 8  99503195.006 8        48.300
E24  28608351.813 5 150337887.025 5        35.400    28608377.980 6 112265308.314 6        36.400    28608373.988 6 115193907.787 6        36.000
E26  26260443.766 6 137999564.024 6        41.300    26260469.242 7 103051550.843 7        42.600    26260465.180 7 105739920.937 7        42.600    26260467.547 7 104395750.511 7        46.300
E01  23979777.281 8 126014577.805 8        49.600    23979795.434 8  94101843.786 8        49.800    23979792.164 8  96556665.515 8        51.200    23979794.215 8  95329187.262 8        53.700
E31  24477475.336 8 128630005.963 8        49.000    24477497.238 7  96054828.411 7        47.700    24477494.063 8  98560610.256 8        48.800    24477495.914 8  97307738.947 8        51.900
E21  27258295.383 6 143243311.384 6        38.300    27258317.430 6 106967344.446 6        40.200    27258314.117 6 109757860.141 6        40.200    27258316.219 7 108362603.409 7        44.000
E33  23652155.117 8 124292913.355 8        48.600    23652172.887 8  92816194.394 8        50.600    23652169.715 8  95237477.125 8        51.400    23652171.656 9  94026754.373 9        54.600
E10  27095509.063 6 142387873.626 6        39.600    27095533.094 6 106328533.083 6        41.200    27095528.758 6 109102373.378 6        41.400    27095531.297 7 107715447.828 7        44.600
S26  38095803.969 5 200194760.420 5        35.800
> 2023  2 14 10 24  4.0000000  0 42       0.000000000000
G30  21979299.875 7 115502021.704 7        44.300    21979318.867 7  90001630.615 7        43.200    21979319.594 7  90001587.605 7        44.400    21979322.477 8  86251530.243 8        48.700
R09  21635999.367 7 115535048.249 7        44.600    21635998.207 7 115535014.270 7        43.000    21636012.234 7  89860581.682 7        43.400    21636009.406 7  86750091.161 7        43.700
R05  24221509.031 5 129477954.291 5        34.800    24221507.621 5 129477826.305 5        33.200    24221534.070 5 100704974.539 5        32.800
G19  22413575.828 6 117784141.815 6        41.600    22413596.547 5  91779921.645 5        31.500
G11  24877025.273 5 130729654.165 5        34.000    24877046.270 2 101867347.575 2        17.400    24877046.684 6 101867289.580 6        36.900    24877055.094 6  97622795.037 6        39.100
G14  20355771.758 7 106970309.114 7        47.200    20355787.832 6  83353544.303 6        41.400    20355788.277 8  83353513.299 8        51.700    20355795.152 9  79880442.222 9        54.600
G03  22440118.586 6 117923611.169 6        40.400    22440142.391 6  91888619.953 6        39.600    22440142.652 7  91888563.972 7        43.600    22440147.695 7  88059859.573 7        47.000
J02  37111839.906 7 195024027.622 7        44.000    37111840.059 8 195024033.621 8        48.000    37111836.684 7 195024065.766 7        44.900    37111858.887 8 151966810.459 8        48.300    37111863.203 8 145634852.190 8        50.000
J07  36742956.797 6 193085553.359 6        38.300    36742957.074 7 193085511.356 7        42.600    36742951.180 7 193085570.962 7        45.400    36742974.320 8 150456301.795 8        48.300    36742979.070 8 144187283.641 8        50.900
J03  40061188.422 7 210522963.444 7        44.000    40061188.605 8 210523064.450 8        48.000    40061184.730 7 210522995.909 7        45.500    40061207.828 7 164043928.871 7        47.500    40061212.906 8 157208757.398 8        48.500
J04  37104900.281 6 194987567.199 6        39.200    37104899.871 7 194987564.198 7        43.600    37104897.328 6 194987592.924 6        40.000    37104918.613 7 151938393.991 7        42.900    37104923.996 7 145607618.334 7        45.600
R21  20549923.313 8 109966788.238 8        49.800    20549922.910 8 109966791.248 8        49.000    20549939.590 7  85529734.172 7        46.600    20549936.207 7  82395586.445 7        47.300
R22  22422687.055 7 119693844.501 7        42.500    22422687.082 6 119693812.506 6        41.200    22422706.258 6  93095207.932 6        40.600
G17  21781038.734 7 114460150.192 7        43.800    21781058.262 7  89189780.899 7        45.000    21781058.340 7  89189741.884 7        43.700
G07  23652469.234 5 124294578.352 5        35.200    23652486.965 4  96852971.763 4        28.000    23652487.742 5  96852939.785 5        34.900
R11  20908138.117 8 111726762.028 8        48.400    20908138.262 7 111726750.031 7        46.700    20908155.516 7  86898599.072 7        45.900
R10  19284943.625 7 102799590.032 7        45.100    19284942.691 7 102799590.044 7        43.100
G06  21364419.695 7 112270773.927 7        44.700    21364439.035 7  87483799.040 7        47.500    21364439.777 7  87483748.028 7        47.200    21364443.395 8  83838591.805 8        50.200
R20  22020326.383 5 117752577.238 5        35.200    22020326.258 5 117752573.227 5        34.100    22020347.176 6  91585346.044 6        36.500
G01  23277742.594 6 122325371.526 6        37.100    23277769.516 3  95318566.978 3        20.900    23277768.836 6  95318489.990 6        40.200    23277772.695 7  91346884.110 7        44.100
C03  36231464.648 7 188666754.676 7        42.900    36231471.121 7 145889119.468 7        44.300
C11  23475943.883 7 122245406.113 7        43.900    23475957.684 7  94527872.951 7        45.000
C04  38987625.703 5 203018860.513 5        34.600    38987638.254 6 156987064.634 6        38.100
C28  24394783.734 6 127030041.426 6        41.800
C05  38398800.648 5 199952664.981 5        35.800    38398812.402 6 154616104.053 6        38.700
C13  36983773.555 7 192584199.700 7        44.300    36983786.820 7 148918308.630 7        42.500
C25  22272592.531 8 115979250.006 8        48.500
C14  25135142.734 5 130885263.534 5        35.400    25135153.285 6 101208844.132 6        39.400
C01  37504410.125 6 195295343.393 6        38.700    37504420.973 6 151014760.464 6        41.300
C06  39686560.922 5 206658318.761 5        33.700    39686570.668 5 159801374.278 5        35.700
C16  39638962.836 5 206410485.418 5        35.000    39638977.336 5 159609733.980 5        34.300
C23  22617214.398 8 117773779.518 8        49.900
C02  36960538.734 6 192463262.755 6        39.600    36960544.984 7 148824799.571 7        44.600
E12  25029462.547 7 131530713.571 7        43.600    25029480.305 7  98221023.266 7        44.600    25029477.473 7 100783297.131 7        45.100    25029479.438 8  99502106.303 8        48.400
E24  28607856.422 5 150335281.526 5        35.300    28607882.406 6 112263362.622 6        36.300    28607878.426 6 115191911.315 6        36.300
E26  26260914.008 6 138002034.222 6        41.300    26260938.984 7 103053395.439 7        42.100    26260935.215 7 105741813.692 7        42.400    26260937.602 7 104397619.187 7        46.200
E01  23979910.484 8 126015278.038 8        49.300    23979928.715 8  94102366.706 8        49.700    23979925.395 8  96557202.059 8        51.200    23979927.445 8  95329716.993 8        53.800
E31  24477133.695 8 128628209.920 8        49.000    24477155.406 8  96053487.229 8        48.000    24477152.059 8  98559234.080 8        48.900    24477154.133 8  97306380.274 8        52.300
E21  27258724.703 6 143245567.361 6        38.100    27258746.613 6 106969029.067 6        40.000    27258743.441 6 109759588.740 6        40.400    27258745.504 7 108364310.000 7        43.900
E33  23652338.539 8 124293876.900 8        48.500    23652356.266 8  92816913.936 8        50.800    23652353.004 8  95238215.434 8        51.300    23652355.020 9  94027483.296 9        54.600
E10  27095100.172 6 142385724.957 6        39.200    27095124.113 6 106326928.578 6        41.200    27095120.063 6 109100726.984 6        41.500    27095122.426 7 107713822.393 7        44.600
S26  38095786.391 5 200194707.993 5        35.900
> 2023  2 14 10 24  5.0000000  0 42       0.000000000000
G30  21979776.586 7 115504523.421 7        44.100    21979795.074 7  90003580.000 7        43.400    21979795.691 7  90003537.008 7        44.300    21979798.547 8  86253398.394 8        48.900
R09  21636703.078 7 115538809.108 7        44.800    21636702.492 7 115538775.114 7        42.600    21636717.063 7  89863506.810 7        43.500    21636713.379 7  86752915.009 7        43.200
R05  24221204.086 5 129476328.201 5        34.600    24221203.297 5 129476200.223 5        33.700    24221231.586 5 100703709.774 5        32.900
G19  22413367.578 6 117783049.026 6        41.600    22413388.664 5  91779070.121 5        31.100
G11  24876414.992 5 130726448.570 5        33.300    24876436.238 2 101864849.734 2        17.400    24876437.035 6 101864791.710 6        37.100    24876444.691 6  97620401.259 6        38.800
G14  20355645.492 7 106969643.876 7        46.900    20355661.297 6  83353025.932 6        41.400    20355661.566 8  83352994.928 8        52.000    20355668.621 9  79879945.447 9        54.500
G03  22440119.219 6 117923612.286 6        40.200    22440142.477 6  91888620.823 6        39.500    22440142.898 7  91888564.822 7        43.600    22440147.895 7  88059860.419 7        47.200
J02  37111649.281 7 195023023.995 7        44.100    37111649.156 8 195023030.007 8        48.000    37111645.410 7 195023062.139 7        44.800    37111667.668 8 151966028.405 8        48.500    37111672.180 8 145634102.721 8        49.800
J07  36742958.469 6 193085557.795 6        38.300    36742958.008 7 193085515.754 7        42.400    36742952.340 7 193085575.399 7        45.300    36742975.086 8 150456305.218 8        48.400    36742979.941 8 144187286.921 8        50.800
J03  40061260.516 7 210523341.832 7        44.300    40061260.848 7 210523442.844 7        47.900    40061256.797 7 210523374.297 7        45.700    40061279.922 7 164044223.714 7        47.600    40061284.828 8 157209039.961 8        48.300
J04  37104942.641 6 194987794.768 6        39.700    37104943.195 7 194987791.770 7        43.500    37104940.746 6 194987820.497 6        39.800    37104962.008 7 151938571.340 7        42.900    37104967.152 7 145607788.276 7        45.800
R21  20549991.031 8 109967150.440 8        49.700    20549990.586 8 109967153.435 8        49.100    20550007.477 7  85530015.882 7        46.500    20550003.898 7  82395857.831 7        47.200
R22  22422331.813 7 119691942.059 7        42.500    22422330.934 6 119691910.083 6        41.100    22422350.254 6  93093728.233 6        40.300
G17  21781053.867 7 114460227.426 7        43.800    21781072.816 7  89189841.088 7        44.900    21781073.254 7  89189802.091 7        43.500
G07  23653126.961 5 124298036.111 5        35.100    23653144.789 4  96855666.130 4        28.100    23653145.699 5  96855634.107 5        35.100
R11  20907549.852 8 111723619.069 8        48.500    20907550.000 7 111723607.065 7        47.000    20907566.320 7  86896154.547 7        46.100
R10  19285112.523 7 102800493.022 7        45.000    19285111.953 7 102800493.025 7        43.200
G06  21364054.766 7 112268856.705 7        44.900    21364074.180 7  87482305.103 7        47.300    21364074.805 7  87482254.099 7        46.800    21364078.594 8  83837160.122 8        50.200
R20  22020879.930 5 117755541.557 5        34.800    22020880.617 5 117755537.566 5        33.800    22020901.555 6  91587651.613 6        36.100
G01  23278408.586 6 122328871.363 6        36.500    23278435.457 3  95321294.117 3        20.600    23278435.281 6  95321217.157 6        40.400    23278438.703 7  91349497.642 7        43.900
C03  36231458.242 7 188666720.066 7        43.000    36231464.496 7 145889092.710 7        44.300
C11  23476260.195 7 122247051.584 7        43.900    23476273.711 7  94529145.328 7        44.900
C04  38987622.203 5 203018843.662 5        34.700    38987634.844 6 156987051.608 6        38.100
C28  24394559.445 6 127028874.030 6        41.600
C05  38398796.430 5 199952639.800 5        35.700    38398807.590 6 154616084.582 6        38.900
C13  36983558.742 7 192583079.286 7        44.500    36983571.563 7 148917442.253 7        42.400
C25  22272960.680 8 115981167.316 8        48.800
C14  25134742.984 5 130883184.238 5        35.500    25134754.047 6 101207236.288 6        39.400
C01  37504404.313 6 195295311.977 6        38.900    37504415.059 6 151014736.169 6        40.900
C06  39686836.039 5 206659751.175 5        33.800    39686845.715 6 159802481.911 6        36.100
C16  39639230.742 5 206411880.008 5        35.000    39639245.391 5 159610812.364 5        33.700
C23  22617030.219 8 117772819.608 8        49.400
C02  36960535.883 6 192463247.209 6        39.600    36960541.723 7 148824787.555 7        44.500
E12  25029188.867 7 131529274.719 7        43.800    25029206.672 7  98219948.820 7        44.900    25029203.660 7 100782194.639 7        45.000    25029205.645 8  99501017.834 8        48.300
E24  28607360.578 5 150332675.933 5        35.600    28607386.531 6 112261416.875 6        36.100    28607382.539 5 115189914.790 5        35.600
E26  26261383.711 6 138004504.401 6        41.400    26261409.195 7 103055240.076 7        42.000    26261405.371 7 105743706.447 7        42.600    26261407.660 7 104399487.871 7        46.200
E01  23980043.898 8 126015978.618 8        49.500    23980061.871 8  94102889.852 8        49.900    23980058.734 8  96557738.867 8        51.600    23980060.762 8  95330246.969 8        53.900
E31  24476791.906 8 128626414.067 8        48.700    24476813.652 8  96052146.153 8        48.000    24476810.387 8  98557858.031 8        48.900    24476812.383 8  97305021.703 8        52.000
E21  27259154.063 6 143247823.524 6        37.700    27259175.945 6 106970713.843 6        39.800    27259172.836 6 109761317.458 6        40.400    27259174.816 7 108366016.754 7        43.700
E33  23652521.781 8 124294840.723 8        48.800    23652539.672 8  92817633.671 8        50.700    23652536.445 8  95238953.941 8        51.800    23652538.418 9  94028212.412 9        54.800
E10  27094690.789 6 142383576.516 6        39.300    27094715.352 6 106325324.207 6        40.900    27094711.234 6 109099080.790 6        41.100    27094713.598 7 107712197.107 7        44.100
S26  38095777.188 5 200194655.562 5        35.800
> 2023  2 14 10 24  6.0000000  0 42       0.000000000000
G30  21980253.000 7 115507025.445 7        44.000    21980271.289 7  90005529.633 7        43.800    21980271.402 7  90005486.636 7        44.100    21980274.719 8  86255266.788 8        49.300
R09  21637406.891 7 115542570.437 7        44.500    21637406.598 7 115542536.428 7        42.900    21637420.859 7  89866432.283 7        43.600    21637418.023 7  86755739.213 7        43.300
R05  24220899.703 5 129474702.511 5        35.000    24220899.273 5 129474574.491 5        34.100    24220926.340 5 100702445.349 5        32.700
G19  22413159.773 6 117781956.289 6        41.800    22413180.684 5  91778218.642 5        30.400
G11  24875804.656 5 130723243.133 5        33.200    24875826.156 2 101862352.022 2        17.800    24875827.332 6 101862294.043 6        36.900    24875834.043 6  97618007.649 6        38.800
G14  20355518.641 7 106968979.093 7        47.500    20355534.770 6  83352507.927 6        41.400    20355535.250 8  83352476.916 8        52.000    20355542.129 9  79879449.029 9        54.900
G03  22440119.328 6 117923614.000 6        40.500    22440142.910 6  91888622.161 6        39.300    22440143.133 7  91888566.147 7        43.400    22440148.266 7  88059861.697 7        47.600
J02  37111458.219 7 195022020.446 7        44.500    37111458.227 8 195022026.434 8        48.000    37111454.523 7 195022058.593 7        44.800    37111476.750 8 151965246.424 8        48.500    37111481.246 8 145633353.315 8        49.500
J07  36742958.719 6 193085562.156 6        37.900    36742958.969 7 193085520.165 7        42.500    36742953.039 7 193085579.767 7        45.200    36742975.980 8 150456308.649 8        48.500    36742980.805 8 144187290.219 8        50.800
J03  40061332.859 7 210523720.136 7        44.500    40061332.586 8 210523821.143 8        48.000    40061329.281 7 210523752.602 7        45.800    40061351.719 7 164044518.517 7        47.600    40061356.895 8 157209322.470 8        48.600
J04  37104986.453 6 194988022.390 6        40.000    37104986.301 7 194988019.372 7        43.600    37104983.848 6 194988048.115 6        40.200    37105005.297 7 151938748.697 7        43.000    37105010.512 7 145607958.234 7        45.900
R21  20550059.328 8 109967513.008 8        50.000    20550058.344 8 109967516.010 8        49.600    20550075.395 7  85530297.892 7        46.200    20550071.633 7  82396129.513 7        47.300
R22  22421975.781 7 119690040.075 7        42.400    22421974.469 6 119690008.087 6        41.200    22421993.816 6  93092248.914 6        40.500
G17  21781068.484 7 114460304.650 7        43.800    21781087.492 7  89189901.267 7        45.200    21781087.793 7  89189862.248 7        43.300
G07  23653785.102 5 124301493.841 5        35.000    23653802.762 4  96858360.456 4        28.000    23653803.391 5  96858328.414 5        34.900
R11  20906961.563 8 111720476.596 8        48.500    20906961.914 7 111720464.599 7        47.400    20906978.531 7  86893710.427 7        46.300
R10  19285282.906 7 102801396.870 7        44.900    19285281.461 7 102801396.867 7        43.500
G06  21363689.906 7 112266939.963 7        44.700    21363709.348 7  87480811.540 7        47.300    21363710.305 7  87480760.522 7        47.200    21363713.863 8  83835728.790 8        50.200
R20  22021435.031 5 117758505.834 5        34.300    22021435.051 5 117758501.852 5        33.500    22021456.113 6  91589957.160 6        36.200
G01  23279074.891 6 122332371.311 6        36.600    23279101.422 3  95324021.371 3        21.100    23279101.281 6  95323944.367 6        40.200    23279104.684 7  91352111.247 7        43.400
C03  36231451.289 7 188666685.454 7        43.000    36231457.656 7 145889065.944 7        44.600
C11  23476576.164 7 122248697.053 7        43.900    23476589.578 7  94530417.712 7        45.400
C04  38987619.141 5 203018826.826 5        34.900    38987631.527 6 156987038.596 6        38.300
C28  24394335.313 6 127027706.829 6        41.600
C05  38398790.938 6 199952614.634 6        36.300    38398802.547 6 154616065.125 6        39.400
C13  36983342.891 7 192581959.022 7        44.700    36983356.449 7 148916576.001 7        42.700
C25  22273328.844 8 115983085.036 8        48.400
C14  25134343.297 5 130881104.933 5        34.900    25134354.805 6 101205628.437 6        39.900
C01  37504398.289 6 195295280.546 6        38.900    37504409.000 6 151014711.874 6        41.300
C06  39687110.898 5 206661183.603 5        34.000    39687120.883 6 159803589.546 6        36.300
C16  39639498.492 5 206413274.558 5        34.700    39639513.340 5 159611890.727 5        33.600
C23  22616845.875 8 117771860.209 8        48.900
C02  36960533.055 6 192463231.665 6        39.700    36960538.773 7 148824775.536 7        44.200
E12  25028915.250 7 131527836.235 7        43.500    25028932.902 7  98218874.619 7        44.600    25028930.027 7 100781092.407 7        44.800    25028931.898 7  99499929.623 7        47.900
E24  28606864.867 5 150330070.226 5        35.100    28606890.695 6 112259471.028 6        36.500    28606886.492 5 115187918.250 5        35.900
E26  26261854.219 6 138006974.644 6        41.500    26261879.316 6 103057084.705 6        41.900    26261875.348 7 105745599.205 7        42.800    26261877.723 7 104401356.564 7        46.000
E01  23980177.406 8 126016679.544 8        49.700    23980195.426 8  94103413.286 8        49.700    23980192.191 8  96558275.943 8        51.000    23980194.148 8  95330777.221 8        53.900
E31  24476450.133 8 128624618.383 8        49.000    24476471.996 8  96050805.233 8        48.400    24476468.629 8  98556482.135 8        49.500    24476470.672 8  97303663.293 8        52.300
E21  27259583.172 6 143250079.844 6        37.800    27259605.426 6 106972398.796 6        39.700    27259602.160 6 109763046.347 6        40.400    27259604.180 7 108367723.686 7        43.800
E33  23652705.539 8 124295804.838 8        48.600    23652723.133 8  92818353.625 8        51.100    23652719.809 8  95239692.674 8        51.700    23652721.887 9  94028941.762 9        54.900
E10  27094281.797 6 142381428.293 6        39.400    27094306.652 6 106323720.059 6        40.700    27094302.418 6 109097434.776 6        40.900    27094304.797 7 107710572.030 7        44.200
S26  38095770.750 6 200194603.175 6        36.300
> 2023  2 14 10 24  7.0000000  0 42       0.000000000000
G30  21980728.773 7 115509527.777 7        44.100    21980747.320 7  90007479.501 7        43.200    21980747.852 7  90007436.520 7        44.600    21980750.813 8  86257135.424 8        48.900
R09  21638111.070 7 115546332.181 7        44.500    21638111.055 7 115546298.181 7        42.400    21638125.813 7  89869358.089 7        44.000    21638122.473 7  86758563.757 7        43.200
R05  24220595.992 5 129473077.126 5        34.600    24220595.672 5 129472949.177 5        33.900    24220622.348 5 100701181.162 5        33.200
G19  22412951.773 7 117780863.632 7        42.000    22412972.801 5  91777367.228 5        31.400
G11  24875194.961 5 130720038.007 5        33.400    24875216.242 2 101859854.531 2        16.300    24875216.879 6 101859796.503 6        36.400    24875223.617 6  97615614.161 6        39.200
G14  20355392.695 8 106968314.768 8        48.000    20355408.398 6  83351990.276 6        41.300    20355408.676 8  83351959.265 8        52.200    20355415.652 9  79878952.941 9        54.400
G03  22440119.313 6 117923616.322 6        40.100    22440143.297 6  91888623.973 6        39.400    22440144.188 7  91888567.972 7        43.400    22440148.637 7  88059863.423 7        47.400
J02  37111266.906 7 195021016.966 7        44.300    37111267.203 8 195021022.971 8        48.100    37111263.938 7 195021055.117 7        44.500    37111285.949 8 151964464.496 8        48.100    37111290.313 8 145632603.978 8        49.800
J07  36742960.219 6 193085566.599 6        37.800    36742959.566 7 193085524.573 7        42.600    36742954.000 7 193085584.203 7        45.400    36742976.691 8 150456312.090 8        48.500    36742981.613 8 144187293.513 8        50.900
J03  40061404.281 7 210524098.355 7        44.000    40061404.578 7 210524199.347 7        47.900    40061400.918 7 210524130.821 7        45.100    40061424.227 7 164044813.218 7        47.500    40061428.820 8 157209604.903 8        48.700
J04  37105029.797 6 194988249.990 6        40.100    37105029.656 7 194988247.015 7        43.600    37105027.184 6 194988275.717 6        40.500    37105048.250 7 151938926.076 7        43.100    37105053.805 7 145608128.222 7        45.800
R21  20550127.063 8 109967875.998 8        50.500    20550126.188 8 109967879.015 8        49.100    20550143.609 7  85530580.219 7        45.900    20550139.398 7  82396401.490 7        47.100
R22  22421618.078 7 119688138.509 7        42.700    22421617.918 6 119688106.526 6        40.900    22421637.645 6  93090769.922 6        40.600
G17  21781083.055 7 114460381.825 7        43.700    21781102.215 7  89189961.405 7        45.000    21781102.781 7  89189922.411 7        43.500
G07  23654443.031 5 124304951.492 5        34.600    23654460.828 4  96861054.720 4        28.700    23654461.461 5  96861022.738 5        35.100
R11  20906374.555 8 111717334.655 8        48.600    20906373.824 7 111717322.666 7        47.500    20906390.371 7  86891266.692 7        46.500
R10  19285452.984 7 102802301.577 7        45.100    19285451.340 7 102802301.573 7        43.600
G06  21363325.289 7 112265023.692 7        44.600    21363344.707 7  87479318.346 7        47.400    21363345.684 7  87479267.344 7        47.000    21363349.199 8  83834297.817 8        50.100
R20  22021990.555 5 117761470.111 5        34.400    22021989.699 5 117761466.096 5        33.700    22022011.246 6  91592262.731 6        36.200
G01  23279740.367 6 122335871.389 6        37.100    23279767.398 3  95326748.705 3        21.800    23279767.012 6  95326671.683 6        39.500    23279770.691 7  91354724.924 7        43.600
C03  36231444.750 7 188666650.861 7        42.800    36231451.020 7 145889039.198 7        44.700
C11  23476892.203 7 122250342.494 7        43.800    23476905.781 7  94531690.072 7        44.800
C04  38987616.484 5 203018809.994 5        34.400    38987628.570 6 156987025.581 6        37.900
C28  24394111.172 6 127026539.837 6        41.800
C05  38398785.688 6 199952589.450 6        36.100    38398797.754 6 154616045.651 6        39.400
C13  36983127.594 7 192580838.893 7        44.500    36983141.305 7 148915709.850 7        42.600
C25  22273697.109 8 115985003.184 8        48.600
C14  25133943.930 5 130879025.554 5        35.500    25133955.457 6 101204020.537 6        39.900
C01  37504392.148 6 195295249.120 6        38.700    37504403.020 6 151014687.574 6        41.600
C06  39687386.641 5 206662615.953 5        33.700    39687396.078 6 159804697.127 6        36.200
C16  39639766.023 5 206414669.035 5        34.300    39639781.133 5 159612969.027 5        33.700
C23  22616661.859 8 117770901.319 8        48.500
C02  36960529.742 6 192463216.117 6        39.600    36960535.926 7 148824763.517 7        44.300
E12  25028641.594 7 131526398.054 7        43.600    25028659.230 7  98217800.659 7        45.000    25028656.387 7 100779990.438 7        44.800    25028658.219 8  99498841.650 8        48.300
E24  28606368.984 5 150327464.473 5        35.000    28606394.836 5 112257525.168 5        35.900    28606390.609 5 115185921.582 5        35.200
E26  26262324.367 6 138009444.894 6        41.400    26262349.320 7 103058929.358 7        42.400    26262345.438 7 105747491.979 7        43.100    26262347.797 7 104403225.276 7        46.200
E01  23980310.570 8 126017380.836 8        49.300    23980328.824 8  94103936.975 8        49.900    23980325.598 8  96558813.299 8        50.800    23980327.594 9  95331307.746 9        54.100
E31  24476108.391 8 128622822.891 8        49.100    24476130.309 8  96049464.467 8        48.600    24476127.043 8  98555106.383 8        49.500    24476129.004 8  97302305.031 8        52.300
E21  27260012.531 6 143252336.384 6        37.800    27260034.617 6 106974083.874 6        39.900    27260031.305 6 109764775.418 6        40.400    27260033.570 7 108369430.735 7        44.000
E33  23652888.938 8 124296769.240 8        48.500    23652906.691 8  92819073.790 8        51.000    23652903.391 8  95240431.639 8        51.600    23652905.410 9  94029671.329 9        54.600
E10  27093873.227 6 142379280.349 6        39.600    27093897.828 6 106322116.064 6        40.800    27093893.398 6 109095788.945 6        41.000    27093896.039 7 107708947.127 7        44.000
S26  38095752.578 6 200194550.752 6        36.400
> 2023  2 14 10 24  8.0000000  0 42       0.000000000000
G30  21981205.383 7 115512030.430 7        44.500    21981223.543 7  90009429.621 7        43.400    21981224.223 7  90009386.630 7        44.900    21981227.000 8  86259004.281 8        48.600
R09  21638816.641 7 115550094.354 7        44.600    21638815.691 7 115550060.353 7        42.600    21638830.711 7  89872284.190 7        44.000    21638826.871 7  86761388.577 7        43.400
R05  24220291.352 5 129471452.216 5        34.800    24220291.086 5 129471324.191 5        33.900    24220318.223 5 100699917.306 5        33.500
G19  22412743.336 7 117779771.026 7        42.100    22412764.844 5  91776515.855 5        30.900
G11  24874584.977 5 130716833.004 5        33.200    24874606.527 2 101857357.104 2        16.300    24874606.965 6 101857299.127 6        36.700    24874613.637 6  97613220.800 6        39.100
G14  20355266.266 8 106967650.910 8        48.100    20355281.949 6  83351472.980 6        41.700    20355282.488 8  83351441.983 8        52.500    20355289.297 9  79878457.209 9        54.500
G03  22440120.953 6 117923619.178 6        40.300    22440143.875 6  91888626.189 6        39.500    22440144.398 7  91888570.193 7        43.200    22440149.230 7  88059865.573 7        47.700
J02  37111076.156 7 195020013.575 7        43.900    37111076.223 8 195020019.581 8        48.000    37111072.727 7 195020051.719 7        44.500    37111094.973 8 151963682.634 8        48.000    37111099.383 8 145631854.696 8        49.600
J07  36742960.766 6 193085570.986 6        38.100    36742960.457 7 193085529.002 7        42.500    36742954.906 7 193085588.597 7        45.300    36742977.668 8 150456315.530 8        48.800    36742982.488 8 144187296.800 8        50.900
J03  40061476.297 7 210524476.486 7        44.100    40061476.387 8 210524577.492 8        48.000    40061473.160 7 210524508.950 7        45.300    40061495.957 7 164045107.870 7        47.900    40061500.844 8 157209887.272 8        48.800
J04  37105073.625 6 194988477.683 6        40.100    37105072.641 7 194988474.665 7        43.600    37105070.426 6 194988503.405 6        40.800    37105091.617 7 151939103.467 7        42.700    37105097.102 7 145608298.228 7        45.800
R21  20550194.828 8 109968239.424 8        50.300    20550194.043 8 109968242.441 8        49.300    20550210.449 7  85530862.885 7        46.600    20550207.512 7  82396673.799 7        47.400
R22  22421262.531 7 119686237.388 7        43.100    22421261.988 6 119686205.415 6        41.000    22421281.344 6  93089291.274 6        40.600
G17  21781097.406 7 114460459.001 7        43.700    21781116.953 7  89190021.542 7        44.800    21781116.914 7  89189982.535 7        43.400
G07  23655100.742 5 124308409.142 5        35.200    23655118.813 4  96863748.994 4        28.800    23655119.258 5  96863717.058 5        35.100
R11  20905786.664 8 111714193.264 8        48.600    20905786.152 7 111714181.274 7        47.600    20905803.457 7  86888823.407 7        46.500
R10  19285622.836 7 102803207.123 7        44.700    19285621.004 7 102803207.117 7        43.300
G06  21362960.859 7 112263107.942 7        44.900    21362980.246 7  87477825.559 7        47.400    21362981.031 7  87477774.549 7        47.300    21362984.547 8  83832867.215 8        50.300
R20  22022545.086 5 117764434.312 5        35.100    22022543.605 5 117764430.295 5        33.600    22022565.816 6  91594568.184 6        36.500
G01  23280406.836 6 122339371.486 6        37.100    23280433.469 3  95329476.053 3        21.300    23280433.668 6  95329399.071 6        39.400    23280436.680 7  91357338.623 7        43.600
C03  36231438.000 7 188666616.274 7        42.800    36231444.266 7 145889012.452 7        45.000
C11  23477207.977 7 122251987.936 7        43.400    23477221.734 7  94532962.426 7        44.900
C04  38987612.766 5 203018793.212 5        34.300    38987625.391 6 156987012.607 6        38.000
C28  24393887.047 6 127025373.030 6        41.700
C05  38398781.398 5 199952564.278 5        35.800    38398792.629 6 154616026.187 6        39.500
C13  36982913.344 7 192579718.933 7        44.300    36982926.254 7 148914843.829 7        42.900
C25  22274065.836 8 115986921.769 8        48.500
C14  25133545.531 5 130876946.132 5        35.700    25133556.207 6 101202412.598 6        39.800
C01  37504386.391 6 195295217.725 6        38.600    37504397.047 6 151014663.296 6        41.400
C06  39687661.305 5 206664048.139 5        34.200    39687670.801 6 159805804.588 6        36.800
C16  39640033.375 5 206416063.368 5        35.100    39640049.012 5 159614047.218 5        33.600
C23  22616477.766 8 117769942.920 8        48.700
C02  36960526.930 6 192463200.567 6        39.600    36960532.816 7 148824751.493 7        44.200
E12  25028367.992 7 131524960.214 7        44.000    25028385.535 7  98216726.946 7        45.400    25028382.699 7 100778888.711 7        44.900    25028384.609 8  99497753.940 8        48.400
E24  28605872.383 5 150324858.578 5        35.100    28605898.492 5 112255579.233 5        35.600    28605894.422 5 115183924.915 5        35.400
E26  26262794.695 6 138011915.143 6        41.300    26262819.422 7 103060774.051 7        42.600    26262815.387 7 105749384.791 7        42.400    26262817.891 7 104405094.026 7        46.300
E01  23980444.383 8 126018082.490 8        48.900    23980462.340 8  94104460.925 8        49.800    23980459.074 8  96559350.927 8        50.900    23980461.113 8  95331838.534 8        53.900
E31  24475766.922 8 128621027.615 8        49.100    24475788.582 8  96048123.824 8        48.400    24475785.320 8  98553730.772 8        49.100    24475787.371 8  97300946.915 8        52.200
E21  27260442.125 6 143254593.175 6        38.300    27260464.238 6 106975769.148 6        39.700    27260460.836 6 109766504.628 6        40.200    27260463.027 7 108371137.996 7        43.700
E33  23653072.617 8 124297733.940 8        48.600    23653090.246 8  92819794.183 8        51.000    23653086.883 8  95241170.827 8        51.600    23653088.988 9  94030401.118 9        54.800
E10  27093464.375 6 142377132.626 6        39.400    27093489.102 6 106320512.273 6        40.500    27093485.098 6 109094143.303 6        40.900    27093487.355 7 107707322.399 7        43.900
S26  38095744.984 6 200194498.355 6        36.400
> 2023  2 14 10 24  9.0000000  0 42       0.000000000000
G30  21981681.664 7 115514533.377 7        44.400    21981699.734 7  90011379.974 7        43.300    21981700.613 7  90011336.980 7        44.700    21981703.352 8  86260873.367 8        48.700
R09  21639520.570 7 115553856.914 7        44.700    21639520.223 7 115553822.906 7        42.900    21639535.922 7  89875210.641 7        43.900    21639531.703 7  86764213.726 7        43.800
R05  24219989.414 5 129469827.580 5        35.500    24219986.867 5 129469699.583 5        34.000    24220014.711 5 100698653.689 5        33.500
G19  22412535.688 6 117778678.469 6        41.400    22412556.750 5  91775664.519 5        30.900
G11  24873975.539 5 130713628.182 5        34.200    24873996.820 2 101854859.860 2        16.300    24873996.809 6 101854801.893 6        36.300    24874003.809 6  97610827.623 6        39.000
G14  20355140.055 8 106966987.506 8        48.100    20355155.766 6  83350956.048 6        41.000    20355156.180 8  83350925.045 8        52.400    20355163.090 9  79877961.818 9        54.400
G03  22440121.234 6 117923622.724 6        40.300    22440144.652 6  91888628.956 6        39.400    22440145.094 7  91888572.967 7        43.000    22440149.840 7  88059868.207 7        47.800
J02  37110885.531 7 195019010.300 7        43.500    37110885.340 8 195019016.289 8        48.000    37110881.746 7 195019048.445 7        44.500    37110904.352 8 151962900.844 8        48.400    37110908.422 8 145631105.485 8        49.400
J07  36742961.594 6 193085575.391 6        38.400    36742961.410 7 193085533.369 7        42.500    36742955.957 7 193085592.994 7        45.300    36742978.414 8 150456318.967 8        48.800    36742983.238 8 144187300.095 8        51.000
J03  40061548.563 7 210524854.530 7        44.100    40061548.465 7 210524955.534 7        47.900    40061544.848 7 210524886.994 7        44.900    40061567.914 8 164045402.450 8        48.000    40061572.738 8 157210169.580 8        48.700
J04  37105116.375 6 194988705.352 6        39.900    37105116.125 7 194988702.354 7        43.600    37105113.973 6 194988731.077 6        41.300    37105135.168 7 151939280.893 7        43.000    37105140.438 7 145608468.256 7        45.800
R21  20550263.258 8 109968603.259 8        50.200    20550262.090 8 109968606.269 8        48.900    20550279.035 7  85531145.864 7        46.700    20550275.340 7  82396946.406 7        47.200
R22  22420906.367 7 119684336.743 7        43.100    22420905.902 6 119684304.731 6        41.200    22420924.637 6  93087812.975 6        40.700
G17  21781112.633 7 114460536.151 7        43.700    21781131.609 7  89190081.663 7        45.100    21781131.840 7  89190042.658 7        43.800
G07  23655759.289 5 124311866.830 5        34.900    23655776.844 4  96866443.307 4        28.400    23655777.539 5  96866411.273 5        35.300
R11  20905198.531 8 111711052.394 8        49.000    20905198.625 7 111711040.411 7        47.400    20905215.211 7  86886380.523 7        46.300
R10  19285793.008 7 102804113.520 7        44.600    19285791.344 7 102804113.516 7        43.400
G06  21362596.633 7 112261192.661 7        44.600    21362615.742 7  87476333.131 7        47.300    21362616.410 7  87476282.128 7        47.100    21362620.160 8  83831436.984 8        50.300
R20  22023099.594 5 117767398.468 5        35.000    22023098.059 5 117767394.476 5        33.900    22023119.379 6  91596873.650 6        36.700
G01  23281072.898 6 122342871.709 6        37.300    23281099.441 3  95332203.476 3        20.900    23281099.223 6  95332126.491 6        39.100    23281102.590 7  91359952.426 7        43.200
C03  36231431.109 7 188666581.653 7        43.000    36231437.758 7 145888985.682 7        45.100
C11  23477524.320 7 122253633.328 7        43.000    23477537.688 7  94534234.748 7        44.600
C04  38987609.227 5 203018776.369 5        34.400    38987622.102 6 156986999.588 6        38.300
C28  24393663.445 7 127024206.409 7        42.300
C05  38398776.453 5 199952539.112 5        35.800    38398788.020 6 154616006.738 6        39.200
C13  36982697.609 7 192578599.096 7        44.600    36982711.285 7 148913977.901 7        42.800
C25  22274434.133 8 115988840.749 8        48.800
C14  25133145.984 5 130874866.634 5        35.300    25133156.816 6 101200804.602 6        39.400
C01  37504380.352 6 195295186.299 6        38.900    37504390.980 6 151014638.995 6        41.200
C06  39687936.641 5 206665480.247 5        34.000    39687945.844 6 159806911.987 6        36.100
C16  39640300.883 5 206417457.566 5        34.700    39640316.688 5 159615125.297 5        33.700
C23  22616293.758 8 117768985.024 8        48.500
C02  36960523.711 6 192463185.002 6        39.600    36960529.895 7 148824739.462 7        44.200
E12  25028094.430 7 131523522.701 7        44.200    25028111.961 7  98215653.463 7        44.900    25028109.160 7 100777787.247 7        44.800    25028111.047 8  99496666.464 8        48.300
E24  28605376.555 5 150322252.798 5        34.700    28605402.855 5 112253633.271 5        35.800    28605398.305 5 115181928.154 5        35.300
E26  26263264.008 6 138014385.415 6        41.600    26263289.457 7 103062618.740 7        42.300    26263285.563 7 105751277.584 7        42.800    26263287.969 7 104406962.773 7        46.100
E01  23980577.758 8 126018784.493 8        49.000    23980595.922 8  94104985.160 8        49.700    23980592.703 8  96559888.826 8        51.000    23980594.707 8  95332369.607 8        53.900
E31  24475425.195 8 128619232.504 8        49.100    24475446.980 8  96046783.343 8        48.200    24475443.816 8  98552355.311 8        49.300    24475445.746 8  97299588.940 8        52.000
E21  27260871.586 6 143256850.181 6        37.900    27260893.727 6 106977454.565 6        39.600    27260890.426 6 109768234.010 6        40.000    27260892.535 7 108372845.398 7        43.500
E33  23653256.023 8 124298698.942 8        48.700    23653273.879 8  92820514.801 8        50.800    23653270.594 8  95241910.247 8        51.500    23653272.617 9  94031131.128 9        54.700
E10  27093056.258 6 142374985.200 6        39.400    27093080.441 6 106318908.653 6        40.700    27093076.223 6 109092497.863 6        40.600    27093078.711 7 107705697.858 7        44.000
S26  38095731.250 6 200194445.945 6        36.300
> 2023  2 14 10 24 10.0000000  0 42       0.000000000000
G30  21982156.992 7 115517036.678 7        44.100    21982176.098 7  90013330.599 7        43.200    21982176.844 7  90013287.590 7        44.700    21982179.703 8  86262742.701 8        48.700
R09  21640225.383 7 115557619.910 7        44.600    21640224.797 7 115557585.915 7        42.900    21640239.188 7  89878137.407 7        44.100    21640236.184 7  86767039.177 7        43.600
R05  24219683.914 5 129468203.328 5        35.400    24219683.805 5 129468075.340 5        34.700    24219710.898 5 100697390.389 5        33.400
G19  22412327.570 7 117777585.994 7        42.000    22412348.820 5  91774813.248 5        30.800
G11  24873366.258 5 130710423.598 5        34.500    24873387.082 2 101852362.801 2        16.300    24873387.430 6 101852304.799 6        36.400    24873394.020 6  97608434.618 6        39.200
G14  20355013.820 7 106966324.596 7        47.700    20355029.605 6  83350439.498 6        41.500    20355030.008 8  83350408.487 8        52.200    20355036.875 9  79877466.787 9        54.500
G03  22440122.336 6 117923626.886 6        40.500    22440145.477 5  91888632.207 5        33.700    22440145.902 7  91888576.180 7        43.000    22440150.641 7  88059871.296 7        47.300
J02  37110694.250 7 195018007.074 7        43.400    37110694.465 8 195018013.075 8        48.100    37110690.750 7 195018045.218 7        44.900    37110713.051 8 151962119.120 8        48.200    37110717.590 8 145630356.329 8        50.000
J07  36742962.438 6 193085579.817 6        37.800    36742962.090 7 193085537.836 7        42.500    36742956.301 7 193085597.425 7        45.400    36742979.461 8 150456322.424 8        48.500    36742984.148 8 144187303.412 8        50.900
J03  40061620.109 7 210525232.502 7        44.200    40061620.250 7 210525333.507 7        47.900    40061616.906 7 210525264.967 7        45.300    40061639.773 7 164045696.984 7        47.900    40061644.590 8 157210451.837 8        48.400
J04  37105159.703 6 194988933.105 6        39.900    37105159.547 7 194988930.094 7        43.800    37105156.883 6 194988958.824 6        41.200    37105178.504 7 151939458.347 7        43.000    37105183.891 7 145608638.322 7        45.900
R21  20550330.445 8 109968967.537 8        50.400    20550330.176 8 109968970.547 8        49.100    20550346.758 7  85531429.194 7        46.600    20550343.527 7  82397219.349 7        47.300
R22  22420550.180 7 119682436.506 7        42.800    22420550.160 6 119682404.490 6        41.100    22420568.289 6  93086335.022 6        40.600
G17  21781126.969 7 114460613.284 7        43.800    21781146.215 7  89190141.771 7        45.100    21781146.801 7  89190102.773 7        43.900
G07  23656416.859 5 124315324.496 5        34.700    23656434.781 4  96869137.590 4        29.100    23656435.160 5  96869105.546 5        35.100
R11  20904610.781 8 111707912.070 8        49.000    20904610.758 7 111707900.072 7        47.500    20904626.934 7  86883938.052 7        46.400
R10  19285963.477 7 102805020.768 7        44.700    19285961.289 7 102805020.773 7        43.600
G06  21362232.016 7 112259277.895 7        45.000    21362251.430 7  87474841.106 7        47.600    21362252.133 7  87474790.115 7        46.600    21362255.773 8  83830007.129 8        50.200
R20  22023653.031 5 117770362.611 5        34.300    22023652.750 5 117770358.645 5        34.200    22023674.293 6  91599179.086 6        36.800
G01  23281738.828 6 122346372.057 6        37.100    23281765.609 3  95334931.030 3        20.600    23281764.859 6  95334854.022 6        39.400    23281768.738 7  91362566.308 7        43.300
C03  36231425.086 7 188666547.099 7        42.800    36231431.250 7 145888958.964 7        45.200
C11  23477840.133 7 122255278.722 7        42.900    23477853.680 7  94535507.071 7        44.900
C04  38987606.289 5 203018759.610 5        34.800    38987618.906 6 156986986.630 6        37.700
C28  24393439.266 6 127023040.019 6        41.800
C05  38398771.023 5 199952513.957 5        35.500    38398783.422 6 154615987.284 6        39.400
C13  36982482.844 7 192577479.460 7        44.300    36982496.531 7 148913112.129 7        42.800
C25  22274802.734 8 115990760.153 8        48.800
C14  25132746.250 5 130872787.173 5        35.200    25132757.496 6 101199196.632 6        39.400
C01  37504373.969 6 195295154.903 6        38.800    37504384.969 6 151014614.722 6        41.300
C06  39688212.141 5 206666912.341 5        34.200    39688221.023 6 159808019.379 6        36.000
C16  39640568.750 5 206418851.730 5        34.400    39640584.277 5 159616203.362 5        33.800
C23  22616109.969 8 117768027.658 8        48.900
C02  36960520.602 6 192463169.467 6        39.600    36960526.949 7 148824727.450 7        43.900
E12  25027820.938 7 131522085.540 7        43.800    25027838.621 7  98214580.261 7        44.800    25027835.730 7 100776686.056 7        44.800    25027837.563 8  99495579.265 8        48.100
E24  28604880.898 5 150319646.835 5        34.500    28604906.836 6 112251687.284 6        36.000    28604902.008 5 115179931.393 5        35.100
E26  26263734.406 6 138016855.748 6        41.400    26263759.582 7 103064463.459 7        42.400    26263755.547 7 105753170.426 7        42.800    26263758.051 7 104408831.549 7        46.100
E01  23980711.375 8 126019486.876 8        49.200    23980729.547 8  94105509.678 8        49.900    23980726.270 8  96560427.022 8        50.900    23980728.355 8  95332900.958 8        53.700
E31  24475083.758 8 128617437.627 8        48.900    24475105.434 8  96045443.014 8        48.200    24475102.176 8  98550980.026 8        49.300    24475104.195 8  97298231.124 8        52.100
E21  27261300.969 6 143259107.413 6        37.800    27261323.051 6 106979140.184 6        39.600    27261319.832 6 109769963.570 6        40.000    27261322.051 7 108374552.995 7        43.600
E33  23653439.781 8 124299664.245 8        48.500    23653457.621 8  92821235.652 8        50.900    23653454.309 8  95242649.887 8        51.300    23653456.320 9  94031861.379 9        54.600
E10  27092647.563 6 142372837.993 6        39.400    27092671.969 6 106317305.224 6        40.800    27092667.793 6 109090852.600 6        41.100    27092670.094 7 107704073.511 7        44.200
S26  38095727.359 6 200194393.567 6        36.300
> 2023  2 14 10 24 11.0000000  0 42       0.000000000000
G30  21982633.875 7 115519540.214 7        44.200    21982652.441 7  90015281.399 7        43.400    21982653.305 7  90015238.411 7        44.900    21982656.090 8  86264612.242 8        48.700
R09  21640930.313 7 115561383.295 7        44.000    21640929.523 7 115561349.303 7        42.800    21640944.371 7  89881064.494 7        44.300    21640940.980 7  86769864.931 7        43.500
R05  24219378.766 5 129466579.414 5        33.800    24219380.527 5 129466451.454 5        34.200    24219406.234 5 100696127.279 5        32.300
G19  22412119.914 6 117776493.519 6        41.700    22412141.055 5  91773961.969 5        30.900
G11  24872755.695 5 130707219.205 5        34.800    24872777.270 2 101849865.862 2        16.300    24872777.625 5 101849807.845 5        35.900    24872784.738 6  97606041.699 6        39.100
G14  20354887.539 7 106965662.102 7        47.700    20354903.652 6  83349923.271 6        41.400    20354903.980 8  83349892.261 8        52.300    20354910.875 9  79876972.067 9        54.600
G03  22440122.578 6 117923631.537 6        40.700    22440146.320 5  91888635.825 5        33.100    22440146.539 7  91888579.830 7        43.000    22440151.430 7  88059874.801 7        47.200
J02  37110503.766 7 195017003.895 7        43.400    37110503.559 8 195017009.903 8        48.000    37110499.664 7 195017042.044 7        44.500    37110522.332 7 151961337.444 7        47.800    37110526.633 8 145629607.217 8        49.400
J07  36742963.297 6 193085584.199 6        38.000    36742963.020 7 193085542.227 7        42.500    36742957.340 7 193085601.810 7        45.300    36742979.859 8 150456325.848 8        48.100    36742984.945 8 144187306.704 8        50.900
J03  40061692.469 7 210525610.348 7        44.600    40061692.441 7 210525711.354 7        47.900    40061688.871 7 210525642.813 7        45.200    40061711.777 8 164045991.406 8        48.000    40061716.496 8 157210733.997 8        48.400
J04  37105202.578 6 194989160.822 6        39.900    37105202.941 7 194989157.804 7        43.600    37105200.512 6 194989186.547 6        41.100    37105221.566 7 151939635.803 7        42.600    37105227.191 7 145608808.379 7        45.600
R21  20550399.102 8 109969332.148 8        50.200    20550398.316 8 109969335.165 8        48.900    20550414.879 7  85531712.766 7        46.400    20550411.551 7  82397492.551 7        47.200
R22  22420194.180 7 119680536.668 7        42.800    22420194.043 6 119680504.685 6        41.000    22420212.066 6  93084857.388 6        40.200
G17  21781141.938 7 114460690.365 7        43.900    21781160.938 7  89190201.833 7        45.000    21781161.539 7  89190162.837 7        44.200
G07  23657074.961 5 124318782.064 5        35.300    23657092.758 4  96871831.796 4        28.300    23657093.520 5  96871799.784 5        34.600
R11  20904023.672 8 111704772.199 8        48.500    20904023.176 7 111704760.202 7        47.300    20904038.969 7  86881495.941 7        46.200
R10  19286132.953 7 102805928.827 7        44.800    19286131.500 7 102805928.809 7        43.700
G06  21361867.914 7 112257363.584 7        45.000    21361887.082 7  87473349.439 7        47.400    21361887.883 7  87473298.430 7        46.800    21361891.512 8  83828577.604 8        50.100
R20  22024208.250 5 117773326.728 5        34.700    22024207.383 5 117773322.715 5        34.200    22024227.977 6  91601484.442 6        36.500
G01  23282405.242 6 122349872.446 6        36.900    23282431.625 3  95337658.611 3        20.600    23282431.809 6  95337581.595 6        39.400    23282434.770 7  91365180.230 7        43.100
C03  36231418.258 7 188666512.470 7        42.800    36231424.648 7 145888932.186 7        45.000
C11  23478156.000 7 122256924.072 7        43.000    23478169.695 7  94536779.357 7        45.100
C04  38987603.414 5 203018742.745 5        34.900    38987615.633 6 156986973.587 6        38.200
C28  24393215.305 6 127021873.772 6        41.400
C05  38398766.469 5 199952488.734 5        35.900    38398778.594 6 154615967.774 6        39.500
C13  36982267.969 7 192576359.941 7        44.300    36982281.246 7 148912246.449 7        42.900
C25  22275171.578 8 115992679.946 8        49.300
C14  25132346.867 5 130870707.590 5        35.300    25132358.332 6 101197588.566 6        39.400
C01  37504367.961 6 195295123.479 6        38.900    37504378.410 6 151014590.420 6        41.400
C06  39688485.992 5 206668344.247 5        33.600    39688496.320 6 159809126.603 6        36.000
C16  39640836.336 5 206420245.733 5        34.900    39640852.191 5 159617281.284 5        33.600
C23  22615926.359 8 117767070.744 8        49.100
C02  36960517.391 6 192463153.919 6        39.700    36960523.883 7 148824715.426 7        43.700
E12  25027547.086 7 131520648.675 7        44.000    25027565.039 7  98213507.286 7        44.700    25027562.109 7 100775585.067 7        44.800    25027564.129 8  99494492.295 8        48.200
E24  28604384.219 5 150317040.737 5        34.300    28604411.207 5 112249741.173 5        35.400    28604406.113 5 115177934.509 5        35.300
E26  26264204.445 6 138019326.051 6        41.100    26264229.602 7 103066308.146 7        42.400    26264225.754 7 105755063.255 7        42.700    26264228.152 7 104410700.314 7        46.100
E01  23980845.242 8 126020189.582 8        49.200    23980863.293 8  94106034.417 8        50.000    23980860.008 8  96560965.452 8        51.200    23980862.070 9  95333432.543 9        54.000
E31  24474742.172 8 128615642.883 8        48.800    24474763.898 8  96044102.793 8        48.600    24474760.668 8  98549604.842 8        49.600    24474762.660 8  97296873.428 8        52.200
E21  27261730.445 6 143261364.815 6        38.000    27261752.820 6 106980825.897 6        39.700    27261749.309 6 109771693.277 6        40.200    27261751.617 7 108376260.695 7        43.500
E33  23653623.391 8 124300629.803 8        48.500    23653641.355 8  92821956.673 8        50.600    23653638.008 8  95243389.730 8        51.300    23653640.051 9  94032591.815 9        54.400
E10  27092239.016 6 142370690.985 6        39.700    27092263.293 6 106315701.959 6        40.800    27092259.094 6 109089207.478 6        41.200    27092261.543 7 107702449.334 7        44.200
S26  38095713.063 6 200194341.121 6        36.100
> 2023  2 14 10 24 12.0000000  0 42       0.000000000000
G30  21983110.813 7 115522044.130 7        44.100    21983129.082 7  90017232.503 7        43.000    21983129.984 7  90017189.501 7        44.800    21983132.570 8  86266482.039 8        48.600
R09  21641635.156 7 115565147.141 7        44.100    21641634.559 7 115565113.150 7        42.900    21641649.066 7  89883991.925 7        44.300    21641646.012 7  86772691.063 7        43.400
R05  24219076.242 5 129464955.851 5        34.100    24219076.219 5 129464827.883 5        34.000    24219102.637 5 100694864.569 5        33.100
G19  22411912.133 7 117775401.168 7        42.100    22411933.086 5  91773110.794 5        30.800
G11  24872146.250 5 130704015.024 5        34.300    24872167.445 2 101847369.086 2        16.300    24872168.195 6 101847311.106 6        36.100    24872175.023 6  97603648.969 6        39.700
G14  20354761.438 7 106965000.096 7        47.500    20354777.652 6  83349407.424 6        41.600    20354778.047 8  83349376.421 8        52.500    20354784.895 9  79876477.723 9        54.500
G03  22440123.477 6 117923636.891 6        40.600    22440147.367 5  91888639.996 5        33.300    22440147.887 7  91888583.978 7        43.200    22440152.559 7  88059878.785 7        47.000
J02  37110312.625 7 195016000.849 7        43.300    37110312.773 8 195016006.856 8        48.000    37110309.199 7 195016038.999 7        44.300    37110331.172 7 151960555.844 7        47.800    37110335.793 8 145628858.189 8        49.600
J07  36742964.063 6 193085588.659 6        38.000    36742963.676 7 193085546.651 7        42.500    36742958.441 7 193085606.273 7        45.400    36742980.738 8 150456329.303 8        48.200    36742985.789 8 144187310.014 8        51.000
J03  40061764.250 7 210525988.129 7        44.800    40061764.285 7 210526089.149 7        47.900    40061760.316 7 210526020.594 7        45.000    40061783.480 7 164046285.803 7        47.600    40061788.473 8 157211016.122 8        48.300
J04  37105246.156 6 194989388.588 6        40.100    37105246.285 7 194989385.583 7        43.600    37105243.313 6 194989414.307 6        40.400    37105264.664 7 151939813.299 7        42.500    37105270.422 7 145608978.480 7        46.000
R21  20550466.953 8 109969697.181 8        50.200    20550466.453 8 109969700.191 8        49.100    20550483.660 7  85531996.681 7        45.900    20550479.766 7  82397766.055 7        47.200
R22  22419838.070 7 119678637.355 7        42.900    22419838.410 6 119678605.347 6        41.100    22419856.500 6  93083380.144 6        40.300
G17  21781156.641 7 114460767.456 7        43.800    21781175.621 7  89190261.909 7        44.800    21781175.801 7  89190222.910 7        43.900
G07  23657733.469 5 124322239.664 5        35.400    23657750.547 4  96874526.016 4        29.100    23657750.891 5  96874494.067 5        34.700
R11  20903435.930 8 111701632.905 8        48.700    20903435.660 7 111701620.916 7        47.300    20903452.082 7  86879054.276 7        46.200
R10  19286303.172 7 102806837.767 7        45.000    19286302.426 7 102806837.764 7        43.700
G06  21361503.531 7 112255449.791 7        45.000    21361522.918 7  87471858.177 7        47.300    21361523.469 7  87471807.173 7        46.800    21361527.371 8  83827148.480 8        50.200
R20  22024761.836 5 117776290.758 5        34.300    22024761.273 5 117776286.753 5        34.100    22024782.480 6  91603789.861 6        36.400
G01  23283070.961 6 122353372.900 6        36.800    23283097.820 3  95340386.224 3        21.700    23283097.641 6  95340309.272 6        39.400    23283100.824 7  91367794.223 7        43.400
C03  36231411.297 7 188666477.892 7        42.800    36231417.813 7 145888905.450 7        45.100
C11  23478472.359 7 122258569.432 7        43.300    23478485.434 7  94538051.656 7        44.700
C04  38987599.891 5 203018725.940 5        35.000    38987612.398 6 156986960.603 6        37.800
C28  24392991.352 6 127020707.762 6        41.800
C05  38398761.164 5 199952463.611 5        35.700    38398773.801 6 154615948.344 6        39.700
C13  36982052.758 7 192575240.578 7        44.600    36982066.359 7 148911380.887 7        43.100
C25  22275540.070 8 115994600.177 8        49.500
C14  25131947.414 5 130868628.006 5        35.500    25131958.742 6 101195980.501 6        39.200
C01  37504362.063 6 195295092.054 6        38.900    37504372.293 6 151014566.126 6        41.300
C06  39688761.648 5 206669776.133 5        33.700    39688771.148 5 159810233.829 5        35.400
C16  39641104.477 5 206421639.698 5        34.500    39641119.820 5 159618359.202 5        33.900
C23  22615742.336 8 117766114.372 8        49.300
C02  36960514.719 6 192463138.386 6        39.600    36960521.055 7 148824703.419 7        44.100
E12  25027273.984 7 131519212.176 7        44.000    25027291.785 7  98212434.588 7        44.400    25027288.996 7 100774484.392 7        44.800    25027290.785 7  99493405.599 7        47.900
E24  28603888.758 5 150314434.662 5        34.300    28603915.043 6 112247795.096 6        36.000    28603909.961 5 115175937.666 5        35.100
E26  26264674.422 6 138021796.427 6        40.900    26264699.680 7 103068152.895 7        42.400    26264695.902 7 105756956.129 7        42.500    26264698.254 7 104412569.121 7        46.100
E01  23980978.875 8 126020892.674 8        49.500    23980997.051 8  94106559.453 8        49.800    23980993.918 8  96561504.186 8        50.700    23980995.887 8  95333964.431 8        53.700
E31  24474400.914 8 128613848.396 8        48.500    24474422.414 8  96042762.752 8        48.300    24474419.141 8  98548229.846 8        49.300    24474421.180 8  97295515.908 8        52.400
E21  27262160.289 6 143263622.467 6        38.100    27262182.430 6 106982511.831 6        39.700    27262179.313 6 109773423.169 6        39.900    27262181.227 7 108377968.607 7        43.200
E33  23653807.297 8 124301595.704 8        48.500    23653825.133 8  92822677.965 8        50.500    23653821.809 8  95244129.827 8        51.200    23653823.863 9  94033322.506 9        54.400
E10  27091830.313 6 142368544.273 6        39.700    27091854.770 6 106314098.881 6        40.700    27091850.691 6 109087562.603 6        41.300    27091853.012 7 107700825.349 7        44.000
S26  38095700.531 6 200194288.718 6        36.400
> 2023  2 14 10 24 13.0000000  0 42       0.000000000000
G30  21983587.109 7 115524548.300 7        44.600    21983605.617 7  90019183.804 7        43.200    21983606.680 7  90019140.809 7        44.700    21983609.078 8  86268352.035 8        48.400
R09  21642339.891 7 115568911.360 7        44.400    21642339.441 7 115568877.367 7        42.900    21642353.742 7  89886919.663 7        43.800    21642350.840 7  86775517.457 7        43.200
R05  24218771.117 5 129463332.635 5        33.900    24218772.012 5 129463204.605 5        33.700    24218799.992 5 100693601.993 5        33.500
G19  22411704.953 6 117774308.820 6        41.800    22411725.242 5  91772259.627 5        31.300
G11  24871536.031 5 130700810.990 5        34.600    24871557.941 2 101844872.414 2        16.300    24871558.332 6 101844814.480 6        36.100    24871565.520 6  97601256.352 6        39.300
G14  20354635.914 7 106964338.541 7        47.200    20354651.746 6  83348891.929 6        41.600    20354651.980 8  83348860.918 8        52.100    20354658.980 9  79875983.702 9        54.500
G03  22440124.797 6 117923642.774 6        40.600    22440148.492 5  91888644.581 5        33.600    22440149.027 7  91888588.586 7        43.200    22440153.781 7  88059883.191 7        47.000
J02  37110122.391 7 195014997.863 7        43.400    37110121.848 8 195015003.846 8        48.000    37110118.203 7 195015036.007 7        44.500    37110140.844 7 151959774.294 7        47.800    37110144.867 8 145628109.203 8        49.800
J07  36742965.156 6 193085593.031 6        38.300    36742964.645 7 193085551.060 7        42.600    36742959.070 7 193085610.643 7        45.300    36742981.625 8 150456332.741 8        48.300    36742986.613 8 144187313.297 8        51.200
J03  40061836.469 7 210526365.810 7        44.600    40061836.070 8 210526466.831 8        48.000    40061832.695 7 210526398.282 7        45.500    40061855.484 7 164046580.097 7        47.700    40061860.375 8 157211298.145 8        48.500
J04  37105289.328 6 194989616.380 6        39.900    37105289.828 7 194989613.386 7        43.600    37105287.031 6 194989642.107 6        40.300    37105308.176 7 151939990.803 7        42.500    37105313.891 7 145609148.589 7        45.800
R21  20550535.570 8 109970062.552 8        50.200    20550534.809 8 109970065.563 8        49.100    20550551.617 7  85532280.858 7        45.800    20550547.973 7  82398039.815 7        47.000
R22  22419483.320 7 119676738.417 7        43.200    22419482.574 6 119676706.432 6        41.100    22419501.586 6  93081903.210 6        40.500
G17  21781171.297 7 114460844.485 7        43.700    21781190.234 7  89190321.934 7        44.900    21781190.137 7  89190282.939 7        43.700
G07  23658391.039 5 124325697.270 5        35.000    23658408.418 4  96877220.255 4        29.400    23658408.992 5  96877188.243 5        34.600
R11  20902848.086 8 111698494.107 8        48.700    20902848.152 7 111698482.125 7        47.600    20902864.121 7  86876613.002 7        46.300
R10  19286474.258 7 102807747.516 7        45.400    19286472.828 7 102807747.531 7        43.700
G06  21361139.211 7 112253536.462 7        44.600    21361158.707 7  87470367.266 7        47.300    21361159.512 7  87470316.255 7        46.800    21361163.242 8  83825719.695 8        50.400
R20  22025315.078 5 117779254.718 5        34.600    22025315.227 5 117779250.725 5        33.600    22025337.414 6  91606095.164 6        36.400
G01  23283736.852 6 122356873.484 6        37.000    23283764.051 3  95343113.936 3        20.600    23283763.602 6  95343036.968 6        39.500    23283767.027 7  91370408.293 7        43.200
C03  36231404.617 7 188666443.285 7        43.000    36231411.328 7 145888878.689 7        45.100
C11  23478788.055 7 122260214.766 7        43.800    23478801.590 7  94539323.924 7        45.200
C04  38987596.633 5 203018709.12815        34.600    38987609.238 6 156986946.65116        37.700
C28  24392767.563 6 127019541.907 6        41.900
C05  38398757.234 6 199952438.388 6        36.000    38398768.875 6 154615928.849 6        40.000
C13  36981838.195 7 192574121.342 7        45.000    36981851.348 7 148910515.424 7        43.200
C25  22275908.961 8 115996520.808 8        49.400
C14  25131548.469 5 130866548.334 5        35.400    25131559.313 6 101194372.358 6        39.600
C01  37504356.117 6 195295060.655 6        38.800    37504366.410 6 151014541.855 6        41.500
C06  39689036.656 5 206671207.874 5        33.700    39689045.813 5 159811340.946 5        35.700
C16  39641371.992 5 206423033.519 5        34.600    39641387.441 5 159619436.991 5        33.800
C23  22615558.680 8 117765158.484 8        49.600
C02  36960511.906 6 192463122.832 6        39.500    36960517.961 7 148824691.394 7        44.100
E12  25027000.609 7 131517775.977 7        43.500    25027018.340 7  98211362.100 7        44.400    25027015.602 7 100773383.920 7        44.900    25027017.480 8  99492319.113 8        48.200
E24  28603392.703 5 150311828.474 5        34.500    28603418.750 6 112245848.871 6        36.200    28603414.145 6 115173940.676 6        36.100
E26  26265144.859 6 138024266.759 6        41.200    26265169.836 7 103069997.646 7        42.700    26265165.957 7 105758848.982 7        42.900    26265168.355 7 104414437.924 7        46.600
E01  23981112.875 8 126021596.094 8        49.700    23981130.980 8  94107084.750 8        49.800    23981127.703 8  96562043.180 8        50.800    23981129.719 8  95334496.575 8        53.800
E31  24474059.281 8 128612054.069 8        49.000    24474080.926 8  96041422.834 8        48.500    24474077.719 8  98546854.972 8        49.300    24474079.719 8  97294158.510 8        52.400
E21  27262590.422 6 143265880.302 6        38.200    27262611.961 6 106984197.879 6        39.800    27262608.590 6 109775153.242 6        39.900    27262610.883 7 108379676.671 7        43.400
E33  23653991.195 8 124302561.851 8        48.500    23654008.918 8  92823399.437 8        50.600    23654005.672 8  95244870.128 8        51.200    23654007.715 9  94034053.387 9        54.600
E10  27091421.664 6 142366397.764 6        39.800    27091446.383 6 106312495.965 6        40.600    27091442.188 6 109085917.906 6        41.000    27091444.555 7 107699201.545 7        44.000
S26  38095693.625 6 200194236.320 6        36.400
> 2023  2 14 10 24 14.0000000  0 42       0.000000000000
G30  21984063.906 7 115527052.833 7        44.200    21984082.215 7  90021135.388 7        43.100    21984082.949 7  90021092.401 7        44.600    21984085.730 8  86270222.309 8        48.500
R09  21643045.352 7 115572676.046 7        44.300    21643044.734 7 115572642.062 7        43.000    21643059.379 7  89889847.758 7        43.900    21643055.887 7  86778344.157 7        43.400
R05  24218469.867 5 129461709.838 5        34.500    24218468.125 5 129461581.838 5        33.400    24218495.258 5 100692339.863 5        33.200
G19  22411496.141 6 117773216.586 6        41.600    22411517.379 5  91771408.537 5        30.600
G11  24870926.414 5 130697607.210 5        34.300    24870948.387 2 101842375.997 2        17.400    24870948.465 5 101842318.023 5        34.900    24870955.984 6  97598863.924 6        39.400
G14  20354510.078 7 106963677.465 7        47.200    20354525.777 6  83348376.806 6        41.300    20354526.094 8  83348345.818 8        52.200    20354533.168 9  79875490.046 9        54.400
G03  22440126.164 6 117923649.326 6        40.700    22440149.637 5  91888649.686 5        33.300    22440150.023 7  91888593.700 7        43.300    22440154.965 7  88059888.072 7        47.600
J02  37109931.047 7 195013994.999 7        43.400    37109930.961 8 195014000.975 8        48.100    37109927.648 7 195014033.144 7        44.500    37109949.535 7 151958992.822 7        47.900    37109954.082 8 145627360.298 8        49.500
J07  36742966.094 6 193085597.478 6        38.300    36742965.379 7 193085555.504 7        42.400    36742959.781 7 193085615.087 7        45.200    36742982.734 8 150456336.208 8        48.100    36742987.453 8 144187316.623 8        50.900
J03  40061907.750 7 210526743.443 7        44.400    40061907.844 8 210526844.449 8        48.100    40061904.066 7 210526775.914 7        45.700    40061927.121 7 164046874.347 7        47.900    40061932.254 8 157211580.155 8        48.600
J04  37105332.688 6 194989844.242 6        39.900    37105333.027 7 194989841.233 7        43.600    37105330.242 6 194989869.972 6        40.200    37105351.809 7 151940168.347 7        42.600    37105357.219 7 145609318.744 7        45.500
R21  20550604.313 8 109970428.397 8        50.200    20550603.313 8 109970431.400 8        48.900    20550619.656 7  85532565.408 7        46.300    20550616.379 7  82398313.940 7        46.800
R22  22419127.359 7 119674839.966 7        43.600    22419127.313 6 119674807.980 6        41.100    22419145.531 6  93080426.642 6        40.500
G17  21781185.914 7 114460921.537 7        43.900    21781204.957 7  89190381.979 7        44.800    21781205.301 7  89190342.983 7        43.900
G07  23659049.148 5 124329154.855 5        35.200    23659066.500 4  96879914.480 4        28.600    23659067.293 5  96879882.476 5        34.400
R11  20902260.867 8 111695355.872 8        48.800    20902260.770 7 111695343.875 7        47.500    20902278.102 7  86874172.153 7        46.100
R10  19286645.906 7 102808658.171 7        44.900    19286643.527 7 102808658.161 7        43.300
G06  21360775.336 7 112251623.657 7        45.000    21360794.773 7  87468876.779 7        47.400    21360795.418 7  87468825.769 7        46.800    21360799.184 8  83824291.302 8        50.500
R20  22025870.313 5 117782218.692 5        34.600    22025869.965 5 117782214.710 5        34.100    22025890.691 6  91608400.472 6        36.600
G01  23284403.844 6 122360374.196 6        36.700    23284430.195 3  95345841.766 3        21.500    23284429.523 6  95345764.780 6        39.600    23284433.297 7  91373022.424 7        43.100
C03  36231398.281 7 188666408.713 7        42.900    36231404.488 7 145888851.961 7        44.900
C11  23479103.992 7 122261860.103 7        43.900    23479117.656 7  94540596.207 7        45.200
C04  38987593.469 5 203018692.341 5        34.900    38987606.109 6 156986933.607 6        37.800
C28  24392543.703 6 127018376.306 6        41.900
C05  38398752.758 5 199952413.257 5        35.700    38398763.934 6 154615909.421 6        39.400
C13  36981623.273 7 192573002.283 7        44.300    36981636.320 7 148909650.098 7        43.200
C25  22276277.906 8 115998441.878 8        49.000
C14  25131149.297 5 130864468.675 5        35.200    25131159.855 6 101192764.238 6        39.600
C01  37504350.648 6 195295029.246 6        38.800    37504360.711 6 151014517.566 6        41.200
C06  39689310.992 5 206672639.596 5        33.400    39689320.918 5 159812448.037 5        35.400
C16  39641639.898 5 206424427.290 5        34.400    39641655.238 5 159620514.740 5        33.900
C23  22615375.328 8 117764203.126 8        49.600
C02  36960509.227 6 192463107.328 6        39.700    36960514.750 7 148824679.405 7        44.100
E12  25026727.258 7 131516340.146 7        43.500    25026745.336 7  98210289.905 7        43.800    25026742.410 7 100772283.749 7        44.900    25026744.258 8  99491232.931 8        48.100
E24  28602896.703 5 150309222.176 5        34.300    28602922.703 5 112243902.655 5        35.600    28602918.055 5 115171943.685 5        34.800
E26  26265614.625 6 138026737.184 6        41.000    26265639.922 7 103071842.443 7        42.700    26265636.063 7 105760741.894 7        43.000    26265638.449 7 104416306.785 7        46.500
E01  23981246.695 8 126022299.921 8        49.300    23981264.875 8  94107610.332 8        49.800    23981261.645 8  96562582.472 8        50.700    23981263.660 8  95335029.011 8        53.500
E31  24473717.875 8 128610259.954 8        48.800    24473739.586 8  96040083.090 8        48.000    24473736.320 8  98545480.273 8        49.200    24473738.309 8  97292801.286 8        52.300
E21  27263019.539 6 143268138.430 6        38.500    27263041.746 6 106985884.134 6        39.800    27263038.336 6 109776883.470 6        39.800    27263040.586 7 108381384.929 7        43.400
E33  23654175.211 8 124303528.335 8        48.600    23654192.906 8  92824121.171 8        50.500    23654189.602 8  95245610.670 8        51.200    23654191.629 9  94034784.536 9        54.300
E10  27091013.625 6 142364251.565 6        39.600    27091037.699 6 106310893.298 6        40.900    27091033.863 6 109084273.382 6        41.200    27091036.145 7 107697577.950 7        44.300
S26  38095683.281 6 200194183.970 6        36.200
> 2023  2 14 10 24 15.0000000  0 42       0.000000000000
G30  21984540.594 7 115529557.642 7        44.100    21984558.824 7  90023087.189 7        43.000    21984559.645 7  90023044.199 7        44.200    21984562.398 8  86272092.792 8        48.700
R09  21643750.016 7 115576441.167 7        44.200    21643749.668 7 115576407.172 7        43.000    21643764.004 7  89892776.164 7        44.200    21643760.961 7  86781171.197 7        43.600
R05  24218166.133 5 129460087.279 5        34.000    24218164.957 5 129459959.311 5        33.700    24218192.699 5 100691077.897 5        33.200
G19  22411289.344 6 117772124.400 6        41.600    22411309.480 5  91770557.496 5        31.200
G11  24870317.367 5 130694403.620 5        34.200    24870338.656 2 101839879.689 2        16.900    24870338.844 5 101839821.679 5        35.100    24870346.418 6  97596471.631 6        39.700
G14  20354384.273 7 106963016.844 7        47.200    20354400.156 6  83347862.040 6        41.200    20354400.418 8  83347831.051 8        52.200    20354407.477 9  79874996.731 9        54.500
G03  22440127.953 6 117923656.459 6        40.500    22440150.840 5  91888655.243 5        33.100    22440151.531 7  91888599.232 7        43.400    22440156.309 7  88059893.391 7        47.600
J02  37109740.359 7 195012992.173 7        43.900    37109740.121 8 195012998.173 8        48.000    37109737.039 7 195013030.318 7        44.600    37109758.883 8 151958211.423 8        48.000    37109763.242 8 145626611.443 8        49.900
J07  36742967.297 6 193085601.926 6        37.900    36742966.273 7 193085559.945 7        42.500    36742960.348 7 193085619.538 7        45.200    36742983.328 8 150456339.661 8        48.100    36742988.309 8 144187319.939 8        51.200
J03  40061979.844 7 210527120.991 7        44.000    40061979.762 7 210527221.988 7        47.900    40061976.363 7 210527153.456 7        45.300    40061999.168 8 164047168.533 8        48.100    40062003.996 8 157211862.086 8        48.700
J04  37105376.469 6 194990072.102 6        40.100    37105376.285 7 194990069.122 7        43.600    37105373.840 6 194990097.829 6        40.400    37105395.121 7 151940345.903 7        43.000    37105400.730 7 145609488.904 7        45.600
R21  20550672.094 8 109970794.672 8        50.300    20550671.574 8 109970797.682 8        48.700    20550688.133 7  85532850.291 7        46.600    20550684.824 7  82398588.376 7        47.000
R22  22418771.203 7 119672941.961 7        43.500    22418771.574 6 119672909.959 6        41.100    22418790.883 6  93078950.413 6        40.100
G17  21781200.445 7 114460998.558 7        43.700    21781219.645 7  89190442.001 7        44.800    21781219.766 7  89190402.998 7        44.100
G07  23659706.898 5 124332612.409 5        35.200    23659724.672 4  96882608.662 4        28.900    23659725.035 5  96882576.677 5        35.100
R11  20901673.523 8 111692218.148 8        48.700    20901673.930 7 111692206.152 7        47.900    20901690.758 7  86871731.710 7        46.000
R10  19286815.625 7 102809569.631 7        45.100    19286814.695 7 102809569.622 7        43.400
G06  21360411.813 7 112249711.328 7        44.700    21360430.887 7  87467386.656 7        47.600    21360431.875 7  87467335.659 7        46.600    21360435.270 8  83822863.265 8        50.200
R20  22026421.898 5 117785182.618 5        34.300    22026424.586 5 117785178.627 5        33.500    22026444.492 6  91610705.761 6        36.500
G01  23285069.531 6 122363874.953 6        36.100    23285096.328 3  95348569.632 3        21.300    23285096.020 6  95348492.635 6        40.000    23285099.348 7  91375636.648 7        43.500
C03  36231391.797 7 188666374.145 7        43.000    36231397.762 7 145888825.230 7        45.300
C11  23479420.008 7 122263505.408 7        43.800    23479433.609 7  94541868.461 7        45.100
C04  38987590.438 5 203018675.552 5        34.600    38987602.664 6 156986920.614 6        37.800
C28  24392319.641 6 127017210.859 6        41.700
C05  38398747.430 5 199952388.086 5        35.900    38398759.164 6 154615889.954 6        39.400
C13  36981408.297 7 192571883.361 7        44.600    36981421.477 7 148908784.877 7        43.400
C25  22276646.922 8 116000363.379 8        49.000
C14  25130749.477 5 130862388.945 5        35.300    25130760.539 6 101191156.071 6        39.600
C01  37504344.266 6 195294997.856 6        38.800    37504354.602 6 151014493.303 6        40.900
C06  39689586.008 5 206674071.143 5        33.700    39689595.816 5 159813555.004 5        35.700
C16  39641907.813 5 206425820.983 5        34.200    39641922.902 5 159621592.431 5        34.100
C23  22615192.094 8 117763248.260 8        49.800
C02  36960506.320 6 192463091.790 6        39.700    36960511.988 7 148824667.388 7        44.100
E12  25026454.203 7 131514904.631 7        43.500    25026472.141 7  98209217.931 7        43.800    25026469.238 7 100771183.808 7        45.100    25026471.082 8  99490146.979 8        48.200
E24  28602400.969 5 150306615.942 5        34.500    28602426.402 5 112241956.381 5        35.800    28602421.887 5 115169946.660 5        34.800
E26  26266085.102 6 138029207.637 6        41.800    26266109.965 7 103073687.254 7        42.000    26266106.238 7 105762634.838 7        43.000    26266108.563 7 104418175.659 7        46.100
E01  23981380.938 8 126023004.080 8        49.500    23981398.848 8  94108136.159 8        49.900    23981395.641 8  96563122.025 8        50.500    23981397.660 9  95335561.707 9        54.000
E31  24473376.648 8 128608466.038 8        48.800    24473398.086 8  96038743.482 8        48.200    24473394.973 8  98544105.724 8        49.300    24473396.930 8  97291444.208 8        52.500
E21  27263449.227 6 143270396.757 6        38.200    27263471.605 6 106987570.545 6        39.700    27263468.184 6 109778613.898 6        40.000    27263470.324 7 108383093.325 7        43.400
E33  23654359.211 8 124304495.098 8        48.600    23654376.848 8  92824843.100 8        50.800    23654373.523 8  95246351.449 8        51.000    23654375.590 9  94035515.881 9        54.200
E10  27090605.500 6 142362105.566 6        39.500    27090629.320 6 106309290.748 6        40.400    27090625.766 6 109082629.071 6        41.500    27090627.773 7 107695954.509 7        44.100
S26  38095671.266 5 200194131.630 5        35.800
> 2023  2 14 10 24 16.0000000  0 42       0.000000000000
G30  21985016.891 7 115532062.740 7        44.100    21985035.512 7  90025039.220 7        43.000    21985036.156 7  90024996.215 7        44.600    21985039.055 8  86273963.474 8        49.000
R09  21644455.109 7 115580206.622 7        44.700    21644454.660 7 115580172.630 7        43.300    21644469.324 7  89895704.852 7        44.100    21644465.934 7  86783998.525 7        43.700
R05  24217862.945 5 129458465.104 5        33.700    24217861.824 5 129458337.122 5        33.800    24217888.738 5 100689816.115 5        33.200
G19  22411081.188 7 117771032.213 7        42.000    22411101.590 5  91769706.448 5        30.500
G11  24869707.250 5 130691200.150 5        34.100    24869728.988 2 101837383.458 2        17.400    24869728.824 5 101837325.483 5        35.100    24869736.703 6  97594079.451 6        38.900
G14  20354258.719 7 106962356.664 7        47.000    20354274.559 6  83347347.619 6        41.300    20354274.938 8  83347316.608 8        51.600    20354281.879 9  79874503.733 9        54.500
G03  22440129.633 6 117923664.119 6        40.500    22440152.391 5  91888661.215 5        34.100    22440152.883 7  91888605.216 7        43.400    22440157.727 7  88059899.115 7        47.200
J02  37109549.563 7 195011989.423 7        43.400    37109549.422 8 195011995.393 8        48.000    37109545.914 7 195012027.566 7        44.500    37109568.137 8 151957430.046 8        48.000    37109572.398 8 145625862.627 8        49.900
J07  36742967.578 6 193085606.317 6        38.100    36742967.070 7 193085564.351 7        42.600    36742961.477 7 193085623.928 7        45.500    36742984.422 8 150456343.088 8        48.400    36742989.141 8 144187323.218 8        51.200
J03  40062051.516 7 210527498.384 7        44.300    40062051.520 7 210527599.377 7        47.900    40062048.281 7 210527530.850 7        45.100    40062071.039 8 164047462.604 8        48.200    40062075.887 8 157212143.895 8        49.000
J04  37105419.500 6 194990299.974 6        40.300    37105419.555 7 194990296.967 7        43.800    37105417.008 6 194990325.690 6        40.200    37105438.777 7 151940523.453 7        43.200    37105443.906 7 145609659.060 7        45.900
R21  20550741.289 8 109971161.285 8        50.300    20550740.004 8 109971164.302 8        48.800    20550757.184 7  85533135.438 7        46.400    20550753.418 7  82398863.069 7        46.700
R22  22418416.781 7 119671044.331 7        43.000    22418416.070 6 119671012.327 6        41.100    22418434.652 6  93077474.465 6        40.000
G17  21781215.031 7 114461075.503 7        43.800    21781234.184 7  89190501.954 7        44.700    21781234.113 7  89190462.957 7        43.900
G07  23660364.891 5 124336069.876 5        35.500    23660382.715 4  96885302.795 4        28.900    23660382.633 5  96885270.807 5        34.600
R11  20901086.273 8 111689080.889 8        48.900    20901086.699 7 111689068.900 7        47.600    20901103.609 7  86869291.636 7        46.100
R10  19286987.930 7 102810481.890 7        45.400    19286985.969 7 102810481.900 7        43.300
G06  21360047.766 7 112247799.451 7        44.800    21360067.059 7  87465896.878 7        47.300    21360067.879 7  87465845.875 7        46.400    21360071.445 8  83821435.575 8        50.600
R20  22026977.781 5 117788146.431 5        35.200    22026978.730 5 117788142.419 5        34.000    22026999.219 6  91613010.946 6        37.100
G01  23285736.398 6 122367375.723 6        36.000    23285762.719 3  95351297.514 3        21.500    23285762.555 6  95351220.547 6        39.900    23285765.461 7  91378250.895 7        43.200
C03  36231385.016 7 188666339.522 7        43.000    36231391.270 7 145888798.462 7        45.500
C11  23479736.164 7 122265150.653 7        43.400    23479749.512 7  94543140.671 7        45.100
C04  38987587.375 5 203018658.671 5        34.600    38987599.195 6 156986907.574 6        37.800
C28  24392096.031 6 127016045.583 6        41.800
C05  38398742.070 5 199952362.889 5        35.800    38398754.336 6 154615870.468 6        39.400
C13  36981193.125 7 192570764.555 7        44.600    36981206.539 7 148907919.753 7        43.200
C25  22277016.188 8 116002285.232 8        49.100
C14  25130349.984 5 130860309.134 5        35.200    25130361.086 6 101189547.827 6        39.700
C01  37504338.094 6 195294966.419 6        38.600    37504348.465 6 151014468.990 6        41.100
C06  39689861.414 5 206675502.613 5        34.100    39689870.594 5 159814661.908 5        35.600
C16  39642174.836 5 206427214.493 5        34.300    39642190.438 5 159622669.973 5        34.000
C23  22615008.688 8 117762293.849 8        49.200
C02  36960502.828 6 192463076.251 6        39.600    36960508.820 7 148824655.376 7        44.500
E12  25026181.273 7 131513469.409 7        43.200    25026198.895 7  98208146.166 7        43.400    25026196.105 7 100770084.101 7        45.100    25026197.969 8  99489061.242 8        48.100
E24  28601905.555 5 150304009.516 5        34.600    28601930.734 6 112240010.026 6        36.100    28601926.195 5 115167949.498 5        34.900
E26  26266554.961 6 138031678.010 6        41.600    26266579.840 7 103075532.001 7        42.300    26266576.160 7 105764527.726 7        43.000    26266578.656 7 104420044.473 7        46.200
E01  23981514.820 8 126023708.555 8        49.600    23981533.012 8  94108662.241 8        49.800    23981529.648 8  96563661.832 8        50.700    23981531.711 9  95336094.645 9        54.000
E31  24473035.102 8 128606672.264 8        48.700    24473056.859 8  96037403.991 8        48.300    24473053.582 8  98542731.280 8        49.100    24473055.566 8  97290087.243 8        52.300
E21  27263879.172 6 143272655.236 6        38.500    27263901.258 6 106989257.087 6        39.500    27263897.969 6 109780344.434 6        40.100    27263900.094 7 108384801.853 7        43.500
E33  23654543.250 8 124305462.102 8        48.600    23654560.836 8  92825565.216 8        50.800    23654557.551 8  95247092.407 8        51.100    23654559.613 8  94036247.418 8        53.900
E10  27090196.656 6 142359959.777 6        39.600    27090221.152 6 106307688.387 6        40.800    27090217.074 6 109080984.890 6        41.600    27090219.453 7 107694331.240 7        44.400
S26  38095658.281 6 200194079.177 6        36.200
> 2023  2 14 10 24 17.0000000  0 42       0.000000000000
G30  21985493.867 7 115534568.195 7        44.200    21985512.332 7  90026991.516 7        43.200    21985513.047 7  90026948.506 7        44.800    21985515.926 8  86275834.427 8        48.900
R09  21645160.266 7 115583972.592 7        44.700    21645160.105 7 115583938.571 7        43.000    21645174.453 7  89898633.929 7        44.200    21645171.395 7  86786826.220 7        43.900
R05  24217558.828 5 129456843.306 5        34.100    24217558.133 5 129456715.277 5        32.900    24217583.906 5 100688554.729 5        33.400
G19  22410872.719 7 117769940.161 7        42.200    22410893.813 5  91768855.511 5        30.500
G11  24869097.758 5 130687996.973 5        34.200    24869119.473 2 101834887.512 2        16.900    24869119.332 5 101834829.473 5        35.300    24869127.152 6  97591687.426 6        39.200
G14  20354133.000 7 106961696.973 7        47.000    20354149.082 6  83346833.576 6        41.000    20354149.223 8  83346802.573 8        51.400    20354156.297 9  79874011.116 9        54.500
G03  22440130.977 6 117923672.454 6        40.500    22440154.020 5  91888667.714 5        33.600    22440155.008 7  91888611.721 7        43.500    22440159.430 7  88059905.350 7        47.000
J02  37109358.969 7 195010986.758 7        43.400    37109358.535 8 195010992.757 8        48.000    37109355.301 7 195011024.909 7        44.600    37109377.008 8 151956648.777 8        48.000    37109381.652 8 145625113.905 8        49.800
J07  36742968.219 6 193085610.744 6        38.100    36742967.852 7 193085568.776 7        42.600    36742962.449 7 193085628.348 7        45.300    36742985.285 8 150456346.541 8        48.800    36742989.984 8 144187326.532 8        51.100
J03  40062123.375 7 210527875.741 7        44.200    40062123.348 7 210527976.742 7        47.900    40062119.633 7 210527908.206 7        45.100    40062142.742 7 164047756.659 7        47.600    40062147.586 8 157212425.701 8        49.000
J04  37105463.453 6 194990527.911 6        40.600    37105463.277 7 194990524.900 7        43.700    37105460.605 6 194990553.635 6        40.000    37105482.043 7 151940701.060 7        43.100    37105487.250 7 145609829.277 7        45.800
R21  20550808.969 8 109971528.322 8        50.200    20550808.770 8 109971531.339 8        49.100    20550825.324 7  85533420.926 7        46.300    20550821.941 7  82399138.086 7        46.600
R22  22418060.305 7 119669147.169 7        42.800    22418060.594 6 119669115.181 6        40.700    22418080.172 6  93075998.906 6        39.900
G17  21781229.930 7 114461152.485 7        43.800    21781248.980 7  89190561.939 7        44.800    21781249.121 7  89190522.942 7        43.400
G07  23661022.961 5 124339527.383 5        35.300    23661040.590 4  96887996.967 4        27.900    23661040.234 5  96887964.978 5        34.100
R11  20900499.742 8 111685944.219 8        48.900    20900499.691 7 111685932.236 7        47.500    20900516.324 7  86866852.015 7        46.000
R10  19287157.703 7 102811395.075 7        45.400    19287156.992 7 102811395.066 7        43.600
G06  21359684.305 7 112245888.121 7        45.000    21359703.328 7  87464407.537 7        47.700    21359704.023 7  87464356.527 7        46.400    21359707.746 8  83820008.282 8        50.500
R20  22027531.680 5 117791110.228 5        34.600    22027533.063 5 117791106.275 5        34.000    22027553.164 6  91615316.141 6        37.300
G01  23286402.102 6 122370876.710 6        36.400    23286429.074 3  95354025.551 3        21.300    23286428.449 6  95353948.562 6        39.400    23286431.629 7  91380865.240 7        43.300
C03  36231378.375 7 188666304.957 7        42.900    36231384.855 7 145888771.737 7        45.000
C11  23480052.328 7 122266795.948 7        43.400    23480065.578 7  94544412.915 7        45.200
C04  38987583.453 5 203018641.891 5        34.800    38987595.809 6 156986894.611 6        37.800
C28  24391872.211 7 127014880.556 7        42.100
C05  38398737.320 5 199952337.734 5        35.700    38398749.492 6 154615851.015 6        39.500
C13  36980978.273 7 192569645.930 7        44.400    36980991.773 7 148907054.764 7        43.000
C25  22277385.250 8 116004207.558 8        49.200
C14  25129950.438 5 130858229.366 5        35.400    25129961.770 6 101187939.624 6        40.200
C01  37504331.625 6 195294935.018 6        38.900    37504342.727 6 151014444.716 6        41.300
C06  39690136.078 5 206676934.010 5        34.100    39690145.477 5 159815768.759 5        35.200
C16  39642443.086 5 206428607.941 5        34.300    39642457.777 5 159623747.480 5        34.700
C23  22614825.336 8 117761339.994 8        49.300
C02  36960500.289 6 192463060.733 6        39.800    36960505.785 7 148824643.378 7        44.200
E12  25025908.266 7 131512034.572 7        43.500    25025925.863 7  98207074.689 7        43.800    25025923.047 7 100768984.677 7        45.000    25025924.934 8  99487975.792 8        48.100
E24  28601409.375 5 150301403.121 5        35.200    28601434.730 6 112238063.651 6        36.000    28601430.445 5 115165952.375 5        35.300
E26  26267024.844 6 138034148.494 6        41.400    26267049.973 7 103077376.855 7        42.200    26267046.469 7 105766420.680 7        42.800    26267048.785 7 104421913.391 7        46.200
E01  23981648.977 8 126024413.445 8        49.800    23981667.066 8  94109188.617 8        49.800    23981663.707 8  96564201.930 8        50.800    23981665.848 8  95336627.881 8        53.700
E31  24472693.977 8 128604878.732 8        48.500    24472715.707 8  96036064.669 8        48.200    24472712.250 8  98541357.020 8        49.100    24472714.285 8  97288730.453 8        52.200
E21  27264309.117 6 143274913.989 6        37.800    27264330.891 6 106990943.817 6        39.700    27264327.727 6 109782075.152 6        40.300    27264329.906 7 108386510.591 7        43.800
E33  23654727.117 8 124306429.462 8        48.600    23654745.016 8  92826287.592 8        51.200    23654741.621 8  95247833.618 8        51.100    23654743.703 9  94036979.212 9        54.000
E10  27089788.766 6 142357814.292 6        38.900    27089812.957 6 106306086.230 6        40.800    27089808.820 6 109079340.936 6        41.800    27089811.180 7 107692708.201 7        44.200
S26  38095653.656 6 200194026.758 6        36.100
> 2023  2 14 10 24 18.0000000  0 42       0.000000000000
G30  21985970.266 7 115537073.927 7        44.700    21985989.148 7  90028944.032 7        43.500    21985989.848 7  90028901.031 7        44.900    21985992.641 8  86277705.589 8        48.700
R09  21645865.609 7 115587738.920 7        44.500    21645865.547 7 115587704.920 7        43.100    21645880.047 7  89901563.299 7        44.200    21645876.777 7  86789654.194 7        44.000
R05  24217256.188 5 129455221.836 5        33.800    24217255.313 5 129455093.882 5        33.200    24217281.605 5 100687293.596 5        33.700
G19  22410664.711 6 117768848.126 6        41.800    22410686.063 5  91768004.575 5        30.600
G11  24868488.188 5 130684793.938 5        34.700    24868509.738 2 101832391.646 2        16.300    24868509.617 5 101832333.631 5        35.200    24868517.547 6  97589295.581 6        39.000
G14  20354007.680 7 106961037.724 7        47.500    20354023.559 6  83346319.877 6        40.600    20354023.797 8  83346288.873 8        51.700    20354030.824 9  79873518.828 9        54.400
G03  22440132.609 6 117923681.364 6        40.400    22440155.715 5  91888674.642 5        33.600    22440156.535 7  91888618.654 7        43.900    22440161.059 7  88059911.995 7        47.400
J02  37109168.063 7 195009984.179 7        43.200    37109167.715 8 195009990.179 8        48.100    37109164.223 7 195010022.329 7        44.400    37109186.480 8 151955867.551 8        48.300    37109190.770 8 145624365.226 8        50.100
J07  36742969.000 6 193085615.199 6        37.700    36742968.770 7 193085573.191 7        42.600    36742963.109 7 193085632.813 7        45.200    36742986.012 8 150456349.992 8        49.300    36742990.844 8 144187329.841 8        51.100
J03  40062195.031 7 210528253.002 7        44.600    40062195.188 7 210528353.993 7        47.900    40062191.910 7 210528285.467 7        45.300    40062214.906 7 164048050.632 7        47.800    40062219.395 8 157212707.414 8        49.100
J04  37105506.500 6 194990755.833 6        40.400    37105506.582 7 194990752.837 7        43.700    37105503.918 6 194990781.558 6        40.400    37105525.258 7 151940878.701 7        43.200    37105530.637 7 145609999.484 7        46.000
R21  20550877.773 8 109971895.739 8        50.500    20550877.453 8 109971898.742 8        48.800    20550893.902 7  85533706.668 7        46.300    20550890.473 7  82399413.386 7        46.800
R22  22417705.477 7 119667250.429 7        42.800    22417705.426 6 119667218.453 6        40.900    22417723.719 6  93074523.685 6        40.300
G17  21781244.547 7 114461229.414 7        44.000    21781263.629 7  89190621.896 7        45.100    21781263.891 7  89190582.885 7        43.600
G07  23661680.406 5 124342984.834 5        35.000    23661698.629 4  96890691.084 4        27.600    23661698.703 5  96890659.099 5        34.300
R11  20899912.141 8 111682808.040 8        49.200    20899912.766 7 111682796.051 7        47.400    20899929.148 7  86864412.782 7        46.100
R10  19287330.063 7 102812309.074 7        45.000    19287328.523 7 102812309.086 7        43.600
G06  21359320.078 7 112243977.247 7        44.700    21359339.719 7  87462918.548 7        47.400    21359340.680 7  87462867.538 7        46.700    21359344.117 8  83818581.334 8        50.500
R20  22028086.445 5 117794074.045 5        35.000    22028086.906 5 117794070.019 5        33.600    22028108.676 6  91617621.300 6        37.600
G01  23287067.805 6 122374377.752 6        36.600    23287095.172 3  95356753.627 3        20.900    23287094.594 6  95356676.630 6        39.400    23287097.805 7  91383479.658 7        43.100
C03  36231371.367 7 188666270.370 7        42.800    36231378.094 7 145888744.992 7        44.100
C11  23480367.797 7 122268441.188 7        43.000    23480381.570 7  94545685.117 7        45.000
C04  38987580.508 5 203018625.097 5        34.500    38987592.563 6 156986881.627 6        37.400
C28  24391648.547 6 127013715.712 6        41.600
C05  38398732.602 5 199952312.521 5        35.700    38398744.719 6 154615831.527 6        39.400
C13  36980763.586 7 192568527.425 7        44.300    36980777.020 7 148906189.873 7        42.600
C25  22277754.336 8 116006130.281 8        49.200
C14  25129551.625 5 130856149.448 5        35.400    25129562.328 6 101186331.300 6        39.800
C01  37504326.039 6 195294903.615 6        38.700    37504336.520 6 151014420.432 6        40.900
C06  39690411.117 5 206678365.252 5        33.600    39690420.504 5 159816875.480 5        35.500
C16  39642710.375 5 206430001.269 5        34.200    39642725.242 5 159624824.894 5        34.600
C23  22614642.586 8 117760386.627 8        49.100
C02  36960496.961 6 192463045.179 6        39.500    36960503.152 7 148824631.349 7        44.100
E12  25025635.320 7 131510600.047 7        43.600    25025652.883 7  98206003.472 7        44.200    25025650.141 7 100767885.492 7        44.900    25025651.949 8  99486890.594 8        48.300
E24  28600913.313 5 150298796.534 5        35.300    28600938.902 6 112236117.182 6        36.500    28600934.438 5 115163955.146 5        35.100
E26  26267495.242 6 138036618.955 6        41.800    26267520.320 6 103079221.687 6        41.800    26267516.473 7 105768313.643 7        42.500    26267518.910 7 104423782.282 7        45.700
E01  23981783.234 8 126025118.680 8        50.000    23981801.262 8  94109715.244 8        49.800    23981798.047 8  96564742.308 8        50.600    23981800.047 8  95337161.385 8        53.700
E31  24472352.508 8 128603085.370 8        48.600    24472374.285 8  96034725.481 8        48.500    24472370.969 8  98539982.897 8        49.200    24472373.004 8  97287373.801 8        52.000
E21  27264739.094 6 143277172.945 6        37.500    27264760.703 6 106992630.718 6        39.800    27264757.773 6 109783806.043 6        40.200    27264759.734 7 108388219.495 7        43.700
E33  23654911.391 8 124307397.093 8        48.600    23654929.168 8  92827010.178 8        51.100    23654925.785 8  95248575.047 8        51.200    23654927.832 9  94037711.220 9        54.200
E10  27089380.781 6 142355669.017 6        39.300    27089404.504 6 106304484.258 6        41.100    27089400.633 6 109077697.163 6        41.300    27089402.934 7 107691085.327 7        44.200
S26  38095643.844 6 200193974.318 6        36.300
> 2023  2 14 10 24 19.0000000  0 42       0.000000000000
G30  21986447.242 7 115539579.992 7        44.200    21986466.012 7  90030896.812 7        43.200    21986466.602 7  90030853.801 7        45.000    21986469.527 8  86279576.999 8        48.600
R09  21646570.492 7 115591505.661 7        44.500    21646570.766 7 115591471.662 7        42.800    21646584.770 7  89904493.007 7        43.900    21646582.309 7  86792482.468 7        44.100
R05  24216953.047 5 129453600.712 5        33.900    24216951.840 5 129453472.732 5        32.900    24216978.254 5 100686032.711 5        32.900
G19  22410457.414 6 117767756.157 6        41.600    22410478.199 5  91767153.700 5        30.000
G11  24867878.383 5 130681591.138 5        33.800    24867900.273 2 101829895.948 2        16.900    24867900.805 5 101829837.961 5        35.500    24867908.184 6  97586903.882 6        39.200
G14  20353882.234 7 106960378.961 7        47.600    20353898.254 6  83345806.559 6        40.900    20353898.637 8  83345775.549 8        51.800    20353905.488 9  79873026.894 9        54.400
G03  22440134.617 6 117923690.903 6        40.300    22440157.539 5  91888682.080 5        33.600    22440158.082 7  91888626.073 7        43.600    22440162.887 7  88059919.107 7        47.300
J02  37108977.141 7 195008981.678 7        43.400    37108977.051 8 195008987.683 8        48.100    37108973.539 7 195009019.823 7        44.400    37108995.684 8 151955086.386 8        48.500    37109000.082 8 145623616.614 8        50.200
J07  36742970.063 6 193085619.632 6        38.500    36742969.672 7 193085577.615 7        42.600    36742964.426 7 193085637.243 7        45.500    36742987.016 8 150456353.455 8        49.000    36742991.684 8 144187333.154 8        51.100
J03  40062266.813 7 210528630.173 7        44.700    40062266.926 7 210528731.168 7        47.900    40062262.996 7 210528662.638 7        45.600    40062285.992 7 164048344.525 7        47.500    40062291.164 8 157212989.074 8        48.800
J04  37105549.828 6 194990983.808 6        40.300    37105549.691 7 194990980.817 7        43.600    37105547.270 6 194991009.538 6        40.600    37105568.633 7 151941056.330 7        42.500    37105574.035 7 145610169.744 7        45.500
R21  20550947.055 8 109972263.584 8        51.000    20550946.191 8 109972266.602 8        48.800    20550962.426 7  85533992.787 7        45.800    20550959.355 7  82399689.011 7        46.900
R22  22417349.539 7 119665354.185 7        42.700    22417350.059 6 119665322.195 6        41.000    22417368.891 6  93073048.776 6        40.200
G17  21781258.859 7 114461306.321 7        43.900    21781278.277 7  89190681.827 7        44.800    21781278.215 7  89190642.838 7        43.700
G07  23662338.398 5 124346442.300 5        35.600    23662356.445 4  96893385.211 4        28.200    23662356.613 5  96893353.233 5        34.200
R11  20899325.859 8 111679672.409 8        49.200    20899325.930 7 111679660.413 7        47.300    20899342.332 7  86861973.954 7        45.900
R10  19287501.766 7 102813223.947 7        45.200    19287500.340 7 102813223.936 7        43.400
G06  21358956.578 7 112242066.874 7        44.800    21358976.148 7  87461429.943 7        47.400    21358977.039 7  87461378.932 7        46.900    21358980.531 8  83817154.761 8        50.700
R20  22028641.320 5 117797037.802 5        35.000    22028641.141 5 117797033.784 5        33.700    22028663.207 6  91619926.382 6        37.300
G01  23287733.828 6 122377878.886 6        36.600    23287761.133 3  95359481.771 3        20.900    23287761.492 6  95359404.797 6        39.500    23287764.148 7  91386094.133 7        43.800
C03  36231365.203 7 188666235.805 7        43.100    36231371.496 7 145888718.260 7        44.400
C11  23480684.078 7 122270086.456 7        43.400    23480697.406 7  94546957.339 7        44.900
C04  38987577.453 5 203018608.320 5        34.600    38987589.398 6 156986868.660 6        37.800
C28  24391424.930 6 127012551.042 6        41.400
C05  38398727.844 5 199952287.376 5        35.900    38398739.785 6 154615812.086 6        39.400
C13  36980548.984 7 192567409.091 7        44.500    36980562.090 7 148905325.104 7        43.000
C25  22278124.070 8 116008053.424 8        49.300
C14  25129151.641 5 130854069.523 5        35.700    25129162.734 6 101184722.975 6        39.700
C01  37504319.289 6 195294872.207 6        39.000    37504330.289 6 151014396.156 6        41.000
C06  39690686.031 5 206679796.519 5        34.100    39690695.316 5 159817982.227 5        35.400
C16  39642977.297 5 206431394.505 5        34.300    39642992.824 5 159625902.226 5        34.400
C23  22614459.586 8 117759433.772 8        48.800
C02  36960494.141 6 192463029.662 6        39.700    36960500.148 7 148824619.353 7        44.100
E12  25025362.242 7 131509165.853 7        43.900    25025380.035 7  98204932.471 7        44.200    25025377.156 7 100766786.566 7        45.100    25025379.023 8  99485805.632 8        48.400
E24  28600417.578 5 150296189.998 5        35.200    28600443.266 6 112234170.722 6        37.000    28600438.297 5 115161957.907 5        35.500
E26  26267965.391 6 138039089.481 6        41.600    26267990.352 6 103081066.537 6        41.700    26267986.563 7 105770206.639 7        42.800    26267989.027 7 104425651.196 7        46.000
E01  23981917.586 8 126025824.274 8        49.700    23981935.531 8  94110242.154 8        50.000    23981932.293 8  96565282.961 8        50.300    23981934.309 8  95337695.172 8        53.600
E31  24472011.227 8 128601292.226 8        48.500    24472033.023 8  96033386.438 8        48.500    24472029.730 8  98538608.931 8        49.100    24472031.770 8  97286017.294 8        52.200
E21  27265168.086 6 143279432.096 6        38.000    27265190.648 6 106994317.758 6        39.500    27265187.680 6 109785537.108 6        40.000    27265189.637 7 108389928.544 7        43.500
E33  23655095.570 8 124308365.022 8        48.800    23655113.371 8  92827732.978 8        50.900    23655109.965 8  95249316.718 8        51.300    23655112.027 9  94038443.456 9        54.400
E10  27088972.758 6 142353524.012 6        39.800    27088996.473 6 106302882.451 6        41.100    27088992.457 6 109076053.563 6        41.500    27088994.766 7 107689462.625 7        44.500
S26  38095627.375 6 200193921.890 6        36.700
> 2023  2 14 10 24 20.0000000  0 42       0.000000000000
G30  21986924.648 7 115542086.358 7        44.400    21986942.965 7  90032849.823 7        43.300    21986943.629 7  90032806.818 7        44.700    21986946.508 8  86281448.647 8        48.600
R09  21647276.281 7 115595272.825 7        44.700    21647276.230 7 115595238.831 7        42.700    21647290.602 7  89907423.030 7        44.100    21647287.492 7  86795311.071 7        44.000
R05  24216649.352 5 129451979.929 5        33.100    24216648.777 5 129451851.923 5        32.400    24216675.074 5 100684772.069 5        32.900
G19  22410249.875 6 117766664.263 6        41.800    22410270.434 5  91766302.875 5        30.700
G11  24867269.391 5 130678388.464 5        33.800    24867290.734 2 101827400.360 2        16.300    24867291.461 5 101827342.391 5        35.200    24867298.730 6  97584512.294 6        39.400
G14  20353757.352 7 106959720.645 7        47.500    20353772.980 6  83345293.594 6        41.100    20353773.395 8  83345262.590 8        51.700    20353780.215 9  79872535.297 9        54.400
G03  22440136.273 6 117923701.004 6        40.200    22440159.672 5  91888689.955 5        33.900    22440159.895 7  91888633.960 7        43.600    22440164.809 7  88059926.655 7        47.100
J02  37108786.203 7 195007979.276 7        43.600    37108786.242 8 195007985.289 8        48.000    37108782.961 7 195008017.427 7        44.500    37108805.094 8 151954305.281 8        48.500    37108809.320 8 145622868.070 8        50.200
J07  36742970.594 6 193085624.070 6        38.000    36742970.438 7 193085582.072 7        42.600    36742964.867 7 193085641.680 7        45.200    36742987.777 8 150456356.918 8        48.100    36742992.563 8 144187336.471 8        51.200
J03  40062338.656 7 210529007.262 7        45.000    40062338.781 7 210529108.262 7        47.900    40062335.043 7 210529039.727 7        45.300    40062358.094 7 164048638.362 7        47.300    40062362.906 8 157213270.669 8        48.900
J04  37105593.156 6 194991211.830 6        39.900    37105593.047 7 194991208.809 7        43.700    37105590.484 6 194991237.555 6        39.900    37105612.035 7 151941234.004 7        42.400    37105617.367 7 145610340.011 7        45.900
R21  20551015.617 8 109972631.846 8        51.100    20551014.828 8 109972634.862 8        48.800    20551031.445 7  85534279.212 7        45.800    20551028.133 7  82399964.950 7        47.000
R22  22416995.695 7 119663458.354 7        42.800    22416995.039 6 119663426.348 6        40.900    22417013.637 6  93071574.252 6        40.500
G17  21781273.695 7 114461383.211 7        43.800    21781292.852 7  89190741.743 7        44.700    21781292.840 7  89190702.753 7        44.200
G07  23662997.055 5 124349899.746 5        35.600    23663014.289 4  96896079.313 4        27.700    23663014.324 5  96896047.343 5        34.300
R11  20898739.008 8 111676537.312 8        49.300    20898739.293 7 111676525.330 7        47.500    20898755.891 7  86859535.538 7        45.800
R10  19287674.258 7 102814139.662 7        44.700    19287671.980 7 102814139.664 7        43.700
G06  21358593.328 7 112240156.986 7        44.900    21358612.730 7  87459941.725 7        47.500    21358613.441 7  87459890.722 7        47.200    21358617.188 8  83815728.555 8        50.700
R20  22029195.977 5 117800001.472 5        35.100    22029195.355 5 117799997.450 5        33.700    22029217.441 6  91622231.523 6        37.500
G01  23288401.281 6 122381380.107 6        37.000    23288427.250 3  95362209.996 3        22.000    23288427.598 6  95362133.023 6        39.800    23288430.305 7  91388708.667 7        43.900
C03  36231358.711 7 188666201.224 7        42.700    36231364.879 7 145888691.519 7        45.000
C11  23480999.922 7 122271731.674 7        43.200    23481013.184 7  94548229.528 7        45.100
C04  38987574.063 5 203018591.541 5        34.500    38987586.359 6 156986855.695 6        37.600
C28  24391201.125 6 127011386.583 6        41.100
C05  38398723.016 5 199952262.224 5        35.900    38398734.938 6 154615792.632 6        39.100
C13  36980333.906 7 192566290.922 7        44.300    36980347.484 7 148904460.464 7        43.300
C25  22278493.234 8 116009976.986 8        49.200
C14  25128752.211 5 130851989.644 5        35.900    25128763.402 6 101183114.681 6        39.400
C01  37504313.625 6 195294840.831 6        38.400    37504324.609 6 151014371.888 6        41.300
C06  39690960.773 5 206681227.635 5        33.900    39690970.352 5 159819088.866 5        35.700
C16  39643244.859 5 206432787.652 5        33.700    39643260.563 5 159626979.499 5        33.900
C23  22614276.641 8 117758481.416 8        48.900
C02  36960490.898 6 192463014.141 6        39.700    36960497.066 7 148824607.356 7        44.600
E12  25025089.719 7 131507731.986 7        43.600    25025107.234 7  98203861.730 7        44.500    25025104.184 7 100765687.894 7        45.100    25025106.176 8  99484720.926 8        48.100
E24  28599921.789 6 150293583.370 6        36.000    28599947.410 6 112232224.177 6        37.100    28599942.551 5 115159960.603 5        35.600
E26  26268435.195 6 138041560.013 6        41.700    26268460.426 6 103082911.417 6        41.900    26268456.730 7 105772099.636 7        42.700    26268459.137 7 104427520.144 7        46.100
E01  23982051.766 8 126026530.223 8        49.700    23982069.871 8  94110769.341 8        50.200    23982066.590 8  96565823.887 8        50.600    23982068.645 8  95338229.222 8        53.500
E31  24471670.133 8 128599499.275 8        48.700    24471691.918 8  96032047.561 8        48.600    24471688.535 8  98537235.107 8        49.200    24471690.574 8  97284660.945 8        52.300
E21  27265598.875 6 143281691.508 6        38.500    27265620.637 6 106996004.993 6        39.500    27265617.320 6 109787268.331 6        40.200    27265619.605 7 108391637.781 7        43.700
E33  23655279.820 8 124309333.252 8        48.800    23655297.570 8  92828456.004 8        50.600    23655294.266 8  95250058.600 8        51.100    23655296.277 9  94039175.907 9        54.800
E10  27088564.250 6 142351379.260 6        39.600    27088588.328 6 106301280.845 6        40.900    27088584.484 6 109074410.188 6        41.200    27088586.598 7 107687840.134 7        44.700
S26  38095625.906 6 200193869.482 6        36.900
> 2023  2 14 10 24 21.0000000  0 42       0.000000000000
G30  21987401.625 7 115544593.015 7        44.600    21987420.082 7  90034803.069 7        43.400    21987420.434 7  90034760.068 7        44.700    21987423.477 8  86283320.505 8        48.800
R09  21647982.055 7 115599040.421 7        44.100    21647981.648 7 115599006.423 7        42.900    21647996.059 7  89910353.357 7        43.800    21647993.023 7  86798139.962 7        43.700
R05  24216346.109 5 129450359.487 5        33.200    24216345.254 5 129450231.513 5        32.300    24216373.789 5 100683511.683 5        32.600
G19  22410041.805 7 117765572.445 7        42.200    22410062.695 5  91765452.118 5        31.200
G11  24866660.648 5 130675186.046 5        33.700    24866681.492 2 101824904.952 2        16.900    24866681.715 5 101824846.965 5        35.700    24866689.402 6  97582120.850 6        39.100
G14  20353631.891 7 106959062.803 7        47.500    20353647.758 6  83344780.983 6        41.100    20353648.145 8  83344749.981 8        52.100    20353655.008 9  79872044.054 9        54.500
G03  22440138.367 6 117923711.719 6        40.500    22440161.668 5  91888698.297 5        33.600    22440162.086 7  91888642.308 7        43.500    22440166.855 7  88059934.660 7        47.200
J02  37108595.281 7 195006976.945 7        43.600    37108595.500 8 195006982.950 8        48.000    37108592.199 7 195007015.088 7        44.500    37108614.254 8 151953524.250 8        48.900    37108618.598 8 145622119.574 8        50.000
J07  36742971.906 6 193085628.515 6        38.000    36742971.223 7 193085586.505 7        42.600    36742966.121 7 193085646.122 7        45.400    36742988.383 8 150456360.363 8        48.300    36742993.410 8 144187339.773 8        51.100
J03  40062410.656 7 210529384.243 7        44.600    40062410.492 7 210529485.263 7        47.900    40062407.035 7 210529416.715 7        45.400    40062429.992 7 164048932.113 7        47.200    40062434.676 8 157213552.193 8        48.800
J04  37105636.734 6 194991439.845 6        40.200    37105636.395 7 194991436.861 7        43.800    37105633.961 6 194991465.563 6        40.000    37105655.691 7 151941411.687 7        42.800    37105660.828 7 145610510.285 7        45.600
R21  20551084.703 8 109973000.508 8        50.800    20551083.945 8 109973003.526 8        49.000    20551100.270 7  85534565.954 7        45.900    20551096.988 7  82400241.169 7        47.200
R22  22416640.250 7 119661562.948 7        43.600    22416640.051 6 119661530.927 6        41.400    22416659.074 6  93070100.053 6        40.300
G17  21781288.219 7 114461460.072 7        44.100    21781307.352 7  89190801.637 7        45.100    21781307.539 7  89190762.625 7        44.300
G07  23663654.773 5 124353357.187 5        35.800    23663672.281 4  96898773.421 4        27.900    23663672.531 5  96898741.427 5        33.700
R11  20898152.461 8 111673402.706 8        49.100    20898152.738 7 111673390.710 7        47.600    20898169.656 7  86857097.521 7        45.900
R10  19287845.430 7 102815056.227 7        44.300    19287843.965 7 102815056.209 7        43.500
G06  21358230.406 7 112238247.580 7        44.900    21358249.402 7  87458453.878 7        47.600    21358250.223 7  87458402.882 7        47.300    21358253.828 8  83814302.702 8        50.500
R20  22029750.047 5 117802965.087 5        34.800    22029749.695 5 117802961.168 5        33.800    22029770.930 6  91624536.570 6        37.400
G01  23289066.961 6 122384881.395 6        37.600    23289093.535 3  95364938.265 3        22.000    23289093.895 6  95364861.290 6        39.800    23289096.645 7  91391323.259 7        43.700
C03  36231352.016 7 188666166.654 7        42.900    36231358.336 7 145888664.787 7        44.700
C11  23481315.742 7 122273376.862 7        43.400    23481329.375 7  94549501.688 7        44.900
C04  38987570.719 5 203018574.747 5        34.600    38987582.965 6 156986842.704 6        37.500
C28  24390977.477 6 127010222.298 6        40.800
C05  38398718.289 5 199952237.055 5        35.700    38398730.379 6 154615773.167 6        39.500
C13  36980119.609 7 192565172.890 7        44.300    36980132.977 7 148903595.933 7        43.200
C25  22278862.719 8 116011900.959 8        49.500
C14  25128352.609 5 130849909.586 5        35.700    25128364.027 6 101181506.252 6        39.500
C01  37504307.766 6 195294809.413 6        38.800    37504318.477 6 151014347.596 6        41.300
C06  39691235.656 5 206682658.623 5        34.200    39691245.211 5 159820195.387 5        35.000
C16  39643512.070 5 206434180.710 5        34.000    39643527.906 5 159628056.701 5        34.200
C23  22614093.953 8 117757529.558 8        49.300
C02  36960487.945 6 192462998.621 6        39.600    36960494.188 7 148824595.350 7        44.100
E12  25024816.789 7 131506298.449 7        43.400    25024834.438 7  98202791.239 7        44.100    25024831.469 7 100764589.462 7        45.100    25024833.375 8  99483636.468 8        48.000
E24  28599425.570 5 150290976.642 5        35.800    28599451.703 6 112230277.593 6        37.100    28599446.832 6 115157963.186 6        36.300
E26  26268905.656 6 138044030.540 6        41.900    26268930.656 6 103084756.309 6        41.700    26268926.809 7 105773992.646 7        42.800    26268929.273 7 104429389.088 7        46.000
E01  23982185.977 8 126027236.522 8        50.100    23982204.305 8  94111296.760 8        50.200    23982201.117 8  96566365.083 8        50.800    23982203.047 8  95338763.529 8        53.700
E31  24471328.859 8 128597706.506 8        48.400    24471350.754 8  96030708.811 8        48.600    24471347.383 8  98535861.439 8        49.300    24471349.418 8  97283304.730 8        52.400
E21  27266028.438 6 143283951.119 6        38.000    27266050.527 6 106997692.351 6        39.600    27266047.496 6 109788999.723 6        40.200    27266049.598 7 108393347.148 7        43.900
E33  23655464.141 8 124310301.753 8        48.600    23655481.836 8  92829179.233 8        50.500    23655478.512 8  95250800.702 8        51.200    23655480.566 9  94039908.577 9        54.400
E10  27088156.555 6 142349234.708 6        39.700    27088180.199 6 106299679.414 6        40.900    27088176.484 6 109072767.003 6        41.300    27088178.535 7 107686217.802 7        44.900
S26  38095612.828 6 200193816.941 6        36.500
> 2023  2 14 10 24 22.0000000  0 42       0.000000000000
G30  21987879.023 7 115547100.012 7        44.400    21987897.098 7  90036756.572 7        43.400    21987897.641 7  90036713.564 7        44.800    21987900.578 8  86285192.605 8        49.000
R09  21648687.930 7 115602808.405 7        44.000    21648687.258 7 115602774.413 7        42.300    21648701.926 7  89913284.029 7        43.600    21648698.773 7  86800969.206 7        43.700
R05  24216044.070 5 129448739.411 5        33.300    24216042.004 5 129448611.405 5        31.800    24216070.168 5 100682251.593 5        32.600
G19  22409834.398 7 117764480.676 7        42.300    22409854.930 5  91764601.392 5        30.400
G11  24866050.641 5 130671983.871 5        33.900    24866072.102 2 101822409.760 2        16.900    24866072.727 5 101822351.742 5        35.400    24866080.070 6  97579729.610 6        39.500
G14  20353506.672 8 106958405.410 8        48.100    20353522.586 6  83344268.735 6        41.100    20353522.980 8  83344237.740 8        52.200    20353529.906 9  79871553.152 9        54.500
G03  22440140.695 6 117923723.035 6        40.700    22440163.816 5  91888707.111 5        33.700    22440164.289 7  91888651.126 7        43.600    22440168.945 7  88059943.113 7        47.300
J02  37108404.594 7 195005974.707 7        43.700    37108404.785 8 195005980.701 8        48.000    37108401.207 7 195006012.851 7        44.800    37108423.500 8 151952743.281 8        48.400    37108427.762 8 145621371.141 8        49.800
J07  36742971.781 6 193085632.916 6        38.100    36742972.188 7 193085590.932 7        42.500    36742966.480 7 193085650.527 7        45.300    36742989.293 7 150456363.823 7        47.900    36742994.254 8 144187343.100 8        50.800
J03  40062482.219 7 210529761.168 7        44.700    40062482.133 8 210529862.168 8        48.100    40062478.324 7 210529793.633 7        45.400    40062501.563 7 164049225.828 7        47.200    40062506.441 8 157213833.654 8        48.800
J04  37105680.250 6 194991667.900 6        39.800    37105680.020 7 194991664.921 7        43.700    37105677.520 6 194991693.625 6        40.300    37105698.945 7 151941589.414 7        42.300    37105704.227 7 145610680.604 7        45.800
R21  20551153.430 8 109973369.566 8        50.400    20551152.766 8 109973372.576 8        48.900    20551170.043 7  85534852.998 7        46.100    20551165.906 7  82400517.691 7        47.500
R22  22416286.289 7 119659667.977 7        43.300    22416285.254 6 119659635.985 6        41.600    22416303.863 6  93068626.191 6        40.100
G17  21781302.859 7 114461536.926 7        43.700    21781321.938 7  89190861.520 7        45.000    21781322.352 7  89190822.520 7        44.000
G07  23664312.227 5 124356814.599 5        35.700    23664330.164 4  96901467.517 4        28.100    23664330.859 5  96901435.517 5        34.100
R11  20897566.266 8 111670268.667 8        49.100    20897566.262 7 111670256.671 7        47.300    20897582.641 7  86854659.948 7        46.100
R10  19288017.469 7 102815973.621 7        44.800    19288016.285 7 102815973.625 7        43.700
G06  21357866.867 7 112236338.683 7        44.800    21357886.070 7  87456966.423 7        47.500    21357887.086 7  87456915.434 7        47.400    21357890.508 8  83812877.228 8        50.500
R20  22030303.992 5 117805928.731 5        33.800    22030303.688 5 117805924.718 5        33.900    22030325.426 6  91626841.596 6        37.300
G01  23289733.680 6 122388382.807 6        37.100    23289759.957 3  95367666.627 3        21.800    23289759.992 6  95367589.652 6        40.000    23289763.023 7  91393937.957 7        43.700
C03  36231345.102 7 188666132.089 7        42.900    36231351.520 7 145888638.063 7        44.900
C11  23481631.930 7 122275022.049 7        43.500    23481645.352 7  94550773.853 7        45.000
C04  38987567.516 5 203018557.947 5        34.800    38987579.852 6 156986829.712 6        37.700
C28  24390754.148 6 127009058.237 6        41.000
C05  38398713.383 5 199952211.874 5        35.900    38398725.547 6 154615753.706 6        39.300
C13  36979904.711 7 192564055.030 7        44.200    36979918.324 7 148902731.534 7        43.200
C25  22279232.281 8 116013825.339 8        49.500
C14  25127952.766 5 130847829.585 5        35.300    25127964.508 6 101179897.868 6        39.100
C01  37504301.508 6 195294778.031 6        38.900    37504312.340 6 151014323.329 6        41.800
C06  39691510.453 5 206684089.573 5        34.300    39691519.965 5 159821301.886 5        34.700
C16  39643778.930 5 206435573.697 5        33.600    39643795.836 5 159629133.841 5        34.300
C23  22613911.234 8 117756578.210 8        49.500
C02  36960484.938 6 192462983.098 6        39.500    36960491.227 7 148824583.355 7        44.200
E12  25024543.766 7 131504865.263 7        43.400    25024561.555 7  98201721.004 7        44.400    25024558.754 7 100763491.296 7        44.800    25024560.625 7  99482552.267 7        47.800
E24  28598928.961 5 150288369.809 5        35.700    28598955.930 6 112228330.947 6        37.100    28598951.422 6 115155965.755 6        36.300
E26  26269375.859 7 138046501.096 7        42.000    26269400.711 6 103086601.196 6        41.900    26269397.105 7 105775885.682 7        42.700    26269399.414 7 104431258.051 7        46.300
E01  23982320.727 8 126027943.185 8        49.700    23982338.777 8  94111824.483 8        50.200    23982335.492 8  96566906.556 8        50.700    23982337.516 8  95339298.129 8        53.900
E31  24470987.867 8 128595913.939 8        48.600    24471009.637 8  96029370.215 8        48.500    24471006.289 8  98534487.918 8        49.300    24471008.305 8  97281948.674 8        52.100
E21  27266459.031 6 143286210.948 6        37.900    27266480.617 6 106999379.908 6        39.600    27266477.668 6 109790731.283 6        40.400    27266479.605 7 108395056.706 7        43.600
E33  23655648.250 8 124311270.565 8        48.900    23655666.313 8  92829902.697 8        50.700    23655662.836 8  95251543.036 8        51.300    23655664.930 9  94040641.482 9        54.400
E10  27087747.898 6 142347090.447 6        39.100    27087772.184 6 106298078.173 6        41.300    27087768.309 6 109071123.964 6        41.300    27087770.508 7 107684595.685 7        44.800
S26  38095602.141 5 200193764.501 5        35.800
> 2023  2 14 10 24 23.0000000  0 42       0.000000000000
G30  21988355.469 7 115549607.278 7        44.200    21988374.215 7  90038710.286 7        43.600    21988374.883 7  90038667.270 7        44.700    21988377.656 8  86287064.908 8        48.600
R09  21649393.484 7 115606576.781 7        44.300    21649392.918 7 115606542.787 7        42.400    21649408.074 7  89916214.969 7        43.900    21649404.434 7  86803798.691 7        43.200
R05  24215740.367 5 129447119.642 5        33.300    24215739.641 5 129446991.618 5        31.700    24215764.813 5 100680991.785 5        32.500
G19  22409625.938 6 117763388.917 6        41.700    22409647.297 5  91763750.682 5        30.300
G11  24865440.602 5 130668781.779 5        33.400    24865462.672 2 101819914.615 2        16.300    24865463.379 5 101819856.630 5        35.200    24865470.965 6  97577338.476 6        39.800
G14  20353381.609 8 106957748.469 8        48.100    20353397.652 6  83343756.831 6        41.300    20353397.988 8  83343725.827 8        52.200    20353404.922 9  79871062.572 9        54.500
G03  22440142.148 6 117923734.950 6        40.400    22440166.004 5  91888716.399 5        33.600    22440166.285 7  91888660.389 7        43.800    22440171.355 7  88059952.002 7        47.100
J02  37108214.000 7 195004972.509 7        43.300    37108214.063 8 195004978.507 8        48.000    37108210.824 7 195005010.654 7        44.500    37108232.852 8 151951962.359 8        48.400    37108237.117 8 145620622.770 8        49.700
J07  36742973.672 6 193085637.364 6        38.300    36742973.031 7 193085595.373 7        42.500    36742967.148 7 193085654.978 7        45.300    36742990.188 8 150456367.264 8        48.200    36742995.066 8 144187346.395 8        50.900
J03  40062554.063 7 210530137.971 7        44.300    40062553.898 7 210530238.964 7        47.900    40062550.039 7 210530170.436 7        45.500    40062573.305 7 164049519.437 7        47.100    40062578.059 8 157214115.041 8        48.500
J04  37105723.391 6 194991895.975 6        40.200    37105723.551 7 194991892.981 7        43.700    37105720.973 6 194991921.708 6        40.700    37105742.008 7 151941767.127 7        42.600    37105747.617 7 145610850.920 7        45.600
R21  20551222.359 8 109973738.978 8        50.400    20551221.906 8 109973741.981 8        48.900    20551238.434 7  85535140.312 7        46.400    20551235.016 7  82400794.490 7        47.000
R22  22415930.422 7 119657773.429 7        43.100    22415930.254 6 119657741.429 6        41.300    22415948.957 6  93067152.633 6        39.900
G17  21781317.336 7 114461613.709 7        43.700    21781336.676 7  89190921.354 7        44.900    21781336.867 7  89190882.351 7        43.600
G07  23664970.531 5 124360271.941 5        34.900    23664988.102 4  96904161.556 4        28.300    23664988.406 5  96904129.559 5        34.300
R11  20896979.641 8 111667135.111 8        48.800    20896979.762 7 111667123.113 7        47.600    20896996.066 7  86852222.749 7        46.200
R10  19288189.477 7 102816891.859 7        45.000    19288188.430 7 102816891.855 7        43.800
G06  21357503.773 7 112234430.237 7        44.900    21357523.020 7  87455479.333 7        47.300    21357523.664 7  87455428.330 7        47.100    21357527.465 8  83811452.098 8        50.700
R20  22030859.563 5 117808892.255 5        34.500    22030857.750 5 117808888.250 5        33.700    22030879.574 6  91629146.550 6        36.800
G01  23290400.375 6 122391884.257 6        37.600    23290426.301 3  95370395.020 3        21.700    23290426.105 6  95370318.039 6        40.200    23290429.441 7  91396552.667 7        43.700
C03  36231338.688 7 188666097.503 7        42.800    36231344.727 7 145888611.324 7        45.100
C11  23481947.563 7 122276667.176 7        43.100    23481961.141 7  94552045.967 7        44.900
C04  38987564.695 5 203018541.143 5        34.900    38987576.844 6 156986816.720 6        37.500
C28  24390530.617 6 127007894.327 6        41.300
C05  38398708.414 6 199952186.727 6        36.100    38398720.719 6 154615734.256 6        39.300
C13  36979690.180 7 192562937.241 7        44.500    36979703.535 7 148901867.189 7        42.600
C25  22279601.813 8 116015750.125 8        49.500
C14  25127553.352 5 130845749.462 5        35.500    25127565.035 6 101178289.380 6        39.500
C01  37504295.305 6 195294746.613 6        39.000    37504306.266 6 151014299.042 6        41.400
C06  39691785.266 5 206685520.383 5        34.400    39691794.684 5 159822408.285 5        35.100
C16  39644047.289 5 206436966.470 5        33.800    39644063.387 5 159630210.817 5        34.200
C23  22613728.367 8 117755627.343 8        49.300
C02  36960482.273 6 192462967.561 6        39.700    36960488.191 7 148824571.340 7        44.300
E12  25024271.023 7 131503432.354 7        43.600    25024289.000 7  98200650.972 7        44.400    25024286.047 7 100762393.360 7        44.700    25024287.977 7  99481468.277 7        47.700
E24  28598433.133 5 150285762.961 5        35.800    28598459.922 6 112226384.229 6        37.000    28598455.488 6 115153968.259 6        36.300
E26  26269845.813 6 138048971.678 6        41.600    26269870.992 6 103088446.094 6        41.800    26269867.160 7 105777778.713 7        43.000    26269869.551 7 104433127.014 7        46.000
E01  23982455.211 8 126028650.192 8        49.800    23982473.242 8  94112352.430 8        50.500    23982470.012 8  96567448.281 8        50.800    23982472.063 9  95339832.970 9        54.000
E31  24470646.953 8 128594121.543 8        48.700    24470668.418 8  96028031.735 8        48.300    24470665.234 8  98533114.533 8        48.900    24470667.211 8  97280592.741 8        51.900
E21  27266889.164 6 143288470.975 6        38.100    27266910.836 6 107001067.586 6        40.100    27266907.754 6 109792463.015 6        40.600    27266909.676 7 108396766.408 7        43.800
E33  23655832.773 8 124312239.634 8        48.600    23655850.641 8  92830626.356 8        50.600    23655847.227 8  95252285.572 8        51.400    23655849.328 9  94041374.573 9        54.500
E10  27087339.461 6 142344946.355 6        38.900    27087364.055 6 106296477.069 6        41.200    27087360.504 6 109069481.098 6        41.200    27087362.488 7 107682973.704 7        44.900
S26  38095593.219 5 200193711.977 5        35.900
> 2023  2 14 10 24 24.0000000  0 42       0.000000000000
G30  21988833.039 7 115552114.870 7        44.100    21988851.457 7  90040664.252 7        43.600    21988851.887 7  90040621.237 7        44.700    21988854.871 8  86288937.462 8        48.700
R09  21650099.758 7 115610345.584 7        44.600    21650098.457 7 115610311.583 7        42.900    21650112.840 7  89919146.266 7        43.800    21650110.180 7  86806628.511 7        43.400
R05  24215436.656 5 129445500.257 5        33.600    24215436.160 5 129445372.230 5        32.000    24215461.992 5 100679732.232 5        32.400
G19  22409418.781 6 117762297.262 6        41.800    22409439.551 5  91762900.045 5        30.500
G11  24864831.828 5 130665579.937 5        33.400    24864853.418 2 101817419.729 2        17.400    24864854.148 5 101817361.714 5        35.800    24864861.992 6  97574947.505 6        39.800
G14  20353256.641 7 106957092.001 7        47.600    20353272.785 6  83343245.305 6        41.200    20353273.047 8  83343214.309 8        52.200    20353279.980 9  79870572.363 9        54.400
G03  22440144.969 6 117923747.462 6        40.600    22440168.387 5  91888726.145 5        34.100    22440168.836 7  91888670.145 7        43.200    22440173.680 7  88059961.345 7        47.100
J02  37108023.188 7 195003970.427 7        43.400    37108023.457 8 195003976.428 8        48.000    37108020.242 7 195004008.571 7        44.400    37108041.895 7 151951181.517 7        47.800    37108046.453 8 145619874.458 8        49.600
J07  36742973.828 6 193085641.807 6        38.100    36742973.930 7 193085599.792 7        42.600    36742968.352 7 193085659.413 7        45.300    36742990.863 8 150456370.733 8        48.400    36742995.961 8 144187349.710 8        50.700
J03  40062625.516 7 210530514.700 7        44.200    40062625.633 8 210530615.691 8        48.000    40062621.809 7 210530547.171 7        45.800    40062644.879 7 164049813.003 7        47.200    40062649.688 8 157214396.365 8        48.300
J04  37105766.750 6 194992124.112 6        40.400    37105766.695 7 194992121.113 7        43.600    37105764.215 6 194992149.837 6        40.800    37105785.594 7 151941944.897 7        42.500    37105790.977 7 145611021.265 7        45.800
R21  20551290.906 8 109974108.835 8        50.500    20551290.980 8 109974111.852 8        49.100    20551308.121 7  85535427.989 7        46.400    20551304.168 7  82401071.601 7        47.300
R22  22415576.102 7 119655879.343 7        43.000    22415575.355 6 119655847.340 6        41.400    22415592.891 6  93065679.473 6        39.900
G17  21781332.125 7 114461690.492 7        44.000    21781351.281 7  89190981.192 7        44.900    21781351.301 7  89190942.194 7        43.800
G07  23665628.258 5 124363729.292 5        35.200    23665646.047 4  96906855.585 4        26.400    23665646.188 5  96906823.588 5        34.300
R11  20896393.523 8 111664002.078 8        48.800    20896393.469 7 111663990.074 7        47.800    20896410.082 7  86849785.958 7        46.000
R10  19288362.063 7 102817810.921 7        44.900    19288360.684 7 102817810.937 7        43.600
G06  21357140.750 7 112232522.302 7        44.900    21357159.969 7  87453992.629 7        47.400    21357160.484 7  87453941.634 7        47.300    21357164.359 8  83810027.354 8        50.900
R20  22031412.195 5 117811855.769 5        35.200    22031411.887 5 117811851.793 5        33.600    22031433.992 6  91631451.501 6        36.700
G01  23291066.117 6 122395385.818 6        37.100    23291092.645 3  95373123.534 3        21.700    23291092.820 6  95373046.556 6        40.000    23291095.770 7  91399167.489 7        43.700
C03  36231331.938 7 188666062.918 7        42.900    36231338.113 7 145888584.579 7        45.100
C11  23482263.688 7 122278312.322 7        43.100    23482276.930 7  94553318.098 7        45.200
C04  38987560.945 5 203018524.406 5        34.300    38987573.555 6 156986803.780 6        37.800
C28  24390307.094 6 127006730.631 6        40.900
C05  38398703.555 6 199952161.501 6        36.000    38398716.016 6 154615714.751 6        39.600
C13  36979475.633 7 192561819.637 7        44.300    36979488.926 7 148901002.992 7        42.600
C25  22279971.609 8 116017675.338 8        49.700
C14  25127153.844 5 130843669.328 5        35.500    25127165.672 6 101176680.888 6        39.400
C01  37504289.570 6 195294715.238 6        38.800    37504300.309 6 151014274.783 6        41.600
C06  39692059.672 5 206686951.133 5        34.300    39692069.430 5 159823514.635 5        35.200
C16  39644314.773 5 206438359.275 5        33.900    39644330.680 5 159631287.820 5        34.000
C23  22613546.109 8 117754676.999 8        49.500
C02  36960479.555 6 192462952.043 6        39.700    36960485.172 7 148824559.344 7        44.500
E12  25023998.570 7 131501999.811 7        43.600    25024016.398 7  98199581.223 7        44.200    25024013.402 7 100761295.702 7        45.100    25024015.348 7  99480384.572 7        47.700
E24  28597937.000 5 150283156.003 5        34.700    28597963.813 6 112224437.474 6        37.000    28597959.484 6 115151970.745 6        36.600
E26  26270315.852 6 138051442.303 6        41.900    26270341.172 6 103090291.012 6        41.900    26270337.250 7 105779671.765 7        43.000    26270339.680 7 104434995.998 7        45.900
E01  23982589.758 8 126029357.574 8        50.000    23982607.945 8  94112880.674 8        50.800    23982604.648 8  96567990.301 8        50.500    23982606.672 8  95340368.102 8        53.800
E31  24470305.672 8 128592329.353 8        48.600    24470327.391 8  96026693.430 8        48.300    24470324.102 8  98531741.314 8        48.800    24470326.160 8  97279236.981 8        52.200
E21  27267319.273 6 143290731.237 6        38.400    27267340.879 6 107002755.449 6        39.800    27267337.648 6 109794194.927 6        40.700    27267339.781 7 108398476.280 7        44.400
E33  23656017.297 8 124313209.021 8        48.800    23656035.043 8  92831350.248 8        50.700    23656031.832 8  95253028.348 8        51.500    23656033.805 9  94042107.910 9        54.700
E10  27086931.656 6 142342802.595 6        39.100    27086956.047 6 106294876.181 6        40.700    27086952.578 6 109067838.454 6        41.400    27086954.535 7 107681351.931 7        44.600
S26  38095574.875 5 200193659.446 5        35.800
> 2023  2 14 10 24 25.0000000  0 42       0.000000000000
G30  21989310.461 7 115554622.747 7        44.200    21989328.648 7  90042618.440 7        43.200    21989329.602 7  90042575.445 7        45.000    21989332.074 8  86290810.245 8        49.100
R09  21650805.094 7 115614114.816 7        44.500    21650804.719 7 115614080.822 7        43.000    21650818.773 7  89922077.895 7        43.800    21650816.055 7  86809458.671 7        43.200
R05  24215134.266 5 129443881.192 5        33.000    24215132.879 5 129443753.218 5        31.800    24215160.156 5 100678473.014 5        33.400
G19  22409211.047 6 117761205.630 6        41.700    22409231.727 5  91762049.424 5        30.900
G11  24864222.055 5 130662378.295 5        33.500    24864244.254 2 101814924.868 2        17.400    24864244.949 6 101814866.940 6        36.000    24864253.277 6  97572556.663 6        39.900
G14  20353131.914 7 106956435.985 7        47.500    20353147.957 6  83342734.126 6        41.300    20353148.152 8  83342703.130 8        52.300    20353155.180 9  79870082.487 9        54.500
G03  22440147.156 6 117923760.565 6        40.300    22440170.973 5  91888736.358 5        33.600    22440171.652 7  91888680.377 7        43.000    22440176.191 7  88059971.117 7        47.300
J02  37107832.313 7 195002968.417 7        43.400    37107832.699 7 195002974.401 7        47.900    37107829.484 7 195003006.562 7        44.500    37107851.723 7 151950400.725 7        47.700    37107855.695 8 145619126.196 8        49.400
J07  36742974.750 6 193085646.239 6        37.900    36742974.738 7 193085604.230 7        42.500    36742969.098 7 193085663.842 7        45.400    36742991.965 8 150456374.169 8        48.500    36742996.691 8 144187353.009 8        50.800
J03  40062697.094 7 210530891.330 7        44.300    40062697.367 8 210530992.333 8        48.100    40062693.133 7 210530923.795 7        46.100    40062716.758 7 164050106.478 7        47.300    40062721.426 8 157214677.616 8        48.600
J04  37105810.406 6 194992352.243 6        40.600    37105810.109 7 194992349.235 7        43.600    37105807.656 6 194992377.967 6        40.600    37105829.523 7 151942122.647 7        42.400    37105834.398 7 145611191.624 7        45.800
R21  20551360.773 8 109974479.104 8        50.300    20551360.254 8 109974482.106 8        49.100    20551377.090 7  85535715.967 7        46.700    20551373.293 7  82401349.051 7        47.000
R22  22415221.008 7 119653985.680 7        42.700    22415220.453 6 119653953.660 6        41.300    22415238.641 6  93064206.620 6        40.000
G17  21781346.773 7 114461767.238 7        43.900    21781365.848 7  89191040.994 7        44.900    21781366.211 7  89191001.998 7        44.100
G07  23666286.156 5 124367186.597 5        35.200    23666303.938 4  96909549.587 4        27.400    23666303.883 5  96909517.577 5        34.300
R11  20895806.516 8 111660869.578 8        48.700    20895807.461 8 111660857.574 8        48.100    20895824.449 7  86847349.593 7        46.000
R10  19288534.383 7 102818730.828 7        44.900    19288533.160 7 102818730.846 7        43.400
G06  21356776.914 7 112230614.861 7        44.700    21356796.898 7  87452506.310 7        47.400    21356797.633 7  87452455.313 7        47.000    21356801.336 8  83808602.958 8        50.800
R20  22031966.797 5 117814819.209 5        35.000    22031966.188 5 117814815.203 5        33.700    22031987.168 6  91633756.412 6        36.900
G01  23291732.375 6 122398887.452 6        37.500    23291759.012 3  95375852.090 3        21.500    23291758.754 6  95375775.085 6        39.800    23291762.199 7  91401782.333 7        43.400
C03  36231325.289 7 188666028.343 7        42.900    36231331.410 7 145888557.840 7        44.900
C11  23482579.578 7 122279957.440 7        42.900    23482592.926 7  94554590.205 7        45.100
C04  38987558.078 5 203018507.58815        34.000    38987570.164 6 156986790.78416        37.700
C28  24390083.656 6 127005567.120 6        41.000
C05  38398698.898 5 199952136.311 5        35.800    38398711.090 6 154615695.274 6        39.500
C13  36979260.695 7 192560702.154 7        44.800    36979274.258 7 148900138.892 7        42.800
C25  22280341.430 8 116019600.940 8        49.300
C14  25126754.578 5 130841589.124 5        35.400    25126766.129 6 101175072.355 6        39.200
C01  37504283.719 6 195294683.819 6        38.800    37504294.426 6 151014250.486 6        40.900
C06  39692334.344 5 206688381.735 5        33.800    39692344.309 5 159824620.869 5        34.700
C16  39644582.023 5 206439751.895 5        33.700    39644598.164 5 159632364.683 5        33.500
C23  22613363.570 8 117753727.142 8        49.500
C02  36960476.156 6 192462936.489 6        39.500    36960482.289 7 148824547.318 7        44.500
E12  25023726.133 7 131500567.583 7        43.800    25023743.871 7  98198511.701 7        44.600    25023740.938 7 100760198.287 7        45.200    25023742.801 8  99479301.103 8        48.100
E24  28597440.945 5 150280549.030 5        34.600    28597467.547 6 112222490.697 6        36.900    28597463.434 6 115149973.142 6        36.300
E26  26270786.305 7 138053912.936 7        42.100    26270811.340 6 103092135.957 6        41.800    26270807.418 7 105781564.825 7        43.300    26270809.852 7 104436865.009 7        46.000
E01  23982724.500 8 126030065.285 8        49.700    23982742.566 8  94113409.170 8        50.900    23982739.320 8  96568532.594 8        50.500    23982741.344 9  95340903.489 9        54.200
E31  24469964.570 8 128590537.346 8        48.600    24469986.504 8  96025355.250 8        48.100    24469983.066 8  98530368.215 8        49.000    24469985.152 8  97277881.349 8        52.100
E21  27267749.055 6 143292991.711 6        38.100    27267771.023 6 107004443.466 6        39.900    27267768.008 6 109795926.953 6        40.500    27267769.934 7 108400186.314 7        44.200
E33  23656201.875 8 124314178.682 8        48.600    23656219.586 8  92832074.339 8        50.900    23656216.297 8  95253771.328 8        51.200    23656218.324 9  94042841.448 9        54.800
E10  27086524.109 6 142340659.011 6        38.900    27086548.238 6 106293275.468 6        40.700    27086544.535 6 109066195.988 6        41.200    27086546.621 7 107679730.349 7        44.900
S26  38095568.156 6 200193606.929 6        36.300
> 2023  2 14 10 24 26.0000000  0 42       0.000000000000
G30  21989787.609 7 115557130.963 7        44.500    21989806.090 7  90044572.893 7        43.500    21989806.789 7  90044529.884 7        44.800    21989809.441 8  86292683.238 8        49.100
R09  21651510.820 7 115617884.469 7        44.300    21651510.316 7 115617850.451 7        42.700    21651524.426 7  89925009.847 7        43.700    21651521.969 7  86812289.121 7        43.200
R05  24214831.203 5 129442262.536 5        33.400    24214830.262 5 129442134.601 5        32.100    24214859.098 5 100677213.999 5        33.900
G19  22409003.461 6 117760114.063 6        41.700    22409024.004 5  91761198.870 5        30.400
G11  24863613.961 5 130659176.809 5        32.600    24863635.090 3 101812430.270 3        18.300    24863635.945 6 101812372.294 6        36.000    24863644.285 6  97570165.971 6        40.200
G14  20353007.023 7 106955780.436 7        47.300    20353023.059 6  83342223.313 6        41.400    20353023.430 8  83342192.302 8        52.300    20353030.395 9  79869592.954 9        54.600
G03  22440150.375 6 117923774.283 6        40.500    22440173.402 5  91888747.046 5        33.900    22440174.492 7  91888691.040 7        43.200    22440178.820 7  88059981.365 7        47.400
J02  37107642.344 7 195001966.475 7        43.500    37107642.039 8 195001972.472 8        48.000    37107638.770 7 195002004.618 7        44.900    37107660.703 7 151949619.986 7        47.600    37107665.055 8 145618377.996 8        49.700
J07  36742975.797 6 193085650.639 6        38.000    36742975.699 7 193085608.653 7        42.400    36742969.867 7 193085668.243 7        45.400    36742992.840 8 150456377.624 8        48.600    36742997.609 8 144187356.325 8        50.900
J03  40062768.641 7 210531267.881 7        44.500    40062768.805 8 210531368.887 8        48.000    40062765.355 7 210531300.345 7        45.800    40062788.305 7 164050399.890 7        47.500    40062793.043 8 157214958.801 8        48.500
J04  37105853.406 6 194992580.412 6        40.200    37105853.641 7 194992577.408 7        43.600    37105850.969 6 194992606.136 6        40.900    37105872.559 7 151942300.438 7        42.700    37105877.855 7 145611362.001 7        45.800
R21  20551430.281 8 109974849.781 8        50.000    20551429.438 8 109974852.791 8        49.000    20551445.703 7  85536004.267 7        46.700    20551442.504 7  82401626.793 7        47.000
R22  22414865.234 7 119652092.470 7        42.500    22414865.719 6 119652060.478 6        41.600    22414884.215 6  93062734.102 6        40.500
G17  21781361.422 7 114461843.953 7        43.900    21781380.605 7  89191100.776 7        44.700    21781380.375 7  89191061.779 7        44.000
G07  23666944.125 5 124370643.889 5        35.300    23666961.703 4  96912243.569 4        27.000    23666961.957 5  96912211.584 5        34.600
R11  20895221.234 8 111657737.584 8        48.400    20895221.180 8 111657725.609 8        48.000    20895237.340 7  86844913.611 7        46.100
R10  19288707.453 7 102819651.592 7        44.800    19288706.004 7 102819651.588 7        43.400
G06  21356414.984 7 112228707.897 7        45.000    21356434.070 7  87451020.370 7        47.400    21356434.754 7  87450969.367 7        47.100    21356438.426 8  83807178.928 8        50.200
R20  22032521.805 5 117817782.586 5        34.600    22032520.613 5 117817778.610 5        33.700    22032541.793 6  91636061.280 6        36.500
G01  23292398.820 6 122402389.209 6        38.000    23292425.449 3  95378580.724 3        21.100    23292425.484 6  95378503.727 6        39.600    23292428.523 7  91404397.277 7        43.400
C03  36231318.625 7 188665993.754 7        43.000    36231324.891 7 145888531.098 7        44.900
C11  23482895.523 7 122281602.528 7        43.300    23482908.668 7  94555862.293 7        45.000
C04  38987555.273 5 203018490.799 5        34.200    38987566.988 6 156986777.803 6        38.100
C28  24389860.438 6 127004403.804 6        41.600
C05  38398693.477 5 199952111.148 5        35.900    38398706.246 6 154615675.825 6        39.200
C13  36979046.531 7 192559584.833 7        44.700    36979059.703 7 148899274.907 7        42.700
C25  22280711.219 8 116021526.982 8        48.800
C14  25126355.211 5 130839508.881 5        35.900    25126366.660 6 101173463.780 6        39.900
C01  37504277.500 6 195294652.420 6        38.600    37504288.219 6 151014226.212 6        41.700
C06  39692609.156 5 206689812.315 5        33.800    39692618.953 5 159825727.079 5        35.100
C16  39644850.125 5 206441144.437 5        33.800    39644865.734 5 159633441.488 5        33.700
C23  22613181.297 8 117752777.791 8        49.500
C02  36960472.844 6 192462920.950 6        39.600    36960479.148 7 148824535.299 7        44.100
E12  25023453.391 7 131499135.671 7        43.600    25023471.410 7  98197442.427 7        44.800    25023468.449 7 100759101.129 7        45.600    25023470.328 8  99478217.882 8        48.300
E24  28596944.359 5 150277941.923 5        34.600    28596971.504 6 112220543.810 6        36.700    28596967.230 6 115147975.531 6        36.400
E26  26271256.227 7 138056383.541 7        42.100    26271281.422 7 103093980.928 7        42.000    26271277.566 7 105783457.897 7        43.300    26271279.969 7 104438734.025 7        45.900
E01  23982859.219 8 126030773.374 8        49.800    23982877.301 8  94113937.934 8        50.600    23982874.094 8  96569075.148 8        50.900    23982876.082 9  95341439.152 9        54.200
E31  24469623.719 8 128588745.527 8        48.500    24469645.313 8  96024017.222 8        48.200    24469642.219 8  98528995.288 8        49.000    24469644.168 8  97276525.861 8        52.100
E21  27268179.039 6 143295252.408 6        38.100    27268201.223 6 107006131.670 6        39.700    27268198.043 6 109797659.174 6        40.400    27268200.113 7 108401896.541 7        43.900
E33  23656386.492 8 124315148.635 8        48.500    23656404.098 8  92832798.667 8        50.600    23656400.863 8  95254514.546 8        51.300    23656402.914 9  94043575.218 9        54.600
E10  27086116.570 6 142338515.671 6        38.900    27086140.281 6 106291674.972 6        40.500    27086136.563 6 109064553.693 6        41.200    27086138.770 7 107678108.946 7        44.700
S26  38095561.188 5 200193554.450 5        35.600
> 2023  2 14 10 24 27.0000000  0 42       0.000000000000
G30  21990264.703 7 115559639.502 7        44.500    21990283.391 7  90046527.594 7        43.100    21990284.324 7  90046484.592 7        44.600    21990286.781 8  86294556.497 8        48.600
R09  21652216.883 7 115621654.529 7        44.500    21652216.371 7 115621620.538 7        42.500    21652231.094 7  89927942.117 7        43.600    21652228.102 7  86815119.891 7        43.700
R05  24214529.281 5 129440644.275 5        33.500    24214527.766 5 129440516.255 5        32.300    24214556.566 5 100675955.335 5        33.600
G19  22408795.023 6 117759022.588 6        41.500    22408816.355 5  91760348.376 5        30.300
G11  24863004.523 5 130655975.575 5        32.500    24863025.809 2 101809935.785 2        16.300    24863026.738 6 101809877.845 6        36.200    24863035.355 6  97567775.433 6        40.200
G14  20352882.656 7 106955125.379 7        47.300    20352898.527 6  83341712.878 6        41.400    20352898.797 8  83341681.875 8        51.900    20352905.723 9  79869103.792 9        54.700
G03  22440153.203 6 117923788.614 6        40.500    22440176.152 5  91888758.201 5        34.000    22440176.992 7  91888702.211 7        43.000    22440181.539 7  88059992.069 7        47.200
J02  37107451.156 7 195000964.630 7        43.400    37107451.336 8 195000970.644 8        48.000    37107448.199 7 195001002.781 7        44.700    37107470.250 7 151948839.346 7        47.800    37107474.371 8 145617629.880 8        49.700
J07  36742976.875 6 193085655.075 6        38.100    36742976.609 7 193085613.112 7        42.600    36742970.680 7 193085672.679 7        45.400    36742993.418 8 150456381.096 8        48.900    36742998.453 8 144187359.646 8        51.100
J03  40062840.656 7 210531644.363 7        44.200    40062840.477 8 210531745.357 8        48.000    40062836.516 7 210531676.830 7        45.800    40062859.973 7 164050693.262 7        47.400    40062864.773 8 157215239.945 8        48.700
J04  37105897.406 6 194992808.624 6        40.000    37105897.117 7 194992805.634 7        43.400    37105894.703 6 194992834.349 6        41.200    37105915.680 7 151942478.270 7        42.400    37105921.254 7 145611532.426 7        45.900
R21  20551499.367 8 109975220.870 8        50.100    20551498.750 8 109975223.879 8        49.300    20551515.531 7  85536292.910 7        46.800    20551511.816 7  82401904.839 7        47.200
R22  22414512.281 7 119650199.739 7        42.100    22414511.199 6 119650167.739 6        41.400    22414529.691 6  93061261.988 6        40.000
G17  21781376.125 7 114461920.713 7        43.800    21781395.086 7  89191160.586 7        44.700    21781395.375 7  89191121.596 7        43.900
G07  23667601.375 5 124374101.217 5        35.400    23667619.734 4  96914937.603 4        28.400    23667619.590 5  96914905.584 5        34.800
R11  20894634.641 8 111654606.178 8        48.600    20894635.066 7 111654594.182 7        47.800    20894651.484 7  86842478.082 7        45.800
R10  19288880.328 7 102820573.219 7        45.100    19288878.824 7 102820573.215 7        43.500
G06  21356051.734 7 112226801.459 7        44.600    21356071.270 7  87449534.833 7        47.200    21356072.230 7  87449483.822 7        47.200    21356075.672 8  83805755.285 8        50.100
R20  22033075.508 5 117820745.961 5        34.600    22033074.887 5 117820741.986 5        33.600    22033095.301 6  91638366.125 6        36.600
G01  23293065.195 6 122405891.061 6        37.000    23293091.707 3  95381309.422 3        21.700    23293092.137 6  95381232.436 6        39.600    23293094.906 7  91407012.302 7        43.400
C03  36231312.188 7 188665959.212 7        42.800    36231318.098 7 145888504.393 7        44.900
C11  23483211.766 7 122283247.640 7        43.600    23483224.668 7  94557134.398 7        45.100
C04  38987552.211 5 203018473.06715        34.000    38987563.715 6 156986765.00416        36.800
C28  24389636.938 6 127003240.736 6        41.900
C05  38398689.266 6 199952086.000 6        36.100    38398701.355 6 154615656.378 6        39.500
C13  36978831.789 7 192558467.708 7        44.500    36978845.250 7 148898411.074 7        42.800
C25  22281081.281 8 116023453.462 8        49.000
C14  25125955.797 6 130837428.659 6        36.000    25125967.023 6 101171855.222 6        39.500
C01  37504271.625 6 195294621.023 6        38.800    37504282.238 6 151014201.928 6        41.300
C06  39692884.047 5 206691242.768 5        33.900    39692893.824 6 159826833.202 6        36.100
C16  39645117.570 5 206442536.877 5        34.000    39645133.250 5 159634518.208 5        33.800
C23  22612999.195 8 117751828.968 8        50.000
C02  36960470.297 6 192462905.443 6        39.500    36960476.223 7 148824523.301 7        44.300
E12  25023181.000 7 131497704.143 7        43.200    25023198.941 7  98196373.418 7        44.300    25023196.055 7 100758004.233 7        45.400    25023197.914 8  99477134.937 8        48.200
E24  28596448.266 5 150275334.787 5        34.600    28596475.098 6 112218596.945 6        36.700    28596471.438 6 115145977.835 6        36.400
E26  26271726.891 7 138058854.229 7        42.100    26271751.699 7 103095825.901 7        42.400    26271747.672 7 105785351.043 7        42.900    26271750.148 7 104440603.088 7        46.200
E01  23982993.867 8 126031481.844 8        49.800    23983012.145 8  94114466.983 8        50.700    23983008.910 8  96569617.988 8        50.500    23983010.898 8  95341975.103 8        53.900
E31  24469282.805 8 128586953.952 8        48.400    24469304.504 8  96022679.365 8        48.300    24469301.152 8  98527622.520 8        48.800    24469303.234 8  97275170.551 8        51.900
E21  27268609.383 6 143297513.321 6        37.700    27268631.469 6 107007820.030 6        39.700    27268628.359 6 109799391.588 6        40.200    27268630.332 7 108403606.909 7        43.700
E33  23656571.227 8 124316118.921 8        48.500    23656588.754 8  92833523.227 8        50.200    23656585.496 8  95255258.015 8        51.300    23656587.547 9  94044309.233 9        54.200
E10  27085708.422 6 142336372.628 6        39.100    27085732.539 6 106290074.609 6        40.200    27085728.758 6 109062911.635 6        41.300    27085730.961 7 107676487.734 7        43.900
S26  38095544.594 5 200193501.934 5        35.900
> 2023  2 14 10 24 28.0000000  0 42       0.000000000000
G30  21990742.313 7 115562148.271 7        44.600    21990760.762 7  90048482.478 7        43.500    21990761.602 7  90048439.471 7        44.300    21990764.211 8  86296429.935 8        48.800
R09  21652922.289 7 115625424.927 7        44.100    21652922.406 7 115625390.927 7        42.800    21652936.809 7  89930874.651 7        43.500    21652934.121 7  86817950.919 7        43.800
R05  24214226.906 5 129439026.218 5        34.300    24214224.938 5 129438898.227 5        32.000    24214252.719 5 100674696.864 5        33.500
G19  22408587.406 6 117757931.132 6        41.600    22408608.730 5  91759497.894 5        30.300
G11  24862394.883 5 130652774.481 5        33.500    24862416.691 2 101807441.454 2        16.300    24862417.578 6 101807383.456 6        36.500    24862426.355 6  97565385.014 6        40.100
G14  20352757.930 7 106954470.707 7        47.200    20352773.973 6  83341202.747 6        41.400    20352774.176 8  83341171.751 8        51.900    20352781.168 9  79868614.921 9        54.600
G03  22440155.336 6 117923803.482 6        40.800    22440178.973 4  91888769.792 4        28.900    22440179.703 7  91888713.774 7        43.300    22440184.418 7  88060003.162 7        47.000
J02  37107261.203 7 194999962.841 7        43.600    37107260.809 8 194999968.817 8        48.000    37107257.430 7 195000000.986 7        44.600    37107279.660 8 151948058.707 8        48.000    37107283.742 8 145616881.774 8        49.600
J07  36742977.297 6 193085659.467 6        38.300    36742977.180 7 193085617.508 7        42.500    36742971.723 7 193085677.074 7        45.500    36742994.477 8 150456384.517 8        48.400    36742999.270 8 144187362.925 8        50.900
J03  40062911.859 7 210532020.673 7        44.500    40062912.117 8 210532121.695 8        48.000    40062908.410 7 210532053.138 7        45.300    40062931.754 7 164050986.510 7        47.300    40062936.289 8 157215520.973 8        48.700
J04  37105940.688 6 194993036.799 6        39.800    37105940.379 7 194993033.792 7        43.500    37105938.031 6 194993062.524 6        41.000    37105959.227 7 151942656.084 7        42.600    37105964.586 7 145611702.832 7        45.900
R21  20551568.914 8 109975592.243 8        50.400    20551568.508 8 109975595.246 8        49.700    20551585.086 7  85536581.749 7        47.000    20551581.254 7  82402183.098 7        47.000
R22  22414157.000 7 119648307.355 7        42.000    22414156.625 6 119648275.353 6        41.400    22414175.109 6  93059790.129 6        40.100
G17  21781390.516 7 114461997.345 7        44.000    21781409.656 7  89191220.306 7        44.700    21781410.234 7  89191181.306 7        44.000
G07  23668260.070 5 124377558.391 5        35.400    23668277.379 4  96917631.492 4        27.600    23668277.133 5  96917599.544 5        34.700
R11  20894048.547 8 111651475.201 8        48.600    20894049.285 7 111651463.220 7        47.900    20894065.578 7  86840042.886 7        45.800
R10  19289052.445 7 102821495.647 7        44.700    19289051.902 7 102821495.634 7        43.700
G06  21355689.047 7 112224895.416 7        44.800    21355708.555 7  87448049.613 7        47.400    21355709.113 7  87447998.611 7        47.300    21355712.969 8  83804331.954 8        50.200
R20  22033630.203 5 117823709.274 5        34.800    22033629.113 5 117823705.242 5        34.100    22033650.016 6  91640670.870 6        36.300
G01  23293731.727 6 122409392.928 6        37.200    23293757.988 3  95384038.161 3        21.100    23293757.945 6  95383961.183 6        39.200    23293761.281 7  91409627.330 7        43.300
C03  36231305.031 7 188665924.599 7        42.800    36231311.449 7 145888477.624 7        45.100
C11  23483527.242 7 122284892.636 7        43.400    23483540.668 7  94558406.413 7        44.900
C04  38987548.898 5 203018456.22915        33.700    38987561.012 6 156986751.84716        37.500
C28  24389413.477 6 127002077.757 6        41.300
C05  38398684.500 6 199952060.790 6        36.100    38398696.645 6 154615636.875 6        39.200
C13  36978617.164 7 192557350.668 7        44.600    36978630.977 7 148897547.310 7        42.500
C25  22281451.422 8 116025380.282 8        49.300
C14  25125556.383 5 130835348.321 5        35.900    25125567.609 6 101170246.571 6        39.000
C01  37504265.352 6 195294589.596 6        38.700    37504276.277 6 151014177.626 6        41.100
C06  39693159.148 5 206692673.081 5        34.400    39693168.609 5 159827939.215 5        35.300
C16  39645385.563 5 206443929.215 5        33.900    39645400.750 5 159635594.851 5        33.200
C23  22612816.992 8 117750880.579 8        50.300
C02  36960467.000 6 192462889.870 6        39.700    36960473.180 7 148824511.267 7        44.000
E12  25022908.680 7 131496272.870 7        43.300    25022926.559 7  98195304.609 7        44.500    25022923.711 7 100756907.543 7        45.400    25022925.547 8  99476052.192 8        48.500
E24  28595952.297 5 150272727.527 5        34.500    28595979.016 6 112216649.939 6        37.200    28595974.875 6 115143980.059 6        36.300
E26  26272196.891 7 138061324.874 7        42.200    26272221.750 7 103097670.863 7        42.300    26272217.930 7 105787244.119 7        43.000    26272220.281 7 104442472.087 7        46.400
E01  23983128.961 8 126032190.586 8        49.200    23983146.945 8  94114996.236 8        50.600    23983143.672 8  96570161.068 8        50.300    23983145.773 8  95342511.263 8        53.800
E31  24468941.797 8 128585162.494 8        48.600    24468963.691 8  96021341.589 8        48.200    24468960.418 8  98526249.843 8        49.000    24468962.344 8  97273815.320 8        51.800
E21  27269040.023 6 143299774.394 6        38.200    27269061.605 6 107009508.485 6        40.200    27269058.531 6 109801124.104 6        40.200    27269060.609 7 108405317.402 7        44.000
E33  23656755.727 8 124317089.425 8        48.600    23656773.484 8  92834247.947 8        50.300    23656770.141 8  95256001.638 8        51.700    23656772.219 9  94045043.402 9        54.400
E10  27085300.586 6 142334229.739 6        39.100    27085324.727 6 106288474.423 6        40.500    27085320.832 6 109061269.672 6        41.400    27085323.180 7 107674866.657 7        44.200
S26  38095540.109 5 200193449.368 5        35.800
> 2023  2 14 10 24 29.0000000  0 42       0.000000000000
G30  21991220.141 7 115564657.378 7        44.600    21991238.242 7  90050437.629 7        43.400    21991239.063 7  90050394.628 7        44.500    21991241.660 8  86298303.630 8        48.800
R09  21653629.063 7 115629195.805 7        43.900    21653629.016 7 115629161.814 7        42.700    21653643.250 7  89933807.550 7        43.600    21653640.195 7  86820782.283 7        43.600
R05  24213922.391 5 129437408.626 5        34.600    24213922.316 5 129437280.612 5        32.600    24213949.469 5 100673438.701 5        33.600
G19  22408380.172 6 117756839.720 6        41.600    22408401.199 5  91758647.461 5        31.300
G11  24861786.086 5 130649573.611 5        32.900    24861807.723 2 101804947.278 2        16.900    24861808.906 6 101804889.286 6        36.600    24861817.102 6  97562994.767 6        40.500
G14  20352633.469 7 106953816.539 7        47.600    20352649.348 6  83340693.010 6        41.400    20352649.719 8  83340662.007 8        51.800    20352656.664 9  79868126.415 9        54.500
G03  22440158.961 6 117923818.969 6        40.400    22440181.824 4  91888781.860 4        28.900    22440182.551 7  91888725.870 7        43.200    22440187.352 7  88060014.743 7        47.200
J02  37107070.313 7 194998961.101 7        43.100    37107070.043 8 194998967.114 8        48.000    37107066.938 7 194998999.247 7        45.000    37107089.105 8 151947278.164 8        48.000    37107093.117 8 145616133.756 8        49.600
J07  36742977.813 6 193085663.919 6        38.300    36742978.070 7 193085621.905 7        42.400    36742972.379 7 193085681.530 7        45.400    36742995.480 8 150456387.973 8        48.000    36743000.078 8 144187366.235 8        50.800
J03  40062983.781 7 210532396.966 7        44.300    40062983.754 7 210532497.965 7        47.900    40062979.949 7 210532429.431 7        44.900    40063003.055 7 164051279.697 7        47.500    40063007.969 8 157215801.956 8        48.700
J04  37105984.172 6 194993265.039 6        39.700    37105984.082 7 194993262.040 7        43.500    37105981.449 6 194993290.764 6        41.400    37106002.371 7 151942833.915 7        42.600    37106007.973 7 145611873.269 7        46.000
R21  20551638.680 8 109975964.048 8        50.800    20551637.898 8 109975967.059 8        49.500    20551654.496 7  85536870.923 7        46.600    20551650.875 7  82402461.679 7        47.300
R22  22413801.938 7 119646415.470 7        42.200    22413802.266 6 119646383.470 6        41.300    22413821.465 6  93058318.666 6        40.100
G17  21781405.633 7 114462074.006 7        44.000    21781424.191 7  89191280.052 7        45.000    21781424.676 7  89191241.032 7        43.900
G07  23668917.484 5 124381015.635 5        35.200    23668935.281 4  96920325.455 4        27.300    23668935.371 5  96920293.473 5        34.600
R11  20893463.680 8 111648344.789 8        48.800    20893463.402 7 111648332.800 7        47.900    20893480.098 7  86837608.135 7        45.900
R10  19289225.789 7 102822418.927 7        44.600    19289225.355 7 102822418.934 7        43.700
G06  21355326.695 7 112222989.916 7        44.800    21355345.984 7  87446564.809 7        47.500    21355346.695 7  87446513.821 7        47.000    21355350.305 8  83802909.015 8        50.200
R20  22034183.578 5 117826672.491 5        34.800    22034183.012 5 117826668.468 5        33.900    22034203.641 6  91642975.611 6        36.500
G01  23294397.867 6 122412894.911 6        37.100    23294424.480 3  95386766.989 3        21.700    23294423.992 6  95386689.997 6        39.400    23294427.703 7  91412242.430 7        43.200
C03  36231298.648 7 188665889.996 7        43.000    36231304.844 7 145888450.874 7        45.300
C11  23483843.094 7 122286537.690 7        43.400    23483856.691 7  94559678.471 7        45.100
C04  38987545.148 5 203018439.423 5        34.300    38987557.785 6 156986738.841 6        37.600
C28  24389190.359 6 127000915.002 6        41.800
C05  38398680.313 5 199952035.594 5        35.800    38398691.566 6 154615617.395 6        38.900
C13  36978402.797 7 192556233.791 7        44.800    36978416.473 7 148896683.676 7        43.300
C25  22281821.273 8 116027307.533 8        49.300
C14  25125157.063 6 130833267.886 6        36.100    25125168.078 6 101168637.844 6        39.600
C01  37504259.125 6 195294558.167 6        38.900    37504270.129 6 151014153.334 6        41.400
C06  39693433.328 5 206694103.356 5        34.600    39693443.508 5 159829045.196 5        35.200
C16  39645651.945 5 206445321.402 5        34.100    39645667.875 5 159636671.373 5        33.200
C23  22612634.922 8 117749932.726 8        49.700
C02  36960464.234 6 192462874.314 6        39.500    36960470.051 7 148824499.236 7        44.300
E12  25022636.477 7 131494841.989 7        43.600    25022654.344 7  98194236.099 7        44.300    25022651.430 7 100755811.151 7        44.900    25022653.250 8  99474969.729 8        48.100
E24  28595456.391 5 150270120.241 5        34.500    28595482.695 6 112214702.934 6        36.700    28595478.359 6 115141982.276 6        36.300
E26  26272667.195 7 138063795.547 7        42.000    26272691.836 7 103099515.853 7        42.100    26272688.160 7 105789137.220 7        43.200    26272690.441 7 104444341.142 7        45.900
E01  23983263.805 8 126032899.738 8        49.000    23983281.859 8  94115525.811 8        50.300    23983278.684 8  96570704.441 8        50.700    23983280.723 8  95343047.734 8        53.700
E31  24468600.906 8 128583371.265 8        48.800    24468622.742 8  96020003.976 8        48.200    24468619.488 8  98524877.349 8        49.300    24468621.469 8  97272460.269 8        52.000
E21  27269470.148 6 143302035.713 6        38.400    27269491.996 6 107011197.126 6        39.700    27269488.797 6 109802856.828 6        40.400    27269490.938 7 108407028.073 7        43.700
E33  23656940.547 8 124318060.248 8        48.600    23656958.207 8  92834972.913 8        50.400    23656954.898 8  95256745.515 8        51.500    23656956.961 9  94045777.821 9        54.400
E10  27084892.586 6 142332087.119 6        38.500    27084917.176 6 106286874.417 6        41.000    27084913.246 6 109059627.963 6        41.200    27084915.457 7 107673245.796 7        44.600
S26  38095531.656 5 200193396.835 5        35.900
> 2023  2 14 10 24 30.0000000  0 42       0.000000000000
G30  21991697.938 7 115567166.780 7        44.600    21991715.770 7  90052393.009 7        43.700    21991716.250 7  90052350.016 7        44.500    21991719.141 8  86300177.542 8        48.800
R09  21654334.211 7 115632967.067 7        44.000    21654334.973 7 115632933.076 7        42.500    21654349.922 7  89936740.770 7        43.500    21654346.371 7  86823613.977 7        43.600
R05  24213620.320 5 129435791.321 5        34.100    24213619.438 5 129435663.343 5        32.700    24213646.063 5 100672180.739 5        33.500
G19  22408172.234 6 117755748.376 6        41.500    22408193.406 5  91757797.064 5        30.500
G11  24861177.891 5 130646372.970 5        32.600    24861198.785 2 101802453.262 2        16.900    24861199.262 6 101802395.245 6        36.400    24861208.102 6  97560604.626 6        40.600
G14  20352508.859 7 106953162.823 7        47.200    20352525.082 6  83340183.623 6        41.400    20352525.379 8  83340152.627 8        51.800    20352532.234 9  79867638.253 9        54.400
G03  22440161.820 6 117923835.054 6        40.800    22440184.871 4  91888794.398 4        29.600    22440185.422 7  91888738.394 7        43.100    22440190.313 7  88060026.751 7        47.200
J02  37106879.234 7 194997959.490 7        43.700    37106879.504 8 194997965.490 8        48.000    37106875.809 7 194997997.635 7        44.600    37106897.934 7 151946497.673 7        47.700    37106902.516 8 145615385.776 8        49.700
J07  36742978.953 6 193085668.316 6        38.300    36742978.680 7 193085626.348 7        42.500    36742973.438 7 193085685.925 7        45.500    36742996.121 7 150456391.420 7        47.900    36743000.855 8 144187369.535 8        51.000
J03  40063055.453 7 210532773.135 7        44.300    40063055.289 7 210532874.149 7        47.900    40063051.340 7 210532805.600 7        45.300    40063074.867 7 164051572.831 7        47.600    40063079.543 8 157216082.876 8        48.500
J04  37106027.641 6 194993493.322 6        39.700    37106027.293 7 194993490.291 7        43.600    37106024.559 6 194993519.047 6        40.800    37106045.934 7 151943011.775 7        42.800    37106051.492 7 145612043.716 7        45.600
R21  20551707.297 8 109976336.296 8        50.700    20551707.305 8 109976339.305 8        49.600    20551723.941 7  85537160.455 7        46.500    20551720.434 7  82402740.603 7        47.300
R22  22413448.469 7 119644523.992 7        42.400    22413447.809 6 119644491.997 6        41.300    22413467.016 6  93056847.534 6        40.300
G17  21781419.727 7 114462150.618 7        44.000    21781438.930 7  89191339.747 7        44.700    21781439.145 7  89191300.743 7        43.900
G07  23669575.195 5 124384472.812 5        35.600    23669593.066 4  96923019.348 4        27.800    23669593.594 5  96922987.380 5        35.000
R11  20892877.992 8 111645214.923 8        48.900    20892877.617 7 111645202.934 7        47.900    20892893.504 7  86835173.788 7        46.300
R10  19289400.094 7 102823343.082 7        44.700    19289398.473 7 102823343.093 7        43.600
G06  21354964.414 7 112221084.904 7        45.000    21354983.328 7  87445080.380 7        47.500    21354983.914 7  87445029.376 7        47.200    21354987.801 8  83801486.438 8        50.200
R20  22034738.719 5 117829635.629 5        35.000    22034737.191 5 117829631.688 5        34.100    22034757.672 6  91645280.325 6        36.800
G01  23295064.500 6 122416396.981 6        37.100    23295090.965 3  95389495.881 3        21.700    23295090.488 6  95389418.876 6        39.600    23295094.156 7  91414857.623 7        43.400
C03  36231292.250 7 188665855.420 7        43.000    36231298.238 7 145888424.142 7        45.400
C11  23484159.484 7 122288182.694 7        43.800    23484172.504 7  94560950.494 7        44.700
C04  38987541.727 5 203018422.628 5        34.300    38987554.414 6 156986725.859 6        37.500
C28  24388967.492 7 126999752.458 7        42.000
C05  38398675.289 5 199952010.358 5        35.500    38398686.727 6 154615597.886 6        38.900
C13  36978187.945 7 192555117.052 7        44.600    36978201.703 7 148895820.137 7        43.200
C25  22282191.656 8 116029235.216 8        49.300
C14  25124756.867 6 130831187.493 6        36.000    25124768.719 6 101167029.162 6        39.200
C01  37504253.695 6 195294526.768 6        38.800    37504264.082 6 151014129.057 6        41.400
C06  39693707.953 5 206695533.483 5        34.300    39693717.863 5 159830151.065 5        34.900
C16  39645920.039 5 206446713.494 5        34.000    39645935.008 5 159637747.825 5        33.200
C23  22612452.945 8 117748985.366 8        49.600
C02  36960460.898 6 192462858.753 6        39.800    36960467.152 7 148824487.213 7        43.900
E12  25022364.141 7 131493411.398 7        43.700    25022382.047 7  98193167.800 7        43.900    25022379.188 7 100754714.985 7        44.800    25022381.020 7  99473887.511 7        47.900
E24  28594959.922 5 150267512.904 5        35.100    28594986.602 6 112212755.832 6        36.200    28594982.352 6 115139984.408 6        36.300
E26  26273137.422 7 138066266.215 7        42.100    26273162.133 7 103101360.862 7        42.400    26273158.207 7 105791030.363 7        43.300    26273160.613 7 104446210.222 7        46.100
E01  23983398.789 8 126033609.224 8        49.500    23983416.875 8  94116055.614 8        50.200    23983413.672 8  96571248.076 8        51.000    23983415.730 8  95343584.451 8        53.600
E31  24468260.016 8 128581580.224 8        48.900    24468281.996 8  96018666.519 8        48.100    24468278.676 8  98523505.001 8        49.000    24468280.633 8  97271105.367 8        51.900
E21  27269900.727 6 143304297.251 6        37.600    27269922.406 6 107012885.971 6        39.800    27269919.262 6 109804589.672 6        40.200    27269921.285 7 108408738.933 7        43.500
E33  23657125.289 8 124319031.358 8        48.900    23657143.051 8  92835698.100 8        50.100    23657139.680 8  95257489.616 8        51.200    23657141.762 9  94046512.462 9        54.500
E10  27084484.938 6 142329944.769 6        38.900    27084509.484 6 106285274.636 6        40.900    27084505.207 6 109057986.403 6        41.500    27084507.773 7 107671625.129 7        44.700
S26  38095515.531 6 200193344.287 6        36.000
> 2023  2 14 10 24 31.0000000  0 42       0.000000000000
G30  21992175.055 7 115569676.519 7        44.500    21992193.406 7  90054348.654 7        43.600    21992193.941 7  90054305.644 7        45.000    21992196.750 8  86302051.686 8        48.700
R09  21655041.297 7 115636738.769 7        44.100    21655040.980 7 115636704.764 7        42.400    21655055.523 7  89939674.311 7        43.700    21655052.801 7  86826445.967 7        43.300
R05  24213318.250 5 129434174.367 5        34.200    24213317.313 5 129434046.368 5        32.400    24213342.574 5 100670923.100 5        33.200
G19  22407964.648 6 117754657.083 6        41.600    22407985.609 5  91756946.716 5        30.500
G11  24860567.781 5 130643172.409 5        33.600    24860589.887 2 101799959.364 2        17.400    24860589.941 5 101799901.374 5        35.800    24860599.082 6  97558214.681 6        40.700
G14  20352384.953 7 106952509.575 7        47.200    20352400.637 6  83339674.602 6        40.900    20352401.063 8  83339643.599 8        52.000    20352407.961 9  79867150.441 9        54.400
G03  22440164.445 6 117923851.767 6        40.600    22440188.129 4  91888807.423 4        28.500    22440189.031 7  91888751.402 7        43.300    22440193.605 7  88060039.214 7        47.800
J02  37106688.781 7 194996957.947 7        43.700    37106689.039 8 194996963.937 8        48.000    37106685.254 7 194996996.091 7        44.600    37106707.348 7 151945717.265 7        47.600    37106711.887 8 145614637.881 8        49.600
J07  36742980.313 6 193085672.778 6        37.900    36742979.605 7 193085630.767 7        42.400    36742974.309 7 193085690.384 7        45.600    36742997.273 7 150456394.857 7        47.900    36743001.809 8 144187372.845 8        51.000
J03  40063126.609 7 210533149.231 7        44.500    40063126.727 7 210533250.250 7        47.900    40063123.195 7 210533181.696 7        45.100    40063146.336 7 164051865.894 7        47.600    40063151.031 8 157216363.720 8        48.600
J04  37106070.859 6 194993721.586 6        39.800    37106070.676 7 194993718.589 7        43.600    37106068.117 6 194993747.308 6        40.600    37106089.426 7 151943189.682 7        42.800    37106094.855 7 145612214.201 7        45.500
R21  20551777.898 8 109976708.997 8        50.800    20551776.871 8 109976712.000 8        49.700    20551793.375 7  85537450.323 7        46.100    20551790.027 7  82403019.849 7        47.200
R22  22413093.172 7 119642632.971 7        42.800    22413093.633 6 119642600.976 6        41.200    22413112.734 6  93055376.727 6        40.100
G17  21781434.156 7 114462227.218 7        43.900    21781453.273 7  89191399.443 7        44.700    21781454.012 7  89191360.438 7        43.900
G07  23670233.742 5 124387930.000 5        35.200    23670250.918 4  96925713.270 4        27.700    23670251.594 5  96925681.295 5        34.600
R11  20892292.656 8 111642085.563 8        48.800    20892292.074 7 111642073.581 7        47.600    20892308.449 7  86832739.850 7        46.300
R10  19289574.148 7 102824268.067 7        44.900    19289572.000 7 102824268.066 7        43.400
G06  21354601.820 7 112219180.388 7        44.700    21354621.023 7  87443596.345 7        47.400    21354621.918 7  87443545.334 7        47.200    21354625.422 8  83800064.233 8        50.600
R20  22035291.430 5 117832598.802 5        35.100    22035290.875 5 117832594.822 5        33.700    22035312.199 6  91647584.996 6        36.900
G01  23295730.391 6 122419899.147 6        36.800    23295757.438 3  95392224.825 3        21.300    23295757.422 6  95392147.853 6        39.400    23295760.645 7  91417472.892 7        43.800
C03  36231285.164 7 188665820.840 7        43.000    36231291.629 7 145888397.394 7        45.400
C11  23484474.852 7 122289827.679 7        43.800    23484488.547 7  94562222.495 7        44.700
C04  38987538.250 5 203018405.867 5        34.300    38987551.008 6 156986712.905 6        37.800
C28  24388743.836 6 126998590.087 6        41.800
C05  38398669.891 5 199951985.165 5        35.800    38398681.844 6 154615578.407 6        39.300
C13  36977973.844 7 192554000.476 7        44.800    36977987.367 7 148894956.737 7        43.100
C25  22282561.664 8 116031163.316 8        49.200
C14  25124357.313 5 130829107.039 5        35.700    25124369.188 6 101165420.424 6        39.100
C01  37504247.367 6 195294495.367 6        38.800    37504258.082 6 151014104.778 6        41.100
C06  39693983.031 5 206696963.578 5        34.000    39693992.629 5 159831256.908 5        35.500
C16  39646187.281 5 206448105.571 5        33.700    39646202.219 5 159638824.272 5        33.200
C23  22612271.242 8 117748038.527 8        49.900
C02  36960458.055 6 192462843.215 6        39.700    36960464.262 7 148824475.199 7        44.400
E12  25022092.078 7 131491981.144 7        43.900    25022109.820 7  98192099.770 7        44.200    25022106.938 7 100753619.098 7        44.800    25022108.855 7  99472805.547 7        47.600
E24  28594463.891 5 150264905.442 5        34.800    28594490.105 6 112210808.736 6        36.300    28594486.559 6 115137986.459 6        36.400
E26  26273607.141 6 138068736.964 6        41.700    26273632.301 6 103103205.873 6        41.900    26273628.281 7 105792923.529 7        42.900    26273630.781 7 104448079.311 7        45.700
E01  23983533.820 8 126034319.082 8        49.400    23983551.949 8  94116585.714 8        50.300    23983548.637 8  96571791.996 8        50.600    23983550.809 8  95344121.461 8        53.500
E31  24467919.531 8 128579789.363 8        48.800    24467941.129 8  96017329.222 8        48.000    24467937.793 8  98522132.802 8        49.400    24467939.848 8  97269750.620 8        52.200
E21  27270330.930 6 143306559.041 6        37.300    27270352.813 6 107014574.935 6        39.900    27270349.863 6 109806322.718 6        40.200    27270351.676 7 108410449.934 7        43.600
E33  23657310.133 8 124320002.773 8        49.000    23657327.887 8  92836423.504 8        50.500    23657324.543 8  95258233.952 8        51.200    23657326.613 9  94047247.329 9        54.600
E10  27084077.719 6 142327802.657 6        39.100    27084101.926 6 106283675.012 6        40.800    27084097.938 6 109056345.053 6        41.200    27084100.148 7 107670004.627 7        44.500
S26  38095510.375 5 200193291.765 5        35.600
> 2023  2 14 10 24 32.0000000  0 42       0.000000000000
G30  21992652.484 7 115572186.551 7        44.400    21992671.035 7  90056304.520 7        43.100    21992671.605 7  90056261.503 7        44.500    21992674.449 8  86303926.055 8        48.600
R09  21655748.930 7 115640510.856 7        44.300    21655747.691 7 115640476.858 7        42.500    21655761.980 7  89942608.147 7        43.700    21655759.188 7  86829278.255 7        43.700
R05  24213015.930 5 129432557.752 5        34.700    24213014.879 5 129432429.726 5        33.400    24213042.609 5 100669665.732 5        33.000
G19  22407757.438 6 117753565.861 6        41.700    22407778.020 5  91756096.418 5        30.100
G11  24859959.461 5 130639972.164 5        33.700    24859980.770 2 101797465.647 2        16.900    24859980.793 6 101797407.660 6        36.600    24859989.949 6  97555824.871 6        40.600
G14  20352260.094 7 106951856.781 7        47.000    20352276.500 6  83339165.932 6        41.100    20352276.738 8  83339134.928 8        52.200    20352283.695 9  79866662.972 9        54.400
G03  22440168.023 6 117923869.053 6        40.400    22440191.457 4  91888820.893 4        28.400    22440192.160 7  91888764.908 7        43.300    22440196.840 7  88060052.141 7        47.600
J02  37106498.266 7 194995956.476 7        43.300    37106498.309 8 194995962.483 8        48.000    37106494.707 7 194995994.620 7        44.300    37106517.000 7 151944936.893 7        47.500    37106521.398 8 145613890.020 8        49.300
J07  36742980.813 6 193085677.159 6        37.900    36742980.426 7 193085635.178 7        42.400    36742975.121 7 193085694.777 7        45.300    36742997.680 8 150456398.300 8        48.100    36743002.594 8 144187376.128 8        50.800
J03  40063198.484 7 210533525.234 7        44.600    40063198.367 8 210533626.240 8        48.100    40063194.469 7 210533557.699 7        45.500    40063218.020 7 164052158.882 7        47.500    40063222.641 8 157216644.517 8        48.500
J04  37106113.953 6 194993949.894 6        39.500    37106114.230 7 194993946.900 7        43.600    37106111.555 6 194993975.617 6        40.600    37106132.828 7 151943367.589 7        43.000    37106138.395 7 145612384.704 7        45.400
R21  20551847.023 8 109977082.048 8        50.300    20551846.680 8 109977085.065 8        49.300    20551863.301 7  85537740.488 7        46.300    20551859.637 7  82403299.361 7        47.000
R22  22412740.156 7 119640742.395 7        42.500    22412739.324 6 119640710.398 6        41.400    22412757.738 6  93053906.268 6        39.800
G17  21781448.641 7 114462303.789 7        43.900    21781467.883 7  89191459.108 7        44.700    21781468.230 7  89191420.117 7        44.000
G07  23670891.008 5 124391387.138 5        35.200    23670908.738 4  96928407.147 4        28.600    23670909.609 5  96928375.154 5        34.600
R11  20891705.945 8 111638956.731 8        48.400    20891706.395 7 111638944.735 7        47.800    20891722.715 7  86830306.315 7        46.600
R10  19289747.758 7 102825193.886 7        45.000    19289745.832 7 102825193.895 7        43.500
G06  21354239.367 7 112217276.336 7        44.900    21354258.652 7  87442112.667 7        47.300    21354259.551 7  87442061.671 7        47.300    21354263.176 8  83798642.385 8        50.700
R20  22035844.781 5 117835561.953 5        34.000    22035844.984 5 117835557.934 5        33.800    22035867.387 6  91649889.652 6        36.500
G01  23296397.664 6 122423401.417 6        37.100    23296423.891 3  95394953.861 3        21.100    23296423.734 6  95394876.861 6        39.800    23296427.051 7  91420088.189 7        44.000
C03  36231278.656 7 188665786.254 7        42.900    36231284.945 7 145888370.653 7        45.500
C11  23484791.023 7 122291472.658 7        43.700    23484804.488 7  94563494.490 7        44.900
C04  38987535.891 5 203018389.062 5        34.300    38987547.629 6 156986699.914 6        37.600
C28  24388520.656 6 126997427.930 6        41.700
C05  38398665.023 6 199951959.977 6        36.400    38398676.938 6 154615558.927 6        39.000
C13  36977759.375 7 192552884.036 7        44.200    36977772.758 7 148894093.438 7        43.600
C25  22282931.953 8 116033091.818 8        49.300
C14  25123958.063 5 130827026.525 5        35.700    25123969.520 6 101163811.637 6        39.100
C01  37504241.641 6 195294463.972 6        38.700    37504252.070 6 151014080.505 6        40.900
C06  39694257.164 5 206698393.545 5        33.700    39694267.184 5 159832362.640 5        34.500
C16  39646453.875 5 206449497.441 5        34.500    39646469.238 5 159639900.559 5        33.400
C23  22612089.508 8 117747092.171 8        49.600
C02  36960455.219 6 192462827.658 6        39.500    36960461.285 7 148824463.169 7        44.500
E12  25021820.172 7 131490551.229 7        43.900    25021837.688 7  98191031.978 7        44.400    25021834.785 7 100752523.436 7        45.100    25021836.734 7  99471723.817 7        47.800
E24  28593967.469 5 150262297.919 5        35.500    28593994.027 5 112208861.574 5        35.900    28593990.320 6 115135988.482 6        36.500
E26  26274077.203 6 138071207.705 6        41.900    26274102.402 7 103105050.895 7        42.100    26274098.617 7 105794816.678 7        42.900    26274100.941 7 104449948.397 7        46.100
E01  23983669.078 8 126035029.284 8        49.200    23983687.078 8  94117116.057 8        50.500    23983683.793 8  96572336.182 8        50.500    23983685.941 8  95344658.731 8        53.900
E31  24467578.563 8 128577998.722 8        48.500    24467600.348 7  96015992.042 7        47.700    24467597.176 8  98520760.740 8        49.600    24467599.094 8  97268395.993 8        51.800
E21  27270761.438 6 143308821.002 6        37.800    27270783.141 6 107016264.091 6        39.600    27270780.313 6 109808055.920 6        40.200    27270782.094 7 108412161.121 7        43.700
E33  23657495.023 8 124320974.464 8        48.500    23657512.859 8  92837149.110 8        50.600    23657509.480 8  95258978.489 8        51.000    23657511.531 9  94047982.413 9        54.500
E10  27083670.375 6 142325660.818 6        39.100    27083694.348 6 106282075.551 6        40.900    27083690.277 6 109054703.887 6        41.100    27083692.566 7 107668384.332 7        44.600
S26  38095496.750 5 200193239.187 5        35.800
> 2023  2 14 10 24 33.0000000  0 42       0.000000000000
G30  21993130.078 7 115574696.880 7        44.100    21993148.789 7  90058260.619 7        43.100    21993149.152 7  90058217.618 7        44.300    21993152.105 8  86305800.648 8        48.600
R09  21656454.406 7 115644283.345 7        44.300    21656454.027 7 115644249.353 7        42.600    21656468.262 7  89945542.305 7        43.800    21656465.641 7  86832110.842 7        43.600
R05  24212711.844 5 129430941.501 5        34.100    24212712.512 5 129430813.456 5        33.300    24212740.887 5 100668408.631 5        33.200
G19  22407549.617 6 117752474.679 6        41.800    22407570.234 5  91755246.152 5        30.700
G11  24859351.227 5 130636772.022 5        34.400    24859371.848 2 101794972.001 2        16.900    24859372.242 6 101794914.059 6        37.100    24859380.934 6  97553435.199 6        40.500
G14  20352136.586 7 106951204.437 7        47.400    20352152.297 6  83338657.617 6        41.300    20352152.660 8  83338626.621 8        52.200    20352159.617 9  79866175.835 9        54.500
G03  22440171.734 6 117923886.929 6        40.600    22440194.590 4  91888834.815 4        29.100    22440195.535 7  91888778.810 7        43.400    22440200.371 7  88060065.473 7        47.600
J02  37106308.016 7 194994955.083 7        43.500    37106307.801 8 194994961.066 8        48.100    37106303.992 7 194994993.227 7        44.500    37106326.672 7 151944156.580 7        47.800    37106330.801 8 145613142.227 8        49.600
J07  36742981.625 6 193085681.563 6        37.900    36742981.246 7 193085639.582 7        42.600    36742975.980 7 193085699.174 7        45.400    36742998.703 8 150456401.736 8        48.200    36743003.426 8 144187379.428 8        50.900
J03  40063269.828 7 210533901.146 7        44.900    40063269.914 8 210534002.136 8        48.000    40063266.113 7 210533933.618 7        45.400    40063288.965 7 164052451.797 7        47.600    40063294.227 8 157216925.214 8        48.800
J04  37106157.719 6 194994178.215 6        38.900    37106157.699 7 194994175.220 7        43.500    37106155.020 6 194994203.938 6        40.500    37106176.000 7 151943545.519 7        42.900    37106181.859 7 145612555.214 7        45.800
R21  20551916.922 8 109977455.445 8        50.000    20551916.324 8 109977458.462 8        49.300    20551933.016 7  85538030.921 7        46.400    20551929.578 7  82403579.155 7        47.100
R22  22412385.680 7 119638852.231 7        42.100    22412385.348 6 119638820.203 6        40.900    22412404.027 6  93052436.127 6        39.600
G17  21781463.711 7 114462380.316 7        43.900    21781482.488 7  89191518.745 7        44.900    21781482.617 7  89191479.720 7        44.000
G07  23671548.969 5 124394844.250 5        34.600    23671566.680 4  96931100.999 4        28.600    23671567.570 5  96931068.991 5        34.200
R11  20891121.031 8 111635828.389 8        48.700    20891121.059 7 111635816.407 7        47.800    20891136.992 7  86827873.181 7        46.500
R10  19289921.188 7 102826120.536 7        45.000    19289919.926 7 102826120.547 7        43.200
G06  21353877.016 7 112215372.769 7        44.900    21353896.422 7  87440629.377 7        47.500    21353897.309 7  87440578.372 7        47.300    21353900.824 8  83797220.894 8        50.300
R20  22036399.289 5 117838524.965 5        34.500    22036399.133 5 117838520.990 5        34.700    22036420.719 6  91652194.214 6        36.500
G01  23297063.727 6 122426903.729 6        37.100    23297090.332 3  95397682.916 3        21.100    23297090.148 6  95397605.935 6        39.900    23297093.641 7  91422703.554 7        43.700
C03  36231271.953 7 188665751.662 7        42.900    36231278.445 7 145888343.902 7        45.500
C11  23485106.766 7 122293117.578 7        43.200    23485120.219 7  94564766.445 7        45.200
C04  38987532.344 5 203018372.248 5        34.500    38987544.332 6 156986686.918 6        37.800
C28  24388297.883 6 126996265.942 6        41.800
C05  38398660.227 6 199951934.758 6        36.000    38398672.219 6 154615539.431 6        39.400
C13  36977545.055 7 192551767.726 7        44.600    36977558.367 7 148893230.239 7        43.800
C25  22283302.602 8 116035020.706 8        49.600
C14  25123558.453 5 130824945.985 5        35.600    25123570.066 6 101162202.835 6        38.900
C01  37504235.508 6 195294432.529 6        38.800    37504246.027 6 151014056.188 6        41.100
C06  39694531.750 5 206699823.430 5        34.000    39694541.941 5 159833468.318 5        35.200
C16  39646720.734 5 206450889.289 5        33.600    39646736.656 5 159640976.818 5        33.300
C23  22611907.672 8 117746146.307 8        49.900
C02  36960452.531 6 192462812.090 6        39.800    36960458.395 7 148824451.132 7        44.500
E12  25021547.883 7 131489121.598 7        43.800    25021565.797 7  98189964.405 7        44.600    25021562.867 7 100751428.018 7        44.800    25021564.695 7  99470642.324 7        47.800
E24  28593471.680 5 150259690.312 5        35.600    28593497.297 5 112206914.351 5        35.700    28593494.262 6 115133990.478 6        36.500
E26  26274547.719 6 138073678.460 6        41.900    26274572.605 7 103106895.925 7        42.000    26274568.586 7 105796709.843 7        42.700    26274571.102 7 104451817.513 7        46.000
E01  23983804.398 8 126035739.841 8        49.100    23983822.387 8  94117646.666 8        50.500    23983819.105 8  96572880.625 8        50.300    23983821.172 8  95345196.257 8        53.700
E31  24467237.953 8 128576208.239 8        48.500    24467259.547 7  96014654.996 7        47.800    24467256.383 8  98519388.823 8        49.500    24467258.367 8  97267041.516 8        51.700
E21  27271191.672 6 143311083.153 6        37.900    27271213.598 6 107017953.382 6        39.800    27271210.676 6 109809789.292 6        40.100    27271212.543 7 108413872.455 7        43.400
E33  23657679.906 8 124321946.433 8        48.600    23657697.707 8  92837874.933 8        50.500    23657694.410 8  95259723.236 8        51.300    23657696.480 9  94048717.700 9        54.500
E10  27083263.031 6 142323519.178 6        39.300    27083286.785 6 106280476.259 6        40.800    27083282.699 6 109053062.878 6        41.300    27083285.012 7 107666764.184 7        44.700
S26  38095495.000 5 200193186.652 5        35.500
> 2023  2 14 10 24 34.0000000  0 42       0.000000000000
G30  21993607.945 7 115577207.537 7        44.300    21993626.492 7  90060216.979 7        43.500    21993627.215 7  90060173.982 7        44.500    21993629.801 8  86307675.500 8        48.700
R09  21657162.141 7 115648056.341 7        44.500    21657160.738 7 115648022.355 7        42.600    21657174.797 7  89948476.860 7        43.700    21657172.090 7  86834943.820 7        43.400
R05  24212410.352 5 129429325.684 5        34.100    24212410.371 5 129429197.651 5        33.400    24212437.730 5 100667151.877 5        33.100
G19  22407341.797 7 117751383.605 7        42.200    22407362.672 5  91754395.971 5        31.000
G11  24858741.695 5 130633572.202 5        33.900    24858762.969 2 101792478.662 2        16.900    24858763.477 6 101792420.672 6        37.500    24858772.090 6  97551045.670 6        40.100
G14  20352012.500 7 106950552.602 7        47.200    20352028.438 6  83338149.697 6        41.400    20352028.645 8  83338118.687 8        51.900    20352035.559 9  79865689.078 9        54.400
G03  22440175.125 6 117923905.432 6        40.500    22440197.926 4  91888849.237 4        29.900    22440199.332 7  91888793.241 7        43.400    22440203.715 7  88060079.303 7        47.400
J02  37106116.656 7 194993953.777 7        43.300    37106117.336 8 194993959.790 8        48.100    37106113.551 7 194993991.922 7        44.500    37106135.992 7 151943376.357 7        47.900    37106140.234 8 145612394.519 8        49.700
J07  36742982.391 6 193085686.034 6        38.100    36742982.262 7 193085644.023 7        42.600    36742976.809 7 193085703.643 7        45.400    36742999.320 8 150456405.202 8        48.400    36743004.320 8 144187382.755 8        51.100
J03  40063341.672 7 210534276.990 7        45.000    40063341.473 8 210534377.994 8        48.000    40063337.727 7 210534309.461 7        45.700    40063360.883 7 164052744.673 7        47.400    40063365.691 8 157217205.889 8        48.400
J04  37106201.563 6 194994406.623 6        39.100    37106201.203 7 194994403.618 7        43.400    37106198.906 6 194994432.347 6        40.500    37106220.047 7 151943723.484 7        42.700    37106225.258 7 145612725.763 7        45.700
R21  20551987.195 8 109977829.306 8        50.700    20551986.301 8 109977832.308 8        49.300    20552002.547 7  85538321.691 7        46.400    20551999.379 7  82403859.292 7        47.300
R22  22412032.477 7 119636962.524 7        42.500    22412031.367 6 119636930.513 6        41.100    22412050.660 6  93050966.392 6        39.700
G17  21781477.914 7 114462456.863 7        44.000    21781497.086 7  89191578.390 7        44.900    21781497.039 7  89191539.384 7        44.300
G07  23672207.383 5 124398301.412 5        35.000    23672224.512 4  96933794.888 4        27.600    23672224.898 5  96933762.887 5        33.800
R11  20890535.664 8 111632700.613 8        49.100    20890535.859 7 111632688.639 7        47.600    20890552.457 7  86825440.488 7        46.400
R10  19290095.406 7 102827048.104 7        44.900    19290093.941 7 102827048.106 7        43.500
G06  21353515.141 7 112213469.742 7        44.700    21353534.336 7  87439146.503 7        47.400    21353535.039 7  87439095.485 7        47.100    21353538.719 8  83795799.802 8        50.300
R20  22036953.055 5 117841487.997 5        34.800    22036953.785 5 117841484.043 5        34.500    22036975.945 6  91654498.813 6        36.500
G01  23297729.750 6 122430406.171 6        36.900    23297756.883 3  95400412.106 3        21.300    23297756.566 6  95400335.118 6        39.400    23297760.117 7  91425319.025 7        43.900
C03  36231265.539 7 188665717.098 7        42.900    36231271.688 7 145888317.182 7        45.300
C11  23485422.680 7 122294762.525 7        43.300    23485436.125 7  94566038.425 7        45.000
C04  38987528.758 5 203018355.431 5        34.600    38987540.945 6 156986673.926 6        38.200
C28  24388074.391 6 126995104.192 6        41.600
C05  38398655.531 5 199951909.619 5        35.700    38398667.461 6 154615519.994 6        39.500
C13  36977330.766 7 192550651.598 7        44.400    36977344.246 7 148892367.181 7        43.300
C25  22283673.148 8 116036950.067 8        49.500
C14  25123159.523 5 130822865.420 5        35.900    25123170.434 6 101160594.011 6        39.000
C01  37504229.516 6 195294401.144 6        38.800    37504240.133 6 151014031.919 6        41.300
C06  39694806.570 5 206701253.242 5        33.800    39694816.332 5 159834573.942 5        35.200
C16  39646988.633 5 206452281.029 5        33.800    39647003.898 5 159642053.005 5        32.800
C23  22611726.258 8 117745200.983 8        49.900
C02  36960449.492 6 192462796.561 6        39.600    36960455.254 7 148824439.128 7        44.700
E12  25021275.703 7 131487692.379 7        43.800    25021293.840 7  98188897.106 7        44.400    25021290.797 7 100750332.897 7        44.800    25021292.727 7  99469561.117 7        47.800
E24  28592975.773 5 150257082.721 5        35.100    28593000.980 5 112204966.993 5        35.600    28592997.828 6 115131992.377 6        36.600
E26  26275017.773 6 138076149.285 6        41.600    26275042.840 7 103108741.027 7        42.100    26275038.832 7 105798603.068 7        43.000    26275041.301 7 104453686.664 7        46.300
E01  23983939.813 8 126036450.794 8        49.100    23983957.691 8  94118177.573 8        50.500    23983954.375 8  96573425.381 8        50.700    23983956.438 8  95345734.088 8        53.900
E31  24466897.055 8 128574417.994 8        48.900    24466918.926 7  96013318.139 7        47.800    24466915.664 8  98518017.084 8        49.600    24466917.684 8  97265687.216 8        51.800
E21  27271622.258 6 143313345.611 6        38.100    27271644.254 6 107019642.841 6        39.900    27271640.953 6 109811522.866 6        40.400    27271643.078 7 108415583.953 7        43.900
E33  23657864.953 8 124322918.723 8        48.700    23657882.828 8  92838601.003 8        50.600    23657879.418 8  95260468.249 8        51.200    23657881.512 9  94049453.236 9        55.000
E10  27082855.422 6 142321377.792 6        39.700    27082879.430 6 106278877.213 6        41.100    27082875.266 6 109051422.099 6        41.400    27082877.535 7 107665144.276 7        44.900
S26  38095474.203 6 200193134.105 6        36.000
> 2023  2 14 10 24 35.0000000  0 42       0.000000000000
G30  21994085.508 7 115579718.493 7        44.800    21994104.336 7  90062173.563 7        43.300    21994104.914 7  90062130.575 7        44.900    21994107.707 8  86309550.565 8        48.400
R09  21657867.711 7 115651829.709 7        44.100    21657867.301 7 115651795.710 7        42.600    21657882.008 7  89951411.714 7        43.700    21657878.773 7  86837777.087 7        43.200
R05  24212107.305 5 129427710.146 5        34.200    24212108.117 5 129427582.147 5        33.600    24212135.883 5 100665895.315 5        33.300
G19  22407134.203 6 117750292.539 6        41.800    22407155.141 5  91753545.802 5        30.800
G11  24858132.516 5 130630372.505 5        33.900    24858154.262 2 101789985.417 2        17.400    24858154.457 6 101789927.446 6        37.100    24858162.957 6  97548656.305 6        40.200
G14  20351888.438 7 106949901.199 7        47.000    20351904.367 6  83337642.117 6        41.300    20351904.672 8  83337611.106 8        51.600    20351911.563 9  79865202.640 9        54.400
G03  22440178.555 6 117923924.534 6        40.600    22440201.691 4  91888864.125 4        29.200    22440203.012 7  91888808.121 7        43.400    22440207.441 7  88060093.563 7        47.600
J02  37105926.984 7 194992952.561 7        43.900    37105926.711 8 194992958.564 8        48.000    37105922.969 7 194992990.706 7        44.400    37105945.453 7 151942596.188 7        47.400    37105949.758 8 145611646.849 8        49.900
J07  36742983.875 6 193085690.425 6        38.100    36742982.977 7 193085648.457 7        42.400    36742977.145 7 193085708.044 7        45.300    36743000.262 8 150456408.656 8        48.300    36743005.148 8 144187386.064 8        50.700
J03  40063412.594 7 210534652.730 7        45.000    40063412.887 8 210534753.743 8        48.000    40063409.629 7 210534685.196 7        45.600    40063431.930 7 164053037.461 7        47.500    40063437.309 8 157217486.480 8        48.600
J04  37106244.719 6 194994635.027 6        39.500    37106244.652 7 194994632.033 7        43.600    37106242.371 6 194994660.749 6        40.800    37106263.426 7 151943901.469 7        42.600    37106268.676 7 145612896.325 7        45.800
R21  20552057.141 8 109978203.562 8        50.000    20552056.090 8 109978206.580 8        49.500    20552072.031 7  85538612.782 7        46.600    20552069.184 7  82404139.701 7        47.200
R22  22411678.508 7 119635073.248 7        42.800    22411677.219 6 119635041.266 6        40.800    22411696.379 6  93049496.962 6        39.600
G17  21781492.320 7 114462533.380 7        44.100    21781511.707 7  89191638.019 7        45.000    21781511.961 7  89191599.008 7        44.100
G07  23672865.422 5 124401758.493 5        35.000    23672882.313 4  96936488.711 4        28.700    23672882.828 5  96936456.741 5        34.100
R11  20889950.344 8 111629573.375 8        49.100    20889950.707 7 111629561.385 7        47.500    20889966.980 7  86823008.176 7        46.700
R10  19290269.102 7 102827976.505 7        44.100    19290267.902 7 102827976.517 7        43.800
G06  21353152.719 7 112211567.162 7        44.900    21353172.230 7  87437663.969 7        47.400    21353173.211 7  87437612.972 7        47.200    21353176.699 8  83794379.060 8        50.700
R20  22037508.188 5 117844451.011 5        34.900    22037507.734 5 117844447.006 5        34.300    22037529.703 6  91656803.322 6        36.900
G01  23298397.070 6 122433908.722 6        37.100    23298423.324 3  95403141.372 3        21.500    23298423.215 6  95403064.340 6        39.400    23298426.426 7  91427934.541 7        43.900
C03  36231258.484 7 188665682.517 7        43.000    36231265.352 7 145888290.441 7        45.700
C11  23485738.383 7 122296407.443 7        43.600    23485751.945 7  94567310.374 7        45.600
C04  38987525.992 5 203018338.678 5        34.600    38987537.914 6 156986660.961 6        38.100
C28  24387851.688 6 126993942.632 6        41.400
C05  38398651.023 5 199951884.416 5        35.700    38398662.520 6 154615500.509 6        39.800
C13  36977116.484 7 192549535.621 7        44.000    36977129.793 7 148891504.240 7        42.900
C25  22284043.625 8 116038879.826 8        49.500
C14  25122759.719 5 130820784.764 5        35.700    25122770.570 6 101158985.120 6        39.600
C01  37504223.516 6 195294369.737 6        38.900    37504234.055 6 151014007.632 6        41.500
C06  39695080.984 5 206702682.923 5        33.000    39695090.777 5 159835679.460 5        35.500
C16  39647256.039 5 206453672.627 5        33.800    39647271.227 5 159643129.067 5        32.700
C23  22611544.922 8 117744256.154 8        49.900
C02  36960446.164 6 192462781.021 6        39.700    36960452.172 7 148824427.113 7        45.400
E12  25021004.039 7 131486263.447 7        44.100    25021021.770 7  98187830.066 7        44.400    25021018.727 7 100749238.021 7        44.800    25021020.797 7  99468480.138 7        47.800
E24  28592479.063 5 150254474.969 5        35.200    28592504.371 5 112203019.720 5        35.800    28592501.555 6 115129994.277 6        36.000
E26  26275488.047 6 138078620.077 6        41.800    26275513.008 7 103110586.118 7        42.200    26275509.070 7 105800496.268 7        43.200    26275511.480 7 104455555.807 7        46.800
E01  23984074.789 8 126037162.088 8        49.200    23984093.023 8  94118708.734 8        50.400    23984089.723 8  96573970.400 8        50.600    23984091.801 8  95346272.173 8        53.900
E31  24466556.523 8 128572627.923 8        48.900    24466578.313 8  96011981.413 8        48.000    24466575.039 8  98516645.483 8        48.900    24466577.035 8  97264333.058 8        51.700
E21  27272052.445 6 143315608.225 6        38.300    27272074.891 6 107021332.507 6        39.700    27272071.570 6 109813256.532 6        40.200    27272073.641 7 108417295.634 7        44.000
E33  23658050.109 8 124323891.300 8        48.700    23658067.910 8  92839327.268 8        50.800    23658064.469 8  95261213.467 8        51.200    23658066.582 9  94050188.981 9        54.700
E10  27082448.141 6 142319236.677 6        39.300    27082472.070 6 106277278.320 6        41.200    27082467.840 6 109049781.488 6        41.600    27082470.094 7 107663524.527 7        45.300
S26  38095465.500 6 200193081.527 6        36.000
> 2023  2 14 10 24 36.0000000  0 42       0.000000000000
G30  21994563.344 7 115582229.798 7        44.200    21994582.285 7  90064130.421 7        42.900    21994582.711 7  90064087.418 7        44.300    21994585.551 8  86311425.885 8        48.700
R09  21658574.961 7 115655603.549 7        44.100    21658574.156 7 115655569.537 7        42.900    21658588.027 7  89954346.906 7        43.500    21658585.566 7  86840610.678 7        43.600
R05  24211806.211 5 129426095.022 5        34.700    24211806.156 5 129425967.015 5        34.000    24211833.227 5 100664639.120 5        33.300
G19  22406926.695 6 117749201.585 6        41.800    22406947.477 5  91752695.714 5        30.700
G11  24857523.305 5 130627173.077 5        34.400    24857545.492 2 101787492.339 2        16.900    24857545.707 6 101787434.330 6        36.900    24857553.824 6  97546267.109 6        40.100
G14  20351764.961 7 106949250.299 7        47.100    20351780.426 6  83337134.920 6        41.100    20351780.703 8  83337103.917 8        52.000    20351787.715 9  79864716.582 9        54.500
G03  22440182.758 6 117923944.283 6        40.500    22440205.477 4  91888879.509 4        29.300    22440206.105 7  91888823.496 7        43.000    22440211.246 7  88060108.294 7        47.300
J02  37105736.344 7 194991951.440 7        43.900    37105736.137 8 194991957.445 8        48.000    37105732.559 7 194991989.584 7        44.300    37105755.004 7 151941816.094 7        47.900    37105759.262 8 145610899.276 8        50.100
J07  36742983.875 6 193085694.913 6        37.600    36742983.852 7 193085652.912 7        42.500    36742978.277 7 193085712.532 7        45.200    36743000.969 8 150456412.123 8        48.400    36743005.973 8 144187389.388 8        50.800
J03  40063484.375 7 210535028.414 7        45.100    40063484.430 8 210535129.423 8        48.000    40063480.828 7 210535060.879 7        46.000    40063503.754 7 164053330.202 7        47.600    40063508.656 8 157217767.022 8        48.900
J04  37106288.266 6 194994863.501 6        39.400    37106288.031 7 194994860.492 7        43.500    37106285.559 6 194994889.225 6        40.000    37106306.621 7 151944079.492 7        42.500    37106312.152 7 145613066.932 7        45.900
R21  20552126.609 8 109978578.255 8        50.100    20552126.254 8 109978581.272 8        49.700    20552142.539 7  85538904.214 7        46.400    20552139.371 7  82404420.456 7        47.200
R22  22411324.141 7 119633184.464 7        43.000    22411323.723 6 119633152.466 6        41.000    22411341.824 6  93048027.885 6        39.400
G17  21781507.391 7 114462609.917 7        44.000    21781526.324 7  89191697.662 7        45.100    21781526.352 7  89191658.656 7        44.600
G07  23673522.953 5 124405215.558 5        35.100    23673540.195 4  96939182.520 4        29.700    23673540.664 5  96939150.558 5        33.800
R11  20889365.055 8 111626446.662 8        49.100    20889365.574 7 111626434.680 7        47.300    20889381.770 7  86820576.323 7        47.100
R10  19290444.367 7 102828905.801 7        44.900    19290442.012 7 102828905.795 7        43.700
G06  21352790.656 7 112209665.114 7        44.900    21352810.211 7  87436181.862 7        47.300    21352811.348 7  87436130.843 7        47.100    21352814.688 8  83792958.691 8        50.200
R20  22038062.859 5 117847413.937 5        34.200    22038061.938 5 117847409.970 5        34.100    22038082.371 6  91659107.865 6        36.300
G01  23299063.531 6 122437411.305 6        37.500    23299090.020 3  95405870.636 3        21.700    23299089.617 6  95405793.684 6        39.200    23299093.082 7  91430550.141 7        43.900
C03  36231251.844 7 188665647.971 7        42.800    36231258.465 7 145888263.729 7        45.300
C11  23486054.328 7 122298052.364 7        43.000    23486067.727 7  94568582.332 7        45.200
C04  38987522.758 5 203018321.942 5        33.800    38987534.723 6 156986648.028 6        37.600
C28  24387629.156 6 126992781.252 6        41.300
C05  38398645.797 5 199951859.247 5        35.800    38398657.629 6 154615481.036 6        39.400
C13  36976902.305 7 192548419.787 7        44.400    36976915.414 7 148890641.412 7        43.200
C25  22284413.969 8 116040810.022 8        49.000
C14  25122360.078 5 130818704.118 5        35.900    25122370.965 6 101157376.235 6        39.600
C01  37504217.188 6 195294338.364 6        38.700    37504228.117 6 151013983.378 6        41.100
C06  39695355.555 5 206704112.530 5        32.800    39695365.164 5 159836784.927 5        35.500
C16  39647522.539 5 206455064.193 5        34.100    39647538.148 5 159644205.121 5        32.700
C23  22611363.484 8 117743311.845 8        50.000
C02  36960443.523 6 192462765.501 6        39.700    36960449.313 7 148824415.121 7        45.100
E12  25020732.172 7 131484834.880 7        43.900    25020749.988 7  98186763.273 7        44.200    25020747.133 7 100748143.386 7        44.900    25020748.949 7  99467399.429 7        47.900
E24  28591982.961 5 150251867.269 5        35.600    28592008.102 6 112201072.331 6        36.200    28592004.918 5 115127996.110 5        35.000
E26  26275958.180 6 138081090.933 6        41.500    26275983.188 7 103112431.208 7        42.300    26275979.313 7 105802389.526 7        43.300    26275981.664 7 104457424.979 7        46.800
E01  23984210.391 8 126037873.764 8        49.400    23984228.492 8  94119240.183 8        50.500    23984225.215 8  96574515.714 8        50.300    23984227.223 8  95346810.558 8        53.900
E31  24466215.945 8 128570838.086 8        49.000    24466237.680 8  96010644.846 8        48.000    24466234.441 8  98515274.049 8        49.000    24466236.438 8  97262979.053 8        51.900
E21  27272483.500 6 143317871.112 6        38.400    27272505.500 6 107023022.302 6        39.500    27272502.184 6 109814990.447 6        40.000    27272504.242 7 108419007.489 7        43.600
E33  23658235.219 8 124324864.191 8        48.600    23658253.000 8  92840053.775 8        50.600    23658249.645 8  95261958.928 8        51.300    23658251.711 9  94050924.959 9        54.500
E10  27082040.492 6 142317095.816 6        40.000    27082064.598 6 106275679.623 6        41.100    27082060.430 6 109048141.097 6        41.200    27082062.688 7 107661904.969 7        44.900
S26  38095459.047 5 200193028.999 5        35.900
> 2023  2 14 10 24 37.0000000  0 42       0.000000000000
G30  21995041.391 7 115584741.343 7        44.200    21995060.102 7  90066087.474 7        43.100    21995060.770 7  90066044.466 7        44.500    21995063.484 8  86313301.386 8        48.800
R09  21659281.281 7 115659377.732 7        44.000    21659281.059 7 115659343.724 7        42.800    21659295.789 7  89957282.379 7        43.600    21659292.293 7  86843444.544 7        43.700
R05  24211505.133 5 129424480.223 5        35.200    24211504.969 5 129424352.187 5        34.100    24211531.691 5 100663383.109 5        33.400
G19  22406718.867 6 117748110.616 6        41.700    22406739.723 4  91751845.616 4        29.800
G11  24856914.133 5 130623973.745 5        34.200    24856936.789 2 101784999.346 2        16.300    24856936.805 6 101784941.362 6        37.400    24856944.957 6  97543878.005 6        39.600
G14  20351640.602 7 106948599.778 7        47.300    20351656.719 6  83336628.026 6        41.300    20351656.859 8  83336597.038 8        52.100    20351663.902 9  79864230.831 9        54.800
G03  22440186.453 6 117923964.556 6        40.600    22440209.406 4  91888895.298 4        29.500    22440210.281 7  91888839.289 7        43.200    22440215.031 7  88060123.436 7        47.200
J02  37105545.625 7 194990950.353 7        44.000    37105545.781 8 194990956.367 8        48.000    37105542.023 7 194990988.504 7        44.400    37105564.574 7 151941036.036 7        47.800    37105568.723 8 145610151.712 8        50.000
J07  36742985.234 6 193085699.286 6        38.100    36742984.633 7 193085657.322 7        42.600    36742978.973 7 193085716.897 7        45.200    36743001.863 8 150456415.559 8        48.500    36743006.879 8 144187392.680 8        50.900
J03  40063555.797 7 210535403.973 7        45.300    40063555.930 8 210535504.966 8        48.000    40063552.383 7 210535436.443 7        45.700    40063575.129 7 164053622.841 7        47.600    40063580.168 8 157218047.459 8        48.400
J04  37106331.875 6 194995091.942 6        39.400    37106331.645 7 194995088.944 7        43.500    37106329.211 6 194995117.667 6        40.100    37106350.273 7 151944257.486 7        42.800    37106355.742 7 145613237.525 7        45.700
R21  20552197.305 8 109978953.309 8        50.000    20552196.527 8 109978956.326 8        49.600    20552212.633 7  85539195.932 7        46.500    20552209.355 7  82404701.471 7        47.300
R22  22410970.070 7 119631296.041 7        43.100    22410969.941 6 119631264.026 6        41.000    22410988.441 6  93046559.112 6        39.700
G17  21781521.578 7 114462686.371 7        43.900    21781540.855 7  89191757.235 7        44.700    21781540.887 7  89191718.231 7        44.200
G07  23674180.555 5 124408672.569 5        34.900    23674198.289 4  96941876.306 4        28.800    23674198.980 5  96941844.302 5        33.800
R11  20888780.758 8 111623320.452 8        49.300    20888780.496 7 111623308.455 7        47.800    20888796.293 7  86818144.826 7        47.000
R10  19290618.008 7 102829835.878 7        44.800    19290616.641 7 102829835.862 7        43.900
G06  21352429.195 7 112207763.520 7        44.900    21352448.512 7  87434700.103 7        47.600    21352449.301 7  87434649.092 7        47.200    21352452.844 8  83791538.668 8        50.300
R20  22038615.336 5 117850376.840 5        34.100    22038615.980 5 117850372.800 5        34.300    22038637.285 6  91661412.301 6        36.300
G01  23299730.328 6 122440914.001 6        37.600    23299756.594 3  95408600.001 3        21.100    23299756.164 6  95408523.056 6        39.600    23299759.605 7  91433165.761 7        43.900
C03  36231245.086 7 188665613.384 7        42.700    36231251.781 7 145888236.990 7        45.100
C11  23486370.281 7 122299697.233 7        43.000    23486383.527 7  94569854.246 7        45.400
C04  38987519.758 5 203018305.093 5        34.300    38987531.355 6 156986634.999 6        38.100
C28  24387405.188 6 126991620.023 6        41.200
C05  38398640.719 6 199951834.015 6        36.200    38398652.840 6 154615461.532 6        39.200
C13  36976687.930 7 192547304.074 7        44.300    36976701.238 7 148889778.672 7        43.000
C25  22284785.156 8 116042740.570 8        48.900
C14  25121960.078 6 130816623.392 6        36.000    25121971.391 6 101155767.285 6        39.700
C01  37504210.891 6 195294306.935 6        38.700    37504221.980 6 151013959.076 6        41.600
C06  39695629.523 5 206705542.072 5        33.600    39695639.535 5 159837890.333 5        35.300
C16  39647790.250 5 206456455.617 5        33.700    39647805.348 5 159645281.060 5        33.200
C23  22611182.063 8 117742367.992 8        49.700
C02  36960440.469 6 192462749.956 6        39.500    36960446.492 7 148824403.093 7        45.400
E12  25020460.555 7 131483406.583 7        43.900    25020478.152 7  98185696.697 7        44.300    25020475.285 7 100747048.991 7        44.700    25020477.160 7  99466318.954 7        47.900
E24  28591486.672 5 150249259.391 5        35.300    28591511.695 6 112199124.869 6        36.000    28591508.457 5 115125997.832 5        35.300
E26  26276428.039 6 138083561.749 6        41.600    26276453.398 7 103114276.315 7        42.700    26276449.176 7 105804282.764 7        42.700    26276451.859 7 104459294.152 7        46.900
E01  23984345.828 8 126038585.729 8        49.600    23984363.965 8  94119771.850 8        50.500    23984360.605 8  96575061.253 8        50.400    23984362.715 9  95347349.167 9        54.400
E31  24465875.383 8 128569048.385 8        49.000    24465897.063 7  96009308.395 7        47.700    24465893.762 8  98513902.730 8        49.300    24465895.871 8  97261625.176 8        52.000
E21  27272914.086 6 143320134.153 6        38.000    27272936.098 6 107024712.239 6        39.600    27272932.930 6 109816724.473 6        40.000    27272934.887 7 108420719.456 7        43.500
E33  23658420.344 8 124325837.325 8        48.600    23658438.188 8  92840780.461 8        51.000    23658434.793 8  95262704.573 8        51.000    23658436.895 9  94051661.124 9        54.300
E10  27081632.633 6 142314955.134 6        39.800    27081656.984 6 106274081.068 6        40.900    27081653.035 6 109046500.838 6        41.500    27081655.332 7 107660285.559 7        45.100
S26  38095450.938 5 200192976.389 5        35.400
> 2023  2 14 10 24 38.0000000  0 42       0.000000000000
G30  21995519.828 7 115587253.281 7        44.400    21995538.262 7  90068044.827 7        43.000    21995538.883 7  90068001.811 7        44.600    21995541.504 8  86315177.186 8        48.300
R09  21659988.523 7 115663152.425 7        44.300    21659987.625 7 115663118.427 7        42.800    21660001.344 7  89960218.258 7        43.600    21659999.297 7  86846278.800 7        43.600
R05  24211203.898 5 129422865.796 5        35.200    24211202.973 5 129422737.809 5        34.000    24211228.531 5 100662127.473 5        33.700
G19  22406511.766 6 117747019.820 6        41.600    22406532.145 5  91750995.645 5        30.500
G11  24856305.445 5 130620774.699 5        34.500    24856327.969 2 101782506.624 2        16.300    24856328.242 6 101782448.625 6        37.400    24856335.793 6  97541489.133 6        39.800
G14  20351516.836 7 106947949.857 7        47.500    20351532.938 6  83336121.594 6        41.400    20351533.348 8  83336090.598 8        52.200    20351540.258 9  79863745.487 9        54.600
G03  22440189.688 6 117923985.493 6        40.700    22440213.543 4  91888911.605 4        29.400    22440214.031 7  91888855.622 7        43.200    22440219.023 7  88060139.094 7        47.000
J02  37105355.078 7 194989949.454 7        44.100    37105355.242 8 194989955.450 8        48.000    37105351.898 7 194989987.604 7        44.400    37105374.031 7 151940256.103 7        47.700    37105378.328 8 145609404.285 8        50.000
J07  36742985.859 6 193085703.840 6        38.000    36742985.609 7 193085661.801 7        42.500    36742979.547 7 193085721.451 7        45.500    36743003.047 8 150456419.062 8        48.600    36743007.672 8 144187396.034 8        50.800
J03  40063627.391 7 210535779.513 7        45.300    40063627.301 7 210535880.512 7        47.900    40063623.641 7 210535811.978 7        45.500    40063646.801 7 164053915.474 7        47.100    40063651.648 8 157218327.907 8        48.500
J04  37106374.859 6 194995320.499 6        39.500    37106375.207 7 194995317.488 7        43.600    37106372.918 6 194995346.223 6        40.100    37106393.488 7 151944435.590 7        42.500    37106399.129 7 145613408.196 7        45.800
R21  20552267.516 8 109979328.855 8        50.300    20552266.512 8 109979331.858 8        49.400    20552282.809 7  85539488.009 7        46.700    20552279.453 7  82404982.849 7        47.300
R22  22410616.781 7 119629408.152 7        43.300    22410616.371 6 119629376.157 6        41.300    22410635.297 6  93045090.749 6        39.800
G17  21781536.359 7 114462762.873 7        44.000    21781555.352 7  89191816.852 7        44.900    21781555.418 7  89191777.857 7        44.000
G07  23674838.500 5 124412129.646 5        35.400    23674856.223 4  96944570.131 4        27.600    23674857.125 5  96944538.109 5        33.500
R11  20888195.273 8 111620194.839 8        49.100    20888195.488 7 111620182.849 7        47.900    20888211.766 7  86815713.805 7        46.600
R10  19290793.820 7 102830766.907 7        44.700    19290791.313 7 102830766.918 7        43.800
G06  21352067.430 7 112205862.482 7        44.900    21352086.563 7  87433218.775 7        47.400    21352087.645 7  87433167.773 7        47.000    21352091.117 8  83790119.063 8        50.500
R20  22039170.328 5 117853339.727 5        34.000    22039170.070 5 117853335.727 5        34.100    22039191.328 6  91663716.781 6        36.400
G01  23300396.195 6 122444416.837 6        37.400    23300423.270 3  95411329.504 3        21.300    23300422.988 6  95411252.528 6        39.800    23300426.117 7  91435781.541 7        43.500
C03  36231238.617 7 188665578.896 7        43.000    36231245.031 7 145888210.319 7        45.000
C11  23486686.086 7 122301342.167 7        43.100    23486699.578 7  94571126.209 7        45.000
C04  38987515.852 5 203018288.412 5        34.700    38987528.297 6 156986622.100 6        38.200
C28  24387182.250 6 126990459.120 6        41.500
C05  38398635.766 6 199951808.872 6        36.200    38398648.051 6 154615442.092 6        39.400
C13  36976473.469 7 192546188.576 7        44.800    36976486.891 7 148888916.098 7        43.000
C25  22285156.016 8 116044671.642 8        48.600
C14  25121560.719 5 130814542.695 5        35.900    25121571.945 6 101154158.361 6        39.400
C01  37504204.773 6 195294275.581 6        38.800    37504216.016 6 151013934.841 6        41.600
C06  39695903.969 5 206706971.532 5        33.700    39695914.113 5 159838995.683 5        35.600
C16  39648058.031 5 206457846.989 5        33.800    39648072.602 5 159646356.958 5        33.700
C23  22611001.078 8 117741424.734 8        49.600
C02  36960437.375 6 192462734.465 6        39.600    36960443.484 7 148824391.121 7        44.900
E12  25020188.719 7 131481978.736 7        43.300    25020206.406 7  98184630.441 7        44.400    25020203.613 7 100745954.915 7        44.700    25020205.449 7  99465238.787 7        47.900
E24  28590990.375 5 150246651.514 5        34.700    28591015.738 6 112197177.468 6        36.000    28591011.789 5 115123999.640 5        35.400
E26  26276898.734 6 138086032.697 6        41.400    26276923.570 7 103116121.505 7        42.100    26276919.516 7 105806176.075 7        42.300    26276922.055 7 104461163.393 7        46.500
E01  23984481.422 8 126039298.166 8        49.600    23984499.516 8  94120303.868 8        50.600    23984496.156 8  96575607.142 8        50.500    23984498.273 9  95347888.116 9        54.400
E31  24465534.977 8 128567258.965 8        49.200    24465556.633 7  96007972.138 7        47.700    24465553.402 8  98512531.625 8        49.100    24465555.340 8  97260271.491 8        51.700
E21  27273344.672 6 143322397.499 6        38.400    27273366.715 6 107026402.404 6        39.700    27273363.383 6 109818458.722 6        40.200    27273365.578 7 108422431.681 7        43.500
E33  23658605.352 8 124326810.841 8        48.600    23658623.379 8  92841507.441 8        51.300    23658620.152 8  95263450.517 8        51.000    23658622.148 9  94052397.585 9        54.400
E10  27081225.430 6 142312814.808 6        39.600    27081249.938 6 106272482.750 6        41.400    27081245.477 6 109044860.853 6        41.700    27081248.027 7 107658666.406 7        45.500
S26  38095438.500 5 200192923.931 5        35.700
> 2023  2 14 10 24 39.0000000  0 42       0.000000000000
G30  21995998.102 7 115589765.498 7        44.200    21996016.297 7  90070002.395 7        43.100    21996016.727 7  90069959.392 7        44.000    21996019.508 8  86317053.190 8        48.400
R09  21660694.953 7 115666927.494 7        44.500    21660694.703 7 115666893.496 7        42.900    21660708.418 7  89963154.413 7        43.900    21660706.113 7  86849113.320 7        43.400
R05  24210902.727 5 129421251.742 5        34.800    24210900.852 5 129421123.719 5        34.100    24210927.504 5 100660872.065 5        33.600
G19  22406303.609 6 117745929.028 6        41.800    22406324.574 5  91750145.679 5        30.500
G11  24855696.516 5 130617575.834 5        34.300    24855719.402 2 101780013.980 2        16.300    24855719.594 6 101779955.997 6        37.200    24855726.773 6  97539100.366 6        39.900
G14  20351393.148 7 106947300.340 7        47.600    20351409.371 6  83335615.487 6        41.700    20351409.664 8  83335584.491 8        52.200    20351416.617 9  79863260.463 9        54.600
G03  22440194.484 6 117924007.053 6        41.100    22440217.512 4  91888928.414 4        29.600    22440218.254 7  91888872.407 7        43.000    22440223.176 7  88060155.177 7        47.000
J02  37105164.875 7 194988948.600 7        43.600    37105164.762 8 194988954.586 8        48.300    37105161.230 7 194988986.743 7        44.500    37105183.512 7 151939476.217 7        47.700    37105187.789 8 145608656.887 8        50.100
J07  36742987.109 6 193085708.262 6        38.600    36742986.332 7 193085666.281 7        42.600    36742980.715 7 193085725.866 7        45.300    36743003.816 8 150456422.559 8        48.400    36743008.508 8 144187399.379 8        50.600
J03  40063698.859 7 210536154.934 7        45.200    40063698.711 8 210536255.941 8        48.000    40063694.832 7 210536187.399 7        45.900    40063718.297 7 164054208.016 7        47.200    40063723.063 8 157218608.258 8        48.800
J04  37106418.547 6 194995549.040 6        39.600    37106418.520 7 194995546.028 7        43.600    37106416.207 6 194995574.765 6        40.600    37106437.266 7 151944613.686 7        42.600    37106442.621 7 145613578.876 7        45.700
R21  20552338.188 8 109979704.728 8        50.800    20552336.801 8 109979707.739 8        49.600    20552353.477 7  85539780.352 7        47.000    20552349.836 7  82405264.486 7        47.300
R22  22410263.852 7 119627520.668 7        43.300    22410262.789 6 119627488.661 6        41.400    22410281.391 6  93043622.701 6        40.200
G17  21781550.750 7 114462839.348 7        43.900    21781569.902 7  89191876.446 7        44.700    21781570.359 7  89191837.435 7        44.500
G07  23675496.406 5 124415586.694 5        35.600    23675514.090 4  96947263.921 4        27.900    23675514.648 5  96947231.902 5        33.800
R11  20887610.836 8 111617069.732 8        49.100    20887610.785 7 111617057.750 7        47.300    20887627.031 7  86813283.184 7        45.900
R10  19290968.164 7 102831698.722 7        44.600    19290966.035 7 102831698.725 7        43.800
G06  21351705.680 7 112203961.907 7        44.700    21351724.980 7  87431737.811 7        47.300    21351725.832 7  87431686.801 7        46.800    21351729.508 8  83788699.802 8        50.700
R20  22039723.594 5 117856302.504 5        34.500    22039723.758 5 117856298.526 5        33.600    22039746.246 6  91666021.203 6        36.000
G01  23301063.430 6 122447919.777 6        37.500    23301089.914 3  95414059.071 3        21.700    23301089.402 6  95413982.051 6        39.600    23301092.730 7  91438397.331 7        43.400
C03  36231231.828 7 188665544.347 7        42.900    36231238.555 7 145888183.606 7        45.100
C11  23487002.195 7 122302987.023 7        43.200    23487015.465 7  94572398.121 7        45.700
C04  38987512.648 5 203018271.659 5        34.800    38987525.223 6 156986609.156 6        38.100
C28  24386959.281 6 126989298.324 6        41.800
C05  38398631.211 5 199951783.706 5        35.900    38398643.289 6 154615422.636 6        39.000
C13  36976259.398 7 192545073.222 7        44.600    36976272.887 7 148888053.647 7        43.200
C25  22285526.797 8 116046603.073 8        48.500
C14  25121160.852 6 130812461.923 6        36.200    25121172.594 6 101152549.384 6        38.800
C01  37504199.156 6 195294244.229 6        38.800    37504209.773 6 151013910.592 6        41.400
C06  39696178.547 5 206708400.860 5        33.800    39696188.785 5 159840100.929 5        35.400
C16  39648324.609 5 206459238.243 5        33.700    39648339.949 5 159647432.761 5        33.800
C23  22610819.945 8 117740481.948 8        49.800
C02  36960434.656 6 192462718.969 6        39.600    36960440.426 7 148824379.138 7        44.600
E12  25019917.000 7 131480551.170 7        43.300    25019934.934 7  98183564.388 7        44.400    25019932.109 7 100744861.066 7        44.700    25019933.781 8  99464158.841 8        48.100
E24  28590493.906 5 150244043.569 5        34.300    28590519.387 6 112195229.958 6        36.000    28590515.848 5 115122001.318 5        35.500
E26  26277368.391 6 138088503.624 6        41.800    26277393.762 7 103117966.647 7        42.100    26277389.758 7 105808069.365 7        42.800    26277392.258 7 104463032.623 7        46.500
E01  23984617.086 8 126040010.913 8        49.600    23984635.121 8  94120836.123 8        50.300    23984631.875 8  96576153.283 8        50.500    23984633.914 9  95348427.310 9        54.200
E31  24465194.352 8 128565469.718 8        49.300    24465216.082 8  96006636.019 8        48.000    24465212.863 8  98511160.638 8        48.600    24465214.852 8  97258917.940 8        51.400
E21  27273775.414 6 143324661.039 6        38.400    27273797.305 6 107028092.679 6        39.700    27273794.203 6 109820193.139 6        40.100    27273796.316 7 108424144.017 7        43.500
E33  23658790.828 8 124327784.605 8        48.500    23658808.609 8  92842234.596 8        51.000    23658805.438 8  95264196.642 8        51.200    23658807.465 9  94053134.227 9        54.500
E10  27080818.031 6 142310674.669 6        39.300    27080842.684 6 106270884.600 6        41.100    27080838.406 6 109043221.015 6        41.200    27080840.773 7 107657047.410 7        45.100
S26  38095422.203 5 200192871.358 5        35.600
> 2023  2 14 10 24 40.0000000  0 42       -.000000002000
G30  21996475.984 7 115592278.009 7        44.400    21996494.465 7  90071960.200 7        43.300    21996495.289 7  90071917.195 7        44.500    21996497.613 8  86318929.416 8        48.500
R09  21661401.922 7 115670702.951 7        44.400    21661401.703 7 115670668.956 7        42.900    21661415.758 7  89966090.887 7        43.600    21661413.180 7  86851948.147 7        43.600
R05  24210600.852 5 129419638.010 5        34.900    24210598.430 5 129419510.002 5        34.000    24210625.496 5 100659616.921 5        33.400
G19  22406096.594 6 117744838.289 6        41.900    22406116.945 5  91749295.769 5        31.300
G11  24855088.617 5 130614377.167 5        34.300    24855110.605 2 101777521.532 2        16.300    24855110.613 6 101777463.509 6        36.900    24855117.816 6  97536711.746 6        39.500
G14  20351270.141 7 106946651.296 7        47.800    20351285.793 7  83335109.736 7        42.000    20351286.090 8  83335078.732 8        52.100    20351293.105 9  79862775.780 9        54.500
G03  22440198.766 6 117924029.165 6        40.800    22440221.809 4  91888945.649 4        29.700    22440222.246 7  91888889.642 7        43.200    22440227.313 7  88060171.689 7        47.200
J02  37104974.625 7 194987947.789 7        43.900    37104974.176 8 194987953.802 8        48.000    37104970.973 7 194987985.938 7        45.000    37104993.188 7 151938696.381 7        47.600    37104997.344 8 145607909.542 8        50.200
J07  36742987.422 6 193085712.732 6        38.000    36742987.258 7 193085670.736 7        42.400    36742981.746 7 193085730.336 7        45.300    36743004.363 8 150456426.017 8        48.500    36743009.352 8 144187402.707 8        50.800
J03  40063770.453 7 210536530.271 7        45.000    40063770.273 7 210536631.276 7        47.900    40063766.781 7 210536562.738 7        45.800    40063789.254 7 164054500.474 7        47.000    40063794.488 8 157218888.534 8        48.500
J04  37106462.328 6 194995777.618 6        39.600    37106462.059 7 194995774.631 7        43.500    37106459.629 6 194995803.342 6        40.500    37106480.801 7 151944791.813 7        42.600    37106486.156 7 145613749.580 7        45.800
R21  20552407.406 8 109980081.007 8        50.800    20552407.223 8 109980084.025 8        49.600    20552424.137 7  85540073.012 7        47.100    20552420.043 7  82405546.428 7        47.500
R22  22409909.359 7 119625633.627 7        42.800    22409909.344 6 119625601.614 6        41.100    22409927.867 6  93042154.993 6        40.000
G17  21781565.172 7 114462915.794 7        43.800    21781584.391 7  89191936.015 7        45.000    21781584.512 7  89191896.996 7        44.700
G07  23676154.578 5 124419043.690 5        35.400    23676172.051 4  96949957.697 4        28.300    23676172.340 5  96949925.693 5        34.200
R11  20887026.539 8 111613945.127 8        48.600    20887025.961 7 111613933.123 7        47.600    20887041.902 7  86810852.940 7        45.800
R10  19291142.695 7 102832631.390 7        44.600    19291141.008 7 102832631.397 7        43.900
G06  21351344.258 7 112202061.798 7        44.900    21351363.371 7  87430257.211 7        47.500    21351364.199 7  87430206.216 7        46.800    21351367.969 8  83787280.912 8        50.600
R20  22040278.367 5 117859265.283 5        34.900    22040277.957 5 117859261.317 5        33.400    22040300.543 6  91668325.578 6        36.500
G01  23301730.086 6 122451422.741 6        37.600    23301756.480 3  95416788.647 3        21.300    23301756.328 6  95416711.658 6        39.600    23301759.223 7  91441013.201 7        43.600
C03  36231225.273 7 188665509.805 7        42.900    36231231.965 7 145888156.896 7        45.600
C11  23487318.102 7 122304631.874 7        43.400    23487331.598 7  94573670.023 7        45.500
C04  38987509.906 5 203018254.909 5        34.700    38987522.027 6 156986596.202 6        37.900
C28  24386736.570 6 126988137.741 6        41.900
C05  38398626.781 5 199951758.597 5        35.800    38398638.574 6 154615403.216 6        38.900
C13  36976045.070 7 192543957.983 7        44.500    36976058.809 7 148887191.267 7        43.200
C25  22285897.969 8 116048534.923 8        48.800
C14  25120761.250 6 130810381.109 6        36.400    25120772.957 6 101150940.362 6        39.400
C01  37504193.070 6 195294212.839 6        38.900    37504203.781 6 151013886.323 6        41.600
C06  39696452.547 5 206709830.141 5        33.400    39696463.242 6 159841206.136 6        36.600
C16  39648592.273 5 206460629.423 5        33.800    39648607.027 5 159648508.499 5        34.500
C23  22610639.016 8 117739539.658 8        49.700
C02  36960431.242 6 192462703.475 6        39.500    36960437.516 7 148824367.155 7        44.900
E12  25019645.516 7 131479123.901 7        43.300    25019663.297 7  98182498.589 7        44.600    25019660.469 7 100743767.442 7        44.900    25019662.176 8  99463079.125 8        48.200
E24  28589997.563 5 150241435.525 5        35.100    28590023.176 6 112193282.415 6        36.200    28590019.441 6 115120002.939 6        36.000
E26  26277838.711 6 138090974.538 6        41.700    26277864.027 7 103119811.819 7        42.100    26277859.977 7 105809962.684 7        43.100    26277862.473 7 104464901.858 7        46.400
E01  23984752.867 8 126040724.022 8        49.700    23984770.879 8  94121368.636 8        50.400    23984767.563 8  96576699.689 8        50.800    23984769.617 9  95348966.774 9        54.000
E31  24464853.797 8 128563680.649 8        49.100    24464875.648 8  96005300.027 8        48.200    24464872.391 8  98509789.806 8        49.000    24464874.395 8  97257564.528 8        51.900
E21  27274205.930 6 143326924.760 6        38.600    27274228.121 6 107029783.177 6        40.300    27274225.098 6 109821927.667 6        40.100    27274227.082 7 108425856.545 7        44.000
E33  23658976.125 8 124328758.654 8        48.600    23658994.004 8  92842961.977 8        50.900    23658990.664 8  95264942.992 8        51.000    23658992.801 9  94053871.093 9        54.500
E10  27080410.633 6 142308534.793 6        39.100    27080435.391 6 106269286.667 6        41.200    27080431.293 6 109041581.362 6        41.500    27080433.578 7 107655428.627 7        45.100
S26  38095413.375 5 200192818.834 5        35.800
> 2023  2 14 10 24 41.0000000  0 42       0.000000000000
G30  21996953.789 7 115594790.825 7        44.400    21996972.582 7  90073918.239 7        43.400    21996972.852 7  90073875.233 7        44.500    21996975.883 8  86320805.876 8        48.700
R09  21662109.172 7 115674478.831 7        44.500    21662108.844 7 115674444.838 7        42.900    21662122.277 7  89969027.692 7        43.700    21662120.211 7  86854783.282 7        43.400
R05  24210298.117 5 129418024.682 5        35.000    24210296.371 5 129417896.688 5        34.000    24210322.898 5 100658362.127 5        33.400
G19  22405888.766 6 117743747.636 6        41.900    22405909.402 5  91748445.918 5        31.100
G11  24854479.703 5 130611178.721 5        34.200    24854502.035 2 101775029.228 2        16.300    24854501.578 6 101774971.195 6        37.000    24854508.891 6  97534323.270 6        40.000
G14  20351146.609 7 106946002.702 7        47.500    20351162.398 6  83334604.342 6        41.600    20351162.734 8  83334573.346 8        51.800    20351169.664 9  79862291.453 9        54.600
G03  22440203.383 6 117924051.907 6        40.400    22440226.207 4  91888963.367 4        29.700    22440227.184 7  91888907.343 7        43.000    22440231.609 7  88060188.667 7        47.500
J02  37104784.109 7 194986947.100 7        43.700    37104783.855 8 194986953.093 8        48.000    37104780.184 7 194986985.249 7        44.900    37104802.422 7 151937916.614 7        47.900    37104806.969 8 145607162.272 8        50.100
J07  36742988.391 6 193085717.197 6        38.100    36742988.043 7 193085675.204 7        42.600    36742982.559 7 193085734.808 7        45.400    36743005.309 8 150456429.512 8        48.500    36743010.215 8 144187406.043 8        51.000
J03  40063841.703 7 210536905.519 7        45.100    40063841.707 8 210537006.518 8        48.000    40063837.938 7 210536937.984 7        45.800    40063860.824 7 164054792.889 7        47.200    40063865.902 8 157219168.756 8        48.800
J04  37106506.297 6 194996006.225 6        39.700    37106505.410 7 194996003.235 7        43.600    37106503.188 6 194996031.950 6        40.200    37106524.355 7 151944969.957 7        42.800    37106529.723 7 145613920.292 7        45.500
R21  20552478.016 8 109980457.707 8        50.700    20552477.660 8 109980460.716 8        49.500    20552494.395 7  85540366.008 7        46.700    20552490.492 7  82405828.681 7        47.300
R22  22409555.617 7 119623747.057 7        43.000    22409555.688 6 119623715.045 6        41.000    22409575.113 6  93040687.665 6        40.300
G17  21781579.680 7 114462992.195 7        43.900    21781598.992 7  89191995.554 7        44.900    21781599.184 7  89191956.554 7        44.700
G07  23676812.586 5 124422500.661 5        35.800    23676829.914 4  96952651.425 4        28.000    23676829.656 5  96952619.432 5        34.100
R11  20886441.297 8 111610821.083 8        48.700    20886441.254 7 111610809.086 7        47.300    20886458.039 7  86808423.130 7        45.900
R10  19291318.117 7 102833564.916 7        44.800    19291316.297 7 102833564.925 7        44.000
G06  21350982.742 7 112200162.212 7        44.900    21351002.055 7  87428777.013 7        47.700    21351002.590 7  87428726.010 7        46.700    21351006.391 8  83785862.393 8        50.700
R20  22040832.961 5 117862227.993 5        34.500    22040832.379 5 117862223.984 5        33.900    22040853.734 6  91670629.906 6        36.200
G01  23302396.242 6 122454925.821 6        37.600    23302423.109 3  95419518.320 3        21.500    23302422.973 6  95419441.310 6        39.800    23302425.832 7  91443629.109 7        43.500
C03  36231218.609 7 188665475.270 7        43.000    36231225.227 7 145888130.189 7        45.300
C11  23487634.109 7 122306276.718 7        43.200    23487647.570 7  94574941.918 7        45.700
C04  38987506.359 5 203018238.192 5        34.900    38987518.809 6 156986583.279 6        37.600
C28  24386513.742 6 126986977.344 6        41.800
C05  38398621.758 6 199951733.431 6        36.100    38398633.750 6 154615383.758 6        39.300
C13  36975830.867 7 192542842.915 7        44.000    36975844.469 7 148886329.032 7        43.200
C25  22286268.945 8 116050467.193 8        48.700
C14  25120362.414 6 130808300.277 6        36.400    25120373.254 6 101149331.341 6        39.400
C01  37504186.992 6 195294181.500 6        38.600    37504197.785 6 151013862.101 6        41.600
C06  39696727.828 5 206711259.338 5        33.400    39696737.516 6 159842311.286 6        36.400
C16  39648858.977 5 206462020.479 5        34.500    39648874.430 5 159649584.153 5        34.000
C23  22610458.219 8 117738597.871 8        49.800
C02  36960428.188 6 192462687.960 6        39.700    36960434.672 7 148824355.161 7        45.000
E12  25019373.797 7 131477697.002 7        43.400    25019391.645 7  98181433.061 7        44.000    25019388.789 7 100742674.125 7        44.900    25019390.660 7  99461999.693 7        47.600
E24  28589501.258 5 150238827.453 5        35.600    28589527.094 6 112191334.759 6        36.200    28589523.297 5 115118004.514 5        35.400
E26  26278309.156 6 138093445.501 6        41.400    26278333.938 7 103121657.002 7        42.100    26278330.133 7 105811855.998 7        43.200    26278332.688 7 104466771.108 7        46.200
E01  23984888.516 8 126041437.500 8        50.100    23984906.602 8  94121901.423 8        50.900    23984903.328 8  96577246.375 8        51.000    23984905.371 9  95349506.509 9        54.400
E31  24464513.641 8 128561891.794 8        48.900    24464535.262 8  96003964.208 8        48.300    24464532.008 8  98508419.129 8        49.000    24464533.988 8  97256211.273 8        51.900
E21  27274636.969 6 143329188.752 6        38.600    27274658.965 6 107031473.779 6        40.200    27274655.926 6 109823662.396 6        40.000    27274657.887 7 108427569.206 7        43.900
E33  23659161.711 8 124329732.996 8        48.600    23659179.398 8  92843689.577 8        50.800    23659176.191 8  95265689.570 8        51.200    23659178.215 9  94054608.188 9        54.100
E10  27080004.023 6 142306395.165 6        39.100    27080028.020 6 106267688.887 6        40.900    27080024.191 6 109039941.897 6        41.000    27080026.414 7 107653810.001 7        44.900
S26  38095408.969 5 200192766.339 5        35.800
> 2023  2 14 10 24 42.0000000  0 42       0.000000000000
G30  21997432.195 7 115597303.928 7        44.400    21997450.879 7  90075876.501 7        43.500    21997451.055 7  90075833.514 7        44.600    21997454.035 8  86322682.544 8        48.600
R09  21662815.547 7 115678255.118 7        44.300    21662816.090 7 115678221.124 7        43.000    21662830.789 7  89971964.802 7        43.700    21662827.613 7  86857618.739 7        43.600
R05  24209995.938 5 129416411.672 5        35.000    24209994.863 5 129416283.688 5        34.200    24210021.066 5 100657107.488 5        33.700
G19  22405681.344 6 117742656.979 6        41.700    22405701.863 5  91747596.065 5        30.600
G11  24853871.195 5 130607980.402 5        34.300    24853893.398 2 101772537.021 2        15.600    24853892.887 6 101772479.048 6        37.100    24853900.199 6  97531934.949 6        39.400
G14  20351023.305 7 106945354.568 7        47.400    20351038.945 6  83334099.302 6        41.300    20351039.418 8  83334068.298 8        51.600    20351046.367 9  79861807.450 9        54.500
G03  22440207.875 6 117924075.222 6        40.800    22440230.719 4  91888981.538 4        29.300    22440231.648 7  91888925.502 7        43.200    22440236.063 7  88060206.071 7        47.600
J02  37104592.984 7 194985946.443 7        43.900    37104593.527 8 194985952.456 8        48.000    37104590.000 7 194985984.593 7        44.600    37104611.996 8 151937136.890 8        48.200    37104616.445 8 145606415.040 8        50.200
J07  36742989.109 6 193085721.632 6        38.100    36742988.883 7 193085679.658 7        42.400    36742983.324 7 193085739.243 7        45.500    36743006.230 8 150456432.968 8        48.300    36743011.016 8 144187409.362 8        51.000
J03  40063912.953 7 210537280.641 7        44.500    40063913.094 7 210537381.654 7        47.900    40063909.633 7 210537313.110 7        45.800    40063932.281 7 164055085.195 7        47.200    40063937.305 8 157219448.891 8        49.000
J04  37106549.656 6 194996234.842 6        39.600    37106548.898 7 194996231.850 7        43.500    37106546.617 6 194996260.566 6        40.400    37106567.730 7 151945148.092 7        42.500    37106573.156 7 145614091.011 7        45.800
R21  20552548.750 8 109980834.761 8        50.300    20552547.992 8 109980837.764 8        49.800    20552564.625 7  85540659.275 7        46.200    20552560.918 7  82406111.199 7        47.400
R22  22409202.023 7 119621860.852 7        42.700    22409202.145 6 119621828.861 6        41.100    22409221.203 6  93039220.635 6        40.400
G17  21781594.195 7 114463068.555 7        43.800    21781613.414 7  89192055.059 7        44.900    21781613.836 7  89192016.046 7        44.300
G07  23677470.508 6 124425957.605 6        36.100    23677487.605 4  96955345.152 4        27.600    23677487.574 5  96955313.134 5        33.800
R11  20885856.484 8 111607697.538 8        49.000    20885856.941 7 111607685.557 7        47.500    20885873.348 7  86805993.709 7        46.400
R10  19291492.648 7 102834499.249 7        44.700    19291491.500 7 102834499.237 7        43.900
G06  21350621.391 7 112198263.072 7        44.800    21350640.578 7  87427297.167 7        47.400    21350641.242 7  87427246.164 7        46.500    21350644.977 8  83784444.200 8        50.500
R20  22041387.398 5 117865190.695 5        34.300    22041386.438 5 117865186.642 5        34.300    22041408.254 5  91672934.176 5        35.900
G01  23303062.891 6 122458428.946 6        37.500    23303089.813 3  95422248.032 3        22.200    23303089.645 6  95422171.031 6        40.000    23303092.488 7  91446245.098 7        43.700
C03  36231212.141 7 188665440.714 7        42.800    36231218.586 7 145888103.473 7        45.300
C11  23487949.820 7 122307921.504 7        43.400    23487963.426 7  94576213.772 7        45.100
C04  38987503.031 5 203018221.413 5        34.500    38987515.594 6 156986570.306 6        37.800
C28  24386290.789 6 126985817.135 6        41.900
C05  38398616.578 6 199951708.232 6        36.100    38398628.965 6 154615364.280 6        39.300
C13  36975617.117 7 192541727.961 7        44.400    36975630.324 7 148885466.874 7        43.100
C25  22286640.016 8 116052399.854 8        49.100
C14  25119963.063 6 130806219.318 6        36.500    25119973.824 6 101147722.209 6        39.300
C01  37504181.047 6 195294150.093 6        38.700    37504191.902 6 151013837.807 6        41.600
C06  39697001.984 5 206712688.369 5        33.500    39697012.070 6 159843416.296 6        36.000
C16  39649126.781 5 206463411.381 5        34.300    39649141.363 5 159650659.690 5        33.800
C23  22610277.461 8 117737656.563 8        49.800
C02  36960425.367 6 192462672.415 6        39.700    36960431.691 7 148824343.143 7        44.900
E12  25019102.531 7 131476270.401 7        43.500    25019120.180 7  98180367.734 7        44.200    25019117.297 7 100741580.999 7        44.900    25019119.168 8  99460920.477 8        48.000
E24  28589005.102 5 150236219.220 5        35.300    28589030.746 6 112189387.075 6        36.600    28589027.172 5 115116006.029 5        35.700
E26  26278778.898 6 138095916.483 6        41.400    26278804.242 6 103123502.231 6        41.900    26278800.262 7 105813749.353 7        43.100    26278802.891 7 104468640.392 7        46.200
E01  23985024.250 8 126042151.302 8        50.100    23985042.469 8  94122434.466 8        50.700    23985039.215 8  96577793.325 8        50.500    23985041.211 8  95350046.502 8        53.800
E31  24464173.102 8 128560103.096 8        49.200    24464194.918 8  96002628.500 8        48.300    24464191.582 8  98507048.575 8        49.100    24464193.609 8  97254858.144 8        51.900
E21  27275068.047 6 143331452.878 6        38.600    27275089.898 6 107033164.541 6        40.400    27275086.633 6 109825397.261 6        40.200    27275088.727 7 108429282.027 7        44.000
E33  23659347.172 8 124330707.619 8        48.500    23659364.922 8  92844417.385 8        51.100    23659361.566 8  95266436.359 8        51.000    23659363.695 9  94055345.480 9        54.400
E10  27079596.828 6 142304255.753 6        39.000    27079620.824 6 106266091.240 6        41.000    27079616.828 6 109038302.611 6        41.500    27079619.281 7 107652191.535 7        44.600
S26  38095396.141 5 200192713.790 5        35.900
> 2023  2 14 10 24 43.0000000  0 42       0.000000000000
G30  21997910.164 7 115599817.361 7        44.500    21997929.066 7  90077835.021 7        43.400    21997929.406 7  90077792.005 7        44.500    21997932.383 8  86324559.449 8        48.400
R09  21663523.219 7 115682031.826 7        44.400    21663523.305 7 115681997.839 7        42.900    21663537.426 7  89974902.236 7        43.500    21663534.660 7  86860454.514 7        43.700
R05  24209693.586 5 129414799.010 5        35.500    24209693.340 5 129414670.992 5        34.300    24209721.422 5 100655853.192 5        33.900
G19  22405473.813 6 117741566.394 6        41.500    22405494.254 5  91746746.262 5        31.900
G11  24853263.023 5 130604782.294 5        34.400    24853284.914 2 101770045.004 2        15.600    24853284.691 6 101769987.050 6        36.600    24853291.738 6  97529546.779 6        39.300
G14  20350899.844 7 106944706.885 7        47.600    20350915.902 6  83333594.623 6        41.000    20350916.180 8  83333563.611 8        51.700    20350923.148 9  79861323.803 9        54.800
G03  22440212.398 6 117924099.115 6        40.900    22440235.188 4  91889000.153 4        29.700    22440236.086 7  91888944.147 7        43.400    22440240.645 7  88060223.928 7        47.300
J02  37104403.172 7 194984945.876 7        43.700    37104403.031 8 194984951.893 8        48.100    37104399.387 7 194984984.020 7        44.300    37104421.516 8 151936357.249 8        48.000    37104426.141 8 145605667.872 8        50.300
J07  36742989.703 6 193085726.056 6        38.400    36742989.863 7 193085684.079 7        42.500    36742984.043 7 193085743.667 7        45.200    36743006.961 8 150456436.446 8        48.200    36743011.922 8 144187412.685 8        51.300
J03  40063984.266 7 210537655.711 7        44.500    40063984.340 7 210537756.702 7        47.800    40063980.762 7 210537688.178 7        45.200    40064004.137 7 164055377.445 7        47.500    40064008.613 8 157219728.966 8        48.800
J04  37106593.203 6 194996463.493 6        39.700    37106592.543 7 194996460.490 7        43.700    37106590.262 6 194996489.218 6        40.700    37106611.617 7 151945326.265 7        42.900    37106616.645 7 145614261.770 7        46.200
R21  20552619.648 8 109981212.222 8        50.500    20552618.457 8 109981215.233 8        49.900    20552634.254 7  85540952.843 7        46.200    20552631.496 7  82406394.012 7        47.500
R22  22408848.508 7 119619975.122 7        42.300    22408848.938 6 119619943.109 6        41.100    22408867.957 6  93037753.950 6        40.700
G17  21781608.906 7 114463144.885 7        43.700    21781627.926 7  89192114.539 7        45.200    21781628.320 7  89192075.540 7        44.600
G07  23678128.508 6 124429414.558 6        36.500    23678145.461 4  96958038.880 4        27.900    23678145.945 5  96958006.820 5        34.100
R11  20885271.977 8 111604574.533 8        49.100    20885272.355 7 111604562.536 7        47.400    20885288.664 7  86803564.687 7        46.300
R10  19291667.961 7 102835434.438 7        44.500    19291667.012 7 102835434.434 7        44.000
G06  21350259.672 7 112196364.450 7        45.000    21350279.215 7  87425817.727 7        47.500    21350279.816 7  87425766.724 7        46.700    21350283.734 8  83783026.397 8        50.200
R20  22041941.375 5 117868153.284 5        34.400    22041940.445 5 117868149.296 5        34.400    22041961.047 6  91675238.429 6        36.300
G01  23303729.328 6 122461932.174 6        37.600    23303756.371 3  95424977.805 3        21.800    23303756.066 6  95424900.823 6        39.700    23303758.996 7  91448861.150 7        43.600
C03  36231205.602 7 188665406.167 7        42.900    36231212.066 7 145888076.758 7        45.300
C11  23488266.148 7 122309566.284 7        43.100    23488279.211 7  94577485.619 7        44.700
C04  38987499.703 5 203018204.662 5        34.600    38987512.508 6 156986557.367 6        37.900
C28  24386068.383 7 126984657.123 7        42.100
C05  38398611.508 5 199951683.032 5        35.800    38398624.195 6 154615344.793 6        38.900
C13  36975402.938 7 192540613.165 7        44.500    36975416.188 7 148884604.845 7        43.000
C25  22287011.141 8 116054332.925 8        49.200
C14  25119562.313 6 130804138.352 6        36.300    25119573.949 6 101146113.072 6        39.000
C01  37504175.367 6 195294118.723 6        38.800    37504185.879 6 151013813.557 6        41.700
C06  39697276.672 5 206714117.348 5        33.500    39697286.270 6 159844521.265 6        36.200
C16  39649393.586 5 206464802.228 5        34.000    39649408.656 5 159651735.188 5        33.500
C23  22610096.781 8 117736715.771 8        49.800
C02  36960422.617 6 192462656.894 6        39.800    36960428.504 7 148824331.142 7        44.700
E12  25018831.172 7 131474844.135 7        43.600    25018848.895 7  98179302.668 7        44.500    25018845.973 7 100740488.144 7        45.100    25018847.766 8  99459841.514 8        48.300
E24  28588509.289 5 150233611.017 5        35.600    28588534.797 6 112187439.370 6        36.200    28588530.570 5 115114007.471 5        35.500
E26  26279249.063 6 138098387.463 6        41.500    26279274.457 6 103125347.421 6        41.900    26279270.512 7 105815642.689 7        43.000    26279273.121 7 104470509.672 7        46.300
E01  23985160.234 8 126042865.462 8        50.000    23985178.344 8  94122967.770 8        50.400    23985174.988 8  96578340.547 8        50.900    23985177.098 9  95350586.768 9        54.000
E31  24463832.820 8 128558314.606 8        48.900    24463854.578 8  96001292.956 8        48.500    24463851.227 8  98505678.193 8        49.100    24463853.262 8  97253505.179 8        52.200
E21  27275498.969 6 143333717.224 6        38.300    27275520.707 6 107034855.500 6        40.200    27275517.258 6 109827132.333 6        40.200    27275519.625 7 108430995.024 7        44.400
E33  23659532.703 8 124331682.541 8        49.000    23659550.469 8  92845145.395 8        50.800    23659547.141 8  95267183.370 8        51.300    23659549.211 9  94056082.995 9        54.300
E10  27079189.453 6 142302116.576 6        39.100    27079213.844 6 106264493.843 6        41.200    27079209.926 6 109036663.523 6        41.400    27079212.203 7 107650573.290 7        44.900
S26  38095383.047 5 200192661.301 5        35.600
> 2023  2 14 10 24 44.0000000  0 42       0.000000000000
G30  21998388.781 7 115602331.078 7        44.600    21998407.520 7  90079793.755 7        43.600    21998408.266 7  90079750.767 7        44.500    21998410.844 8  86326436.589 8        48.200
R09  21664231.422 7 115685808.955 7        44.400    21664230.738 7 115685774.946 7        42.500    21664244.965 7  89977839.986 7        43.800    21664242.105 7  86863290.557 7        43.500
R05  24209392.664 5 129413186.663 5        35.900    24209391.605 5 129413058.677 5        34.100    24209419.941 5 100654599.142 5        34.200
G19  22405265.695 6 117740475.892 6        41.600    22405286.715 5  91745896.528 5        31.700
G11  24852654.602 5 130601584.433 5        34.300    24852676.402 2 101767553.169 2        16.300    24852676.016 6 101767495.181 6        36.700    24852683.098 6  97527158.747 6        39.200
G14  20350776.523 7 106944059.682 7        47.500    20350792.770 6  83333090.310 6        40.900    20350793.074 8  83333059.306 8        51.500    20350799.961 9  79860840.507 9        54.500
G03  22440216.742 6 117924123.634 6        41.300    22440240.004 4  91889019.260 4        29.000    22440240.777 7  91888963.259 7        43.400    22440245.375 7  88060242.244 7        47.200
J02  37104212.609 7 194983945.417 7        43.600    37104212.660 8 194983951.426 8        48.000    37104209.285 7 194983983.569 7        44.600    37104231.656 8 151935577.652 8        48.000    37104235.730 8 145604920.774 8        50.100
J07  36742990.172 6 193085730.503 6        38.100    36742990.656 7 193085688.555 7        42.400    36742985.336 7 193085748.109 7        45.300    36743007.707 8 150456439.906 8        48.200    36743012.746 8 144187416.014 8        51.300
J03  40064055.625 7 210538030.671 7        44.500    40064055.652 8 210538131.684 8        48.000    40064052.031 7 210538063.144 7        45.300    40064074.926 7 164055669.643 7        47.600    40064079.973 8 157220008.979 8        48.800
J04  37106636.250 6 194996692.181 6        39.900    37106636.145 7 194996689.204 7        43.500    37106633.797 6 194996717.906 6        40.800    37106654.813 7 151945504.454 7        42.600    37106660.281 7 145614432.544 7        45.800
R21  20552689.219 8 109981590.082 8        50.100    20552689.223 8 109981593.092 8        49.500    20552705.508 7  85541246.763 7        46.300    20552702.137 7  82406677.153 7        47.400
R22  22408495.484 7 119618089.815 7        42.300    22408495.898 6 119618057.794 6        41.000    22408515.398 6  93036287.578 6        40.400
G17  21781623.609 7 114463221.199 7        43.800    21781642.559 7  89192174.011 7        44.900    21781642.684 7  89192135.003 7        44.500
G07  23678786.328 6 124432871.427 6        36.100    23678803.227 4  96960732.545 4        27.800    23678803.516 5  96960700.560 5        33.900
R11  20884687.766 8 111601452.045 8        48.800    20884688.113 7 111601440.048 7        47.400    20884703.852 7  86801136.120 7        46.000
R10  19291843.188 7 102836370.468 7        44.700    19291842.328 7 102836370.464 7        44.000
G06  21349898.766 7 112194466.301 7        44.800    21349918.031 7  87424338.653 7        47.300    21349918.766 7  87424287.644 7        46.800    21349922.555 8  83781608.961 8        50.300
R20  22042495.555 5 117871115.840 5        34.800    22042494.219 5 117871111.872 5        33.900    22042515.418 6  91677542.687 6        36.300
G01  23304395.922 6 122465435.523 6        36.700    23304423.000 3  95427707.686 3        21.700    23304422.527 6  95427630.682 6        39.500    23304425.852 7  91451477.267 7        43.100
C03  36231199.078 7 188665371.627 7        42.900    36231205.535 7 145888050.051 7        45.700
C11  23488581.789 7 122311211.055 7        42.700    23488594.887 7  94578757.458 7        44.600
C04  38987496.961 5 203018187.935 5        35.200    38987509.359 6 156986544.429 6        37.900
C28  24385845.203 7 126983497.307 7        42.100
C05  38398606.461 5 199951657.872 5        35.900    38398619.273 6 154615325.336 6        39.200
C13  36975189.023 7 192539498.539 7        44.700    36975202.242 7 148883742.959 7        42.700
C25  22287382.414 8 116056266.423 8        49.500
C14  25119162.742 6 130802057.401 6        36.500    25119174.324 6 101144503.959 6        38.700
C01  37504168.320 6 195294087.334 6        39.000    37504179.867 6 151013789.287 6        41.600
C06  39697550.734 5 206715546.236 5        33.600    39697560.680 6 159845626.175 6        36.100
C16  39649660.516 5 206466192.955 5        34.600    39649675.719 5 159652810.587 5        33.700
C23  22609916.039 8 117735775.492 8        49.600
C02  36960419.555 6 192462641.380 6        39.900    36960425.609 7 148824319.144 7        44.600
E12  25018559.617 7 131473418.190 7        44.000    25018577.484 7  98178237.848 7        44.300    25018574.504 7 100739395.567 7        44.900    25018576.418 8  99458762.812 8        48.000
E24  28588013.023 5 150231002.712 5        35.300    28588038.496 6 112185491.559 6        36.400    28588034.555 5 115112008.936 5        35.200
E26  26279719.656 6 138100858.455 6        41.600    26279744.742 6 103127192.641 6        41.800    26279740.844 7 105817536.051 7        43.300    26279743.324 7 104472378.955 7        46.700
E01  23985296.180 8 126043579.994 8        50.100    23985314.301 8  94123501.351 8        50.400    23985311.113 8  96578888.043 8        51.000    23985313.082 9  95351127.305 9        54.000
E31  24463492.477 8 128556526.317 8        48.900    24463514.258 8  95999957.540 8        48.400    24463510.926 8  98504307.946 8        49.100    24463512.961 8  97252152.356 8        52.200
E21  27275929.523 6 143335981.826 6        38.400    27275951.836 6 107036546.596 6        40.100    27275948.430 6 109828867.532 6        39.900    27275950.555 7 108432708.163 7        43.600
E33  23659718.297 8 124332657.740 8        48.900    23659736.016 8  92845873.635 8        51.000    23659732.727 8  95267930.611 8        51.300    23659734.789 9  94056820.736 9        54.200
E10  27078782.805 6 142299977.678 6        39.000    27078806.926 6 106262896.588 6        40.900    27078802.828 6 109035024.609 6        41.300    27078805.191 7 107648955.201 7        44.500
S26  38095376.703 5 200192608.739 5        35.800
