     3.03           OBSERVATION DATA    M: Mixed            RINEX VERSION / TYPE
RTKCONV 2.4.3 b34                       20250227 094328 UTC PGM / RUN BY / DATE 
format: RINEX                                               COMMENT             
log: E:\Nguyends_doa\RX\RX1\RinexObservables_20180216_082110COMMENT             
                                                            MARKER NAME         
                                                            MARKER NUMBER       
                                                            MARKER TYPE         
                                                            OBSERVER / AGENCY   
                                                            REC # / TYPE / VERS 
                                                            ANT # / TYPE        
        0.0000        0.0000        0.0000                  APPROX POSITION XYZ 
        0.0000        0.0000        0.0000                  ANTENNA: DELTA H/E/N
G    4 C1C L1C D1C S1C                                      SYS / # / OBS TYPES 
  2018    02    16    08    21   11.0000000     GPS         TIME OF FIRST OBS   
  2018    02    16    08    25   15.0000000     GPS         TIME OF LAST OBS    
G L1C                                                       SYS / PHASE SHIFT   
  0                                                         GLONASS SLOT / FRQ #
 C1C    0.000 C1P    0.000 C2C    0.000 C2P    0.000        GLONASS COD/PHS/BIS 
                                                            END OF HEADER       
> 2018 02 16 08 21 11.0000000  0  8                     
G05  23980648.573     -203255.6661       3636.170          53.000  
G09  20098808.202       36820.5841       -627.678          53.000  
G23  22294412.168      121770.8221      -2047.276          53.000  
G10  21032269.987       77928.6311      -1309.333          53.000  
G11  21104941.803     -139355.4061       2304.829          53.000  
G30  22396952.002     -209975.4351       3611.844          53.000  
G01  22084920.317      -80694.1331       1375.606          53.000  
G03  24704980.784      170002.2241      -3014.242          53.000  
> 2018 02 16 08 21 12.0000000  0  8                     
G05  23979956.667     -206891.667        3636.296          53.000  
G09  20098927.711       37448.702        -628.096          53.000  
G23  22294801.856      123818.513       -2047.633          53.000  
G10  21032519.242       79238.441       -1309.765          53.000  
G11  21104503.243     -141659.913        2304.577          53.000  
G30  22396264.759     -213586.906        3611.478          53.000  
G01  22084658.643      -82069.290        1375.168          53.000  
G03  24705554.469      173016.909       -3014.676          53.000  
> 2018 02 16 08 21 13.0000000  0  8                     
G05  23979264.743     -210527.781        3635.897          53.000  
G09  20099047.326       38077.285        -629.085          53.000  
G23  22295191.579      125866.584       -2048.531          53.000  
G10  21032768.604       80548.752       -1310.780          53.000  
G11  21104064.737     -143964.146        2303.824          53.000  
G30  22395577.606     -217197.942        3610.503          53.000  
G01  22084397.059      -83443.996        1374.208          53.000  
G03  24706128.225      176032.038       -3015.606          53.000  
> 2018 02 16 08 21 14.0000000  0  8                     
G05  23978572.747     -214164.194        3636.805          53.000  
G09  20099166.977       38706.151        -628.792          53.000  
G23  22295581.338      127914.855       -2048.180          53.000  
G10  21033018.020       81859.393       -1310.761          53.000  
G11  21103626.303     -146268.225        2304.340          53.000  
G30  22394890.488     -220808.706        3610.783          53.000  
G01  22084135.492      -84818.424        1374.442          53.000  
G03  24706702.035      179047.444       -3015.350          53.000  
> 2018 02 16 08 21 15.0000000  0  8                     
G05  23977880.751     -217800.884        3637.002          53.000  
G09  20099286.681       39335.308        -629.239          53.000  
G23  22295971.151      129963.319       -2048.426          53.000  
G10  21033267.490       83170.398       -1311.007          53.000  
G11  21103187.851     -148572.262        2304.081          53.000  
G30  22394203.425     -224419.192        3610.432          53.000  
G01  22083874.015      -86192.582        1374.233          53.000  
G03  24707275.899      182063.124       -3015.685          53.000  
> 2018 02 16 08 21 16.0000000  0  8                     
G05  23977188.737     -221437.465        3636.477          53.000  
G09  20099406.529       39965.123        -630.155          52.000  
G23  22296361.053      132012.359       -2049.377          53.000  
G10  21033517.102       84482.140       -1312.123          52.000  
G11  21102749.488     -150875.753        2303.197          53.000  
G30  22393516.521     -228028.993        3609.393          53.000  
G01  22083612.644      -87566.043        1373.047          52.000  
G03  24707849.888      185079.472       -3016.712          53.000  
> 2018 02 16 08 21 17.0000000  0  8                     
G05  23976496.742     -225073.960        3636.650          53.000  
G09  20099526.484       40595.606        -630.634          52.000  
G23  22296751.098      134061.953       -2049.688          53.000  
G10  21033766.857       85794.642       -1312.700          53.000  
G11  21102311.250     -153178.697        2302.835          53.000  
G30  22392829.725     -231638.109        3608.941          52.000  
G01  22083351.435      -88938.854        1372.664          53.000  
G03  24708424.020      188096.473       -3017.145          53.000  
> 2018 02 16 08 21 18.0000000  0  8                     
G05  23975804.710     -228710.683        3636.801          53.000  
G09  20099646.528       41226.404        -630.950          53.000  
G23  22297141.143      136111.760       -2049.913          53.000  
G10  21034016.666       87107.551       -1313.262          53.000  
G11  21101873.066     -155481.375        2302.649          53.000  
G30  22392143.001     -235246.869        3608.591          53.000  
G01  22083090.244      -90311.323        1372.322          53.000  
G03  24708998.205      191113.793       -3017.454          52.000  
> 2018 02 16 08 21 19.0000000  0  8                     
G05  23975112.714     -232347.234        3636.572          53.000  
G09  20099766.697       41857.924        -631.743          53.000  
G23  22297531.349      138162.179       -2050.584          53.000  
G10  21034266.672       88421.342       -1314.009          53.000  
G11  21101434.989     -157783.456        2301.905          53.000  
G30  22391456.437     -238854.852        3607.727          53.000  
G01  22082829.231      -91683.040        1371.472          53.000  
G03  24709572.515      194131.838       -3018.270          53.000  
> 2018 02 16 08 21 20.0000000  0  8                     
G05  23974420.736     -235983.744        3636.661          53.000  
G09  20099886.991       42490.036        -632.232          53.000  
G23  22297921.626      140213.070       -2050.978          53.000  
G10  21034516.785       89735.862       -1314.656          53.000  
G11  21100997.019     -160084.987        2301.439          53.000  
G30  22390769.999     -242462.174        3607.140          53.000  
G01  22082568.307      -93054.135        1370.932          53.000  
G03  24710146.951      197150.475       -3018.767          53.000  
> 2018 02 16 08 21 21.0000000  0  8                     
G05  23973728.669     -239620.416        3636.845          53.000  
G09  20100007.357       43122.509        -632.547          53.000  
G23  22298311.957      142264.202       -2051.169          53.000  
G10  21034767.022       91050.901       -1315.198          53.000  
G11  21100559.121     -162386.176        2301.112          53.000  
G30  22390083.614     -246069.059        3606.747          53.000  
G01  22082307.509      -94424.819        1370.553          53.000  
G03  24710721.422      200169.477       -3019.100          53.000  
> 2018 02 16 08 21 22.0000000  0  8                     
G05  23973036.620     -243257.102        3636.576          53.000  
G09  20100127.812       43755.509        -633.443          53.000  
G23  22298702.342      144315.721       -2051.879          53.000  
G10  21035017.403       92366.609       -1316.464          53.000  
G11  21100121.312     -164686.817        2300.197          53.000  
G30  22389397.372     -249675.331        3605.770          53.000  
G01  22082046.782      -95794.943        1369.700          53.000  
G03  24711296.018      203188.994       -3019.901          53.000  
> 2018 02 16 08 21 23.0000000  0  8                     
G05  23972344.570     -246893.875        3637.012          53.000  
G09  20100248.339       44388.929        -633.546          53.000  
G23  22299092.798      146367.531       -2051.811          53.000  
G10  21035267.909       93682.987       -1316.506          53.000  
G11  21099683.575     -166987.042        2300.160          53.000  
G30  22388711.237     -253281.079        3605.613          53.000  
G01  22081786.162      -97164.571        1369.592          53.000  
G03  24711870.704      206208.944       -3019.996          53.000  
> 2018 02 16 08 21 24.0000000  0  8                     
G05  23971652.485     -250530.692        3636.912          53.000  
G09  20100368.954       45022.802        -634.012          53.000  
G23  22299483.308      148419.657       -2052.244          53.000  
G10  21035518.522       95000.010       -1317.251          53.000  
G11  21099245.980     -169286.754        2299.553          53.000  
G30  22388025.192     -256886.254        3604.945          53.000  
G01  22081525.632      -98533.661        1368.846          53.000  
G03  24712445.461      209229.349       -3020.582          53.000  
> 2018 02 16 08 21 25.0000000  0  8                     
G05  23970960.400     -254167.609        3636.935          53.000  
G09  20100489.642       45657.089        -634.567          53.000  
G23  22299873.889      150472.033       -2052.542          52.000  
G10  21035769.242       96317.665       -1317.972          53.000  
G11  21098808.439     -171585.987        2298.990          53.000  
G30  22387339.254     -260490.903        3604.349          53.000  
G01  22081265.227      -99902.284        1368.423          53.000  
G03  24713020.308      212250.149       -3021.030          53.000  
> 2018 02 16 08 21 26.0000000  0  8                     
G05  23970268.315     -257804.535        3637.090          52.000  
G09  20100610.419       46291.842        -634.784          53.000  
G23  22300264.488      152524.734       -2052.697          52.000  
G10  21036020.123       97636.007       -1318.778          53.000  
G11  21098371.023     -173884.628        2298.415          53.000  
G30  22386653.423     -264094.938        3603.861          53.000  
G01  22081004.911     -101270.318        1367.876          53.000  
G03  24713595.261      215271.421       -3021.352          53.000  
> 2018 02 16 08 21 27.0000000  0  8                     
G05  23969576.176     -261441.675        3637.418          52.000  
G09  20100731.267       46926.864        -634.937          53.000  
G23  22300655.122      154577.536       -2052.675          53.000  
G10  21036271.094       98954.938       -1318.939          53.000  
G11  21097933.679     -176182.892        2298.299          52.000  
G30  22385967.681     -267698.568        3603.618          52.000  
G01  22080744.666     -102637.991        1367.648          53.000  
G03  24714170.233      218292.946       -3021.467          53.000  
> 2018 02 16 08 21 28.0000000  0  8                     
G05  23968884.038     -265078.822        3637.243          53.000  
G09  20100852.204       47562.352        -635.640          53.000  
G23  22301045.811      156630.627       -2053.120          53.000  
G10  21036522.225      100274.592       -1319.860          53.000  
G11  21097496.442     -178480.544        2297.475          53.000  
G30  22385282.065     -271301.579        3602.814          53.000  
G01  22080484.493     -104005.091        1366.947          53.000  
G03  24714745.258      221314.916       -3022.108          53.000  
> 2018 02 16 08 21 29.0000000  0  8                     
G05  23968191.881     -268716.060        3637.213          53.000  
G09  20100973.195       48198.183        -635.977          53.000  
G23  22301436.535      158683.901       -2053.403          53.000  
G10  21036773.481      101594.891       -1320.621          53.000  
G11  21097059.330     -180777.662        2296.819          53.000  
G30  22384596.537     -274904.074        3602.200          53.000  
G01  22080224.445     -105371.697        1366.272          53.000  
G03  24715320.372      224337.222       -3022.534          53.000  
> 2018 02 16 08 21 30.0000000  0  8                     
G05  23967499.724     -272353.333        3637.293          53.000  
G09  20101094.276       48834.446        -636.475          53.000  
G23  22301827.277      160737.404       -2053.595          52.000  
G10  21037024.881      102915.885       -1321.648          52.000  
G11  21096622.343     -183074.161        2296.030          52.000  
G30  22383911.117     -278505.980        3601.593          53.000  
G01  22079964.505     -106737.760        1365.797          53.000  
G03  24715895.612      227359.915       -3022.874          53.000  
> 2018 02 16 08 21 31.0000000  0  8                     
G05  23966807.568     -275990.642        3637.359          53.000  
G09  20101215.428       49471.085        -636.786          53.000  
G23  22302218.090      162791.109       -2053.787          52.000  
G10  21037276.405      104237.656       -1322.023          53.000  
G11  21096185.445     -185370.040        2295.642          52.000  
G30  22383225.805     -282107.325        3601.038          53.000  
G01  22079704.636     -108103.276        1365.209          53.000  
G03  24716470.870      230382.966       -3023.208          53.000  
> 2018 02 16 08 21 32.0000000  0  8                     
G05  23966115.447     -279627.785        3637.223          53.000  
G09  20101336.687       50108.318        -637.379          53.000  
G23  22302608.957      164845.194       -2054.073          52.000  
G10  21037528.108      105560.333       -1322.876          53.000  
G11  21095748.709     -187665.097        2294.896          53.000  
G30  22382540.635     -285707.904        3600.396          52.000  
G01  22079444.945     -109468.062        1364.662          53.000  
G03  24717046.234      233406.560       -3023.649          52.000  
> 2018 02 16 08 21 33.0000000  0  8                     
G05  23965423.326     -283264.777        3637.149          52.000  
G09  20101458.036       50746.092        -637.811          53.000  
G23  22302999.896      166899.634       -2054.352          53.000  
G10  21037780.008      106883.940       -1323.776          53.000  
G11  21095312.133     -189959.305        2294.086          53.000  
G30  22381855.626     -289307.733        3599.729          53.000  
G01  22079185.380     -110832.094        1363.947          53.000  
G03  24717621.688      236430.667       -3024.094          52.000  
> 2018 02 16 08 21 34.0000000  0  8                     
G05  23964731.259     -286901.685        3636.885          53.000  
G09  20101579.509       51384.349        -638.411          53.000  
G23  22303390.870      168954.336       -2054.796          53.000  
G10  21038032.032      108208.342       -1325.012          52.000  
G11  21094875.700     -192252.763        2292.934          53.000  
G30  22381170.706     -292906.890        3598.840          53.000  
G01  22078925.939     -112195.478        1363.059          53.000  
G03  24718197.249      239455.194       -3024.716          53.000  
> 2018 02 16 08 21 35.0000000  0  8                     
G05  23964039.174     -290538.656        3636.977          53.000  
G09  20101701.036       52022.921        -638.744          53.000  
G23  22303781.898      171009.135       -2054.847          53.000  
G10  21038284.200      109533.535       -1325.472          53.000  
G11  21094439.392     -194545.549        2292.530          53.000  
G30  22380485.912     -296505.536        3598.373          53.000  
G01  22078666.588     -113558.344        1362.584          53.000  
G03  24718772.846      242479.977       -3024.936          53.000  
> 2018 02 16 08 21 36.0000000  0  8                     
G05  23963347.053     -294175.825        3637.248          53.000  
G09  20101822.582       52661.658        -638.827          53.000  
G23  22304172.908      173063.873       -2054.693          53.000  
G10  21038536.475      110859.277       -1325.957          53.000  
G11  21094003.191     -196837.839        2292.100          53.000  
G30  22379801.189     -300103.811        3598.092          53.000  
G01  22078407.309     -114920.835        1362.277          52.000  
G03  24719348.461      245504.852       -3024.953          53.000  
> 2018 02 16 08 21 37.0000000  0  8                     
G05  23962654.896     -297813.119        3637.292          53.000  
G09  20101944.162       53300.617        -639.124          53.000  
G23  22304563.900      175118.606       -2054.813          53.000  
G10  21038788.893      112185.665       -1326.766          53.000  
G11  21093567.115     -199129.525        2291.352          53.000  
G30  22379116.537     -303701.646        3597.507          53.000  
G01  22078148.136     -116282.872        1361.721          53.000  
G03  24719924.112      248529.875       -3025.185          53.000  
> 2018 02 16 08 21 38.0000000  0  8                     
G05  23961962.757     -301450.330        3637.214          53.000  
G09  20102065.833       53939.997        -639.454          53.000  
G23  22304954.927      177173.515       -2054.920          53.000  
G10  21039041.436      113512.856       -1327.831          53.000  
G11  21093131.165     -201420.439        2290.356          53.000  
G30  22378432.010     -307298.865        3596.984          53.000  
G01  22077889.071     -117644.265        1361.108          53.000  
G03  24720499.834      251555.223       -3025.442          53.000  
> 2018 02 16 08 21 39.0000000  0  8                     
G05  23961270.708     -305087.191        3636.939          53.000  
G09  20102187.628       54580.052        -640.121          53.000  
G23  22305346.063      179228.854       -2055.270          53.000  
G10  21039294.211      114841.256       -1328.626          53.000  
G11  21092695.429     -203710.211        2289.577          53.000  
G30  22377747.645     -310895.188        3596.152          53.000  
G01  22077630.185     -119004.731        1360.297          53.000  
G03  24721075.645      254581.150       -3025.944          53.000  
> 2018 02 16 08 21 40.0000000  0  8                     
G05  23960578.623     -308723.992        3637.112          53.000  
G09  20102309.512       55220.472        -640.281          53.000  
G23  22305737.215      181284.310       -2055.159          53.000  
G10  21039547.165      116170.456       -1329.219          53.000  
G11  21092259.853     -205999.208        2289.026          53.000  
G30  22377063.386     -314490.932        3595.796          53.000  
G01  22077371.406     -120364.565        1359.880          53.000  
G03  24721651.510      257607.335       -3025.958          53.000  
> 2018 02 16 08 21 41.0000000  0  8                     
G05  23959886.573     -312360.734        3636.815          53.000  
G09  20102431.433       55861.236        -640.790          53.000  
G23  22306128.368      183339.856       -2055.461          52.000  
G10  21039800.244      117500.484       -1330.279          53.000  
G11  21091824.421     -208287.390        2287.940          53.000  
G30  22376379.253     -318086.115        3595.038          53.000  
G01  22077112.787     -121723.774        1359.001          53.000  
G03  24722227.429      260633.750       -3026.387          53.000  
> 2018 02 16 08 21 42.0000000  0  8                     
G05  23959194.506     -315997.509        3636.741          53.000  
G09  20102553.407       56502.257        -641.230          53.000  
G23  22306519.539      185395.383       -2055.534          53.000  
G10  21040053.466      118831.199       -1331.373          53.000  
G11  21091389.114     -210574.895        2286.871          53.000  
G30  22375695.191     -321680.834        3594.481          53.000  
G01  22076854.240     -123082.459        1358.438          53.000  
G03  24722803.347      263660.282       -3026.605          53.000  
> 2018 02 16 08 21 43.0000000  0  8                     
G05  23958502.510     -319633.980        3636.389          53.000  
G09  20102675.506       57143.841        -641.732          53.000  
G23  22306910.746      187451.214       -2055.854          53.000  
G10  21040306.920      120163.064       -1332.191          53.000  
G11  21090954.021     -212861.269        2286.032          53.000  
G30  22375011.290     -325274.768        3593.653          53.000  
G01  22076595.854     -124440.273        1357.496          53.000  
G03  24723379.355      266687.246       -3027.066          53.000  
> 2018 02 16 08 21 45.0000000  0  8                     
G05  23957118.680     -326905.998        3636.161          53.000  
G09  20102920.008       58428.674        -642.505          53.000  
G23  22307693.337      191563.701       -2056.062          53.000  
G10  21040814.400      122829.956       -1334.010          53.000  
G11  21090084.461     -217430.870        2284.230          53.000  
G30  22373643.934     -332460.340        3592.490          53.000  
G01  22076079.600     -127153.299        1356.125          53.000  
G03  24724531.604      272742.363       -3027.477          53.000  
> 2018 02 16 08 21 46.0000000  0  8                     
G05  23956426.863     -330541.560        3635.432          53.000  
G09  20103042.410       59071.873        -643.358          53.000  
G23  22308084.687      193620.308       -2056.704          53.000  
G10  21041068.426      124164.927       -1335.709          53.000  
G11  21089649.975     -219714.113        2282.451          53.000  
G30  22372960.462     -336052.025        3591.325          53.000  
G01  22075821.697     -128508.526        1354.791          53.000  
G03  24725107.844      275770.452       -3028.232          53.000  
> 2018 02 16 08 21 47.0000000  0  8                     
G05  23955735.081     -334176.899        3635.277          53.000  
G09  20103164.885       59715.515        -643.754          53.000  
G23  22308476.072      195677.051       -2056.714          53.000  
G10  21041322.667      125500.938       -1336.324          53.000  
G11  21089215.669     -221996.312        2281.865          53.000  
G30  22372277.115     -339643.081        3590.820          53.000  
G01  22075563.954     -129862.995        1354.182          53.000  
G03  24725684.120      278798.781       -3028.329          53.000  
> 2018 02 16 08 21 48.0000000  0  8                     
G05  23955043.336     -337812.029        3635.189          53.000  
G09  20103287.430       60359.558        -644.039          53.000  
G23  22308867.475      197733.907       -2056.728          53.000  
G10  21041577.086      126837.896       -1337.170          53.000  
G11  21088781.577     -224277.537        2281.045          53.000  
G30  22371593.875     -343233.528        3590.346          53.000  
G01  22075306.336     -131216.699        1353.521          53.000  
G03  24726260.432      281827.318       -3028.418          53.000  
> 2018 02 16 08 21 49.0000000  0  8                     
G05  23954351.590     -341447.124        3635.197          53.000  
G09  20103410.012       61003.822        -644.254          53.000  
G23  22309258.878      199790.677       -2056.592          53.000  
G10  21041831.648      128175.611       -1337.915          53.000  
G11  21088347.627     -226557.983        2280.258          53.000  
G30  22370910.742     -346823.564        3589.975          53.000  
G01  22075048.844     -132569.821        1352.988          53.000  
G03  24726836.743      284855.863       -3028.413          53.000  
> 2018 02 16 08 21 50.0000000  0  8                     
G05  23953659.898     -345082.031        3634.867          53.000  
G09  20103532.665       61648.440        -644.758          53.000  
G23  22309650.263      201847.500       -2056.769          53.000  
G10  21042086.371      129514.202       -1339.272          53.000  
G11  21087913.839     -228837.522        2278.853          53.000  
G30  22370227.681     -350413.054        3589.260          53.000  
G01  22074791.494     -133922.216        1352.141          53.000  
G03  24727413.091      287884.536       -3028.667          53.000  
> 2018 02 16 08 21 51.0000000  0  8                     
G05  23952968.260     -348716.711        3634.672          53.000  
G09  20103655.407       62293.446        -645.099          53.000  
G23  22310041.667      203904.403       -2056.838          53.000  
G10  21042341.290      130853.815       -1339.912          53.000  
G11  21087480.247     -231115.991        2278.142          53.000  
G30  22369544.727     -354001.976        3588.699          53.000  
G01  22074534.305     -135273.840        1351.354          53.000  
G03  24727989.456      290913.361       -3028.791          53.000  
> 2018 02 16 08 21 52.0000000  0  8                     
G05  23952276.657     -352351.177        3634.150          53.000  
G09  20103778.221       62938.811        -645.784          53.000  
G23  22310433.087      205961.350       -2057.212          53.000  
G10  21042596.406      132194.348       -1341.182          53.000  
G11  21087046.834     -233393.503        2276.861          53.000  
G30  22368861.880     -357590.366        3587.873          53.000  
G01  22074277.241     -136624.717        1350.268          53.000  
G03  24728565.839      293942.292       -3029.222          53.000  
> 2018 02 16 08 21 53.0000000  0  8                     
G05  23951585.090     -355985.331        3634.267          53.000  
G09  20103901.124       63584.618        -645.783          53.000  
G23  22310824.526      208018.421       -2056.866          53.000  
G10  21042851.683      133535.885       -1341.756          53.000  
G11  21086613.653     -235669.972        2276.235          53.000  
G30  22368179.140     -361178.148        3587.744          53.000  
G01  22074020.321     -137974.753        1349.887          53.000  
G03  24729142.258      296971.401       -3028.917          53.000  
> 2018 02 16 08 21 54.0000000  0  8                     
G05  23950893.595     -359619.241        3633.787          53.000  
G09  20104024.081       64230.797        -646.385          53.000  
G23  22311215.983      210075.544       -2057.131          53.000  
G10  21043107.139      134878.314       -1343.061          53.000  
G11  21086180.633     -237945.496        2274.785          53.000  
G30  22367496.490     -364765.399        3586.998          53.000  
G01  22073763.579     -139324.011        1348.879          53.000  
G03  24729718.695      300000.610       -3029.263          53.000  
> 2018 02 16 08 21 55.0000000  0  8                     
G05  23950202.135     -363252.957        3633.622          52.000  
G09  20104147.091       64877.280        -646.641          53.000  
G23  22311607.440      212132.647       -2057.055          53.000  
G10  21043362.773      136221.709       -1343.755          53.000  
G11  21085747.810     -240219.996        2274.122          53.000  
G30  22366813.947     -368352.196        3586.565          53.000  
G01  22073506.961     -140672.554        1348.225          52.000  
G03  24730295.132      303029.832       -3029.245          53.000  
> 2018 02 16 08 21 56.0000000  0  8                     
G05  23949510.800     -366885.963        3632.766          53.000  
G09  20104270.280       65524.572        -647.588          53.000  
G23  22311999.004      214190.239       -2057.705          53.000  
G10  21043618.675      137566.477       -1345.329          52.000  
G11  21085315.254     -242493.080        2272.549          53.000  
G30  22366131.565     -371938.044        3585.492          53.000  
G01  22073250.577     -142019.862        1346.833          53.000  
G03  24730871.676      306059.561       -3029.854          53.000  
> 2018 02 16 08 21 57.0000000  0  8                     
G05  23948819.519     -370518.649        3632.625          53.000  
G09  20104393.541       66172.273        -647.773          53.000  
G23  22312390.550      216247.913       -2057.599          53.000  
G10  21043874.756      138912.220       -1346.080          53.000  
G11  21084882.913     -244765.116        2271.687          53.000  
G30  22365449.308     -375523.351        3585.166          53.000  
G01  22072994.353     -143366.332        1346.187          53.000  
G03  24731448.238      309089.388       -3029.724          53.000  
> 2018 02 16 08 21 58.0000000  0  8                     
G05  23948128.327     -374150.913        3632.047          53.000  
G09  20104516.909       66820.480        -648.425          53.000  
G23  22312782.149      218305.760       -2057.936          52.000  
G10  21044131.034      140259.012       -1347.514          53.000  
G11  21084450.769     -247036.060        2270.170          53.000  
G30  22364767.175     -379108.033        3584.389          53.000  
G01  22072738.290     -144711.863        1345.047          52.000  
G03  24732024.835      312119.397       -3030.089          53.000  
> 2018 02 16 08 21 59.0000000  0  8                     
G05  23947437.207     -377782.838        3631.919          53.000  
G09  20104640.330       67469.104        -648.640          53.000  
G23  22313173.767      220363.690       -2057.772          53.000  
G10  21044387.526      141606.857       -1348.084          53.000  
G11  21084018.839     -249305.873        2269.556          53.000  
G30  22364085.151     -382692.197        3584.122          53.000  
G01  22072482.387     -146056.549        1344.445          53.000  
G03  24732601.451      315149.480       -3029.925          53.000  
> 2018 02 16 08 22 00.0000000  0  8                     
G05  23946746.105     -381414.642        3631.663          53.000  
G09  20104763.787       68117.912        -648.978          53.000  
G23  22313565.348      222421.475       -2057.779          53.000  
G10  21044644.143      142955.449       -1349.025          53.000  
G11  21083587.052     -251574.880        2268.561          53.000  
G30  22363403.161     -386276.070        3583.648          53.000  
G01  22072226.646     -147400.601        1343.669          53.000  
G03  24733178.031      318179.400       -3029.902          53.000  
> 2018 02 16 08 22 01.0000000  0  8                     
G05  23946055.038     -385046.131        3631.226          53.000  
G09  20104887.316       68767.088        -649.458          53.000  
G23  22313956.930      224479.294       -2057.905          53.000  
G10  21044900.956      144304.981       -1350.060          53.000  
G11  21083155.461     -253842.896        2267.469          53.000  
G30  22362721.262     -389859.494        3583.104          53.000  
G01  22071971.030     -148743.840        1342.756          53.000  
G03  24733754.610      321209.327       -3030.001          52.000  
> 2018 02 16 08 22 02.0000000  0  8                     
G05  23945364.043     -388677.330        3631.242          53.000  
G09  20105010.898       69416.604        -649.472          53.000  
G23  22314348.530      226537.122       -2057.622          53.000  
G10  21045157.949      145655.382       -1350.748          53.000  
G11  21082724.049     -256109.976        2266.596          53.000  
G30  22362039.451     -393442.504        3583.010          53.000  
G01  22071715.574     -150086.283        1342.262          53.000  
G03  24734331.190      324239.225       -3029.667          53.000  
> 2018 02 16 08 22 03.0000000  0  8                     
G05  23944673.137     -392308.093        3630.740          53.000  
G09  20105134.605       70066.601        -650.028          53.000  
G23  22314740.147      228595.097       -2057.848          53.000  
G10  21045415.137      147006.877       -1351.793          53.000  
G11  21082292.852     -258375.890        2265.614          53.000  
G30  22361357.730     -397024.973        3582.396          53.000  
G01  22071460.279     -151427.795        1341.263          53.000  
G03  24734907.770      327269.221       -3029.856          53.000  
> 2018 02 16 08 22 04.0000000  0  8                     
G05  23943982.339     -395938.270        3629.826          53.000  
G09  20105258.419       70717.217        -650.919          53.000  
G23  22315131.801      230653.357       -2058.428          53.000  
G10  21045672.541      148359.544       -1353.249          53.000  
G11  21081861.905     -260640.569        2264.085          53.000  
G30  22360676.116     -400606.775        3581.468          53.000  
G01  22071205.217     -152768.230        1339.890          53.000  
G03  24735484.403      330299.441       -3030.343          53.000  
> 2018 02 16 08 22 05.0000000  0  8                     
G05  23943291.594     -399568.100        3629.506          53.000  
G09  20105382.288       71368.221        -651.358          53.000  
G23  22315523.472      232711.656       -2058.054          53.000  
G10  21045930.123      149713.139       -1354.181          53.000  
G11  21081431.136     -262904.274        2263.493          53.000  
G30  22359994.610     -404188.163        3581.243          53.000  
G01  22070950.297     -154107.825        1339.136          53.000  
G03  24736061.037      333329.636       -3030.124          53.000  
> 2018 02 16 08 22 06.0000000  0  8                     
G05  23942600.920     -403197.609        3629.362          53.000  
G09  20105506.245       72019.565        -651.489          53.000  
G23  22315915.179      234769.994       -2058.319          53.000  
G10  21046187.865      151067.596       -1355.019          53.000  
G11  21081000.546     -265167.042        2262.195          53.000  
G30  22359313.174     -407769.170        3580.849          53.000  
G01  22070695.539     -155446.608        1338.387          53.000  
G03  24736637.652      336359.775       -3030.092          53.000  
> 2018 02 16 08 22 07.0000000  0  8                     
G05  23941910.354     -406826.629        3628.910          53.000  
G09  20105630.274       72671.424        -651.962          53.000  
G23  22316306.903      236828.499       -2058.453          53.000  
G10  21046445.805      152423.144       -1355.867          53.000  
G11  21080570.171     -267428.657        2261.286          53.000  
G30  22358631.829     -411349.668        3580.395          53.000  
G01  22070440.959     -156784.427        1337.521          52.000  
G03  24737214.286      339389.999       -3030.112          53.000  
> 2018 02 16 08 22 08.0000000  0  8                     
G05  23941219.824     -410455.348        3628.675          53.000  
G09  20105754.392       73323.605        -652.234          53.000  
G23  22316698.628      238887.002       -2058.424          53.000  
G10  21046703.905      153779.534       -1356.751          53.000  
G11  21080139.974     -269689.380        2260.340          53.000  
G30  22357950.518     -414929.845        3580.110          53.000  
G01  22070186.522     -158121.456        1336.745          53.000  
G03  24737790.901      342420.113       -3029.994          53.000  
> 2018 02 16 08 22 09.0000000  0  8                     
G05  23940529.400     -414083.576        3627.947          53.000  
G09  20105878.600       73976.292        -652.900          53.000  
G23  22317090.371      240945.680       -2058.774          53.000  
G10  21046962.220      155136.941       -1357.940          53.000  
G11  21079709.974     -271949.021        2259.111          53.000  
G30  22357269.333     -418509.537        3579.426          53.000  
G01  22069932.281     -159457.521        1335.562          53.000  
G03  24738367.552      345450.290       -3030.223          53.000  
> 2018 02 16 08 22 10.0000000  0  8                     
G05  23939839.066     -417711.232        3627.772          53.000  
G09  20106002.914       74629.568        -653.137          53.000  
G23  22317482.185      243004.620       -2058.655          52.000  
G10  21047220.713      156495.418       -1358.652          53.000  
G11  21079280.188     -274207.559        2258.372          53.000  
G30  22356588.256     -422088.681        3579.295          52.000  
G01  22069678.237     -160792.542        1334.906          53.000  
G03  24738944.186      348480.608       -3030.010          52.000  
> 2018 02 16 08 22 11.0000000  0  8                     
G05  23939148.768     -421338.750        3627.586          52.000  
G09  20106127.265       75282.998        -653.328          53.000  
G23  22317873.963      245063.394       -2058.535          53.000  
G10  21047479.367      157854.580       -1359.313          53.000  
G11  21078850.545     -276465.346        2257.597          53.000  
G30  22355907.178     -425667.717        3579.135          52.000  
G01  22069424.301     -162126.951        1334.217          53.000  
G03  24739520.783      351510.619       -3029.698          53.000  
> 2018 02 16 08 22 12.0000000  0  8                     
G05  23938458.541     -424965.959        3627.088          53.000  
G09  20106251.669       75936.753        -653.895          53.000  
G23  22318265.741      247122.170       -2058.747          53.000  
G10  21047738.164      159214.541       -1360.363          53.000  
G11  21078421.063     -278722.290        2256.509          53.000  
G30  22355226.154     -429246.492        3578.675          52.000  
G01  22069170.525     -163460.590        1333.281          53.000  
G03  24740097.345      354540.491       -3029.749          53.000  
> 2018 02 16 08 22 13.0000000  0  8                     
G05  23937768.404     -428592.735        3626.836          53.000  
G09  20106376.163       76590.948        -654.127          53.000  
G23  22318657.538      249181.076       -2058.689          53.000  
G10  21047997.140      160575.421       -1361.048          52.000  
G11  21077991.760     -280978.277        2255.772          52.000  
G30  22354545.219     -432824.898        3578.489          52.000  
G01  22068916.892     -164793.325        1332.549          52.000  
G03  24740673.889      357570.341       -3029.556          53.000  
> 2018 02 16 08 22 14.0000000  0  8                     
G05  23937078.302     -432219.148        3626.173          53.000  
G09  20106500.728       77245.528        -654.844          53.000  
G23  22319049.352      251240.047       -2059.057          53.000  
G10  21048256.259      161937.127       -1362.174          53.000  
G11  21077562.636     -283233.409        2254.621          53.000  
G30  22353864.320     -436403.019        3577.906          53.000  
G01  22068663.456     -166125.238        1331.440          53.000  
G03  24741250.433      360600.094       -3029.778          53.000  
> 2018 02 16 08 22 15.0000000  0  8                     
G05  23936388.308     -435845.139        3625.954          53.000  
G09  20106625.382       77900.542        -655.028          53.000  
G23  22319441.184      253299.149       -2058.949          53.000  
G10  21048515.556      163299.726       -1362.810          53.000  
G11  21077133.672     -285487.610        2253.950          53.000  
G30  22353183.492     -439980.810        3577.837          53.000  
G01  22068410.180     -167456.272        1330.819          53.000  
G03  24741826.959      363629.797       -3029.455          53.000  
> 2018 02 16 08 22 16.0000000  0  8                     
G05  23935698.331     -439470.900        3626.027          53.000  
G09  20106750.072       78555.806        -654.982          53.000  
G23  22319832.998      255358.194       -2058.608          53.000  
G10  21048774.996      164663.017       -1363.194          53.000  
G11  21076704.851     -287741.083        2253.526          53.000  
G30  22352502.682     -443558.472        3578.028          53.000  
G01  22068157.030     -168786.615        1330.414          53.000  
G03  24742403.450      366659.268       -3028.934          53.000  
> 2018 02 16 08 22 17.0000000  0  8                     
G05  23935008.444     -443096.258        3625.378          53.000  
G09  20106874.851       79211.499        -655.670          53.000  
G23  22320224.847      257417.368       -2058.994          53.000  
G10  21049034.580      166027.147       -1364.325          53.000  
G11  21076276.191     -289993.709        2252.452          53.000  
G30  22351821.926     -447135.835        3577.460          53.000  
G01  22067904.040     -170116.097        1329.252          53.000  
G03  24742979.940      369688.676       -3029.134          53.000  
> 2018 02 16 08 22 18.0000000  0  8                     
G05  23934318.646     -446721.123        3624.624          53.000  
G09  20106999.720       79867.711        -656.490          53.000  
G23  22320616.751      259476.762       -2059.480          53.000  
G10  21049294.324      167392.190       -1365.461          53.000  
G11  21075847.710     -292245.403        2251.339          53.000  
G30  22351141.259     -450712.833        3576.824          53.000  
G01  22067651.229     -171444.640        1328.088          53.000  
G03  24743556.413      372718.101       -3029.401          53.000  
> 2018 02 16 08 22 19.0000000  0  8                     
G05  23933628.956     -450345.460        3624.386          53.000  
G09  20107124.696       80524.476        -656.712          53.000  
G23  22321008.690      261536.422       -2059.444          53.000  
G10  21049554.246      168758.170       -1366.164          53.000  
G11  21075419.425     -294496.139        2250.557          53.000  
G30  22350460.646     -454289.435        3576.730          53.000  
G01  22067398.615     -172772.202        1327.389          53.000  
G03  24744132.903      375747.591       -3029.189          53.000  
> 2018 02 16 08 22 20.0000000  0  8                     
G05  23932939.301     -453969.524        3623.928          53.000  
G09  20107249.761       81181.554        -657.220          53.000  
G23  22321400.629      263596.112       -2059.730          53.000  
G10  21049814.312      170124.850       -1367.026          53.000  
G11  21074991.230     -296746.182        2249.649          53.000  
G30  22349780.068     -457865.903        3576.417          53.000  
G01  22067146.125     -174099.043        1326.495          53.000  
G03  24744709.376      378776.887       -3029.186          53.000  
> 2018 02 16 08 22 21.0000000  0  8                     
G05  23932249.735     -457593.236        3623.798          53.000  
G09  20107374.880       81839.023        -657.387          53.000  
G23  22321792.604      265655.906       -2059.606          53.000  
G10  21050074.521      171492.280       -1367.580          53.000  
G11  21074563.213     -298995.471        2249.145          53.000  
G30  22349099.545     -461442.165        3576.398          53.000  
G01  22066893.797     -175425.085        1325.896          53.000  
G03  24745285.795      381806.074       -3028.875          52.000  
> 2018 02 16 08 22 22.0000000  0  8                     
G05  23931560.223     -461216.548        3623.488          53.000  
G09  20107500.070       82496.942        -657.788          53.000  
G23  22322184.597      267715.874       -2059.693          53.000  
G10  21050334.908      172860.485       -1368.109          53.000  
G11  21074135.321     -301243.996        2248.736          53.000  
G30  22348419.056     -465018.184        3576.266          53.000  
G01  22066641.611     -176750.288        1325.162          53.000  
G03  24745862.232      384835.200       -3028.693          53.000  
> 2018 02 16 08 22 23.0000000  0  8                     
G05  23930870.836     -464839.285        3622.468          53.000  
G09  20107625.368       83155.487        -658.825          53.000  
G23  22322576.661      269776.202       -2060.480          53.000  
G10  21050595.439      174229.634       -1369.615          53.000  
G11  21073707.626     -303491.595        2247.094          53.000  
G30  22347738.640     -468593.788        3575.400          53.000  
G01  22066389.640     -178074.468        1323.689          53.000  
G03  24746438.686      387864.455       -3029.273          53.000  
> 2018 02 16 08 22 24.0000000  0  8                     
G05  23930181.539     -468461.595        3622.281          53.000  
G09  20107750.791       83814.523        -659.082          53.000  
G23  22322968.779      271836.756       -2060.468          53.000  
G10  21050856.148      175599.593       -1370.193          53.000  
G11  21073280.074     -305738.404        2246.552          53.000  
G30  22347058.277     -472169.131        3575.425          53.000  
G01  22066137.812     -179397.784        1323.120          53.000  
G03  24747015.123      390893.693       -3029.035          53.000  
> 2018 02 16 08 22 25.0000000  0  8                     
G05  23929492.312     -472083.546        3621.660          53.000  
G09  20107876.267       84473.987        -659.777          53.000  
G23  22323360.915      273897.484       -2060.927          53.000  
G10  21051116.964      176970.264       -1371.137          53.000  
G11  21072852.647     -307984.528        2245.624          53.000  
G30  22346377.932     -475744.282        3574.954          53.000  
G01  22065886.145     -180720.295        1322.022          52.000  
G03  24747591.560      393922.858       -3029.240          53.000  
> 2018 02 16 08 22 26.0000000  0  8                     
G05  23928803.140     -475705.203        3621.674          53.000  
G09  20108001.815       85133.827        -659.869          53.000  
G23  22323753.068      275958.332       -2060.755          53.000  
G10  21051377.923      178341.585       -1371.336          53.000  
G11  21072425.345     -310230.039        2245.632          53.000  
G30  22345697.622     -479319.308        3575.136          53.000  
G01  22065634.638     -182042.071        1321.553          53.000  
G03  24748167.961      396951.890       -3028.820          53.000  
> 2018 02 16 08 22 27.0000000  0  8                     
G05  23928114.057     -479326.434        3621.174          53.000  
G09  20108127.488       85794.179        -660.419          53.000  
G23  22324145.293      278019.455       -2061.112          53.000  
G10  21051639.008      179713.650       -1372.332          53.000  
G11  21071998.168     -312474.860        2244.549          53.000  
G30  22345017.366     -482894.082        3574.815          53.000  
G01  22065383.275     -183362.986        1320.642          53.000  
G03  24748744.380      399980.935       -3028.864          53.000  
> 2018 02 16 08 22 28.0000000  0  8                     
G05  23927425.027     -482947.234        3620.743          53.000  
G09  20108253.250       86455.060        -660.940          53.000  
G23  22324537.572      280080.863       -2061.377          53.000  
G10  21051900.253      181086.503       -1373.110          53.000  
G11  21071571.134     -314718.949        2243.827          53.000  
G30  22344337.146     -486468.595        3574.556          53.000  
G01  22065132.090     -184683.029        1319.772          52.000  
G03  24749320.799      403010.013       -3028.906          53.000  
> 2018 02 16 08 22 29.0000000  0  8                     
G05  23926736.123     -486567.447        3620.062          53.000  
G09  20108379.137       87116.642        -661.835          53.000  
G23  22324929.940      282142.740       -2062.002          52.000  
G10  21052161.676      182460.263       -1374.105          53.000  
G11  21071144.261     -316962.187        2242.919          52.000  
G30  22343657.015     -490042.700        3574.031          52.000  
G01  22064881.084     -186002.053        1318.655          52.000  
G03  24749897.236      406039.288       -3029.247          52.000  
> 2018 02 16 08 22 30.0000000  0  8                     
G05  23926047.308     -490187.183        3619.700          53.000  
G09  20108505.149       87778.814        -662.302          52.000  
G23  22325322.379      284204.984       -2062.240          52.000  
G10  21052423.243      183834.835       -1374.591          53.000  
G11  21070717.549     -319204.664        2242.655          53.000  
G30  22342976.938     -493616.496        3573.842          53.000  
G01  22064630.256     -187320.160        1317.872          52.000  
G03  24750473.708      409068.667       -3029.233          53.000  
> 2018 02 16 08 22 31.0000000  0  8                     
G05  23925358.564     -493806.629        3619.397          53.000  
G09  20108631.233       88441.405        -662.702          53.000  
G23  22325714.837      286267.428       -2062.425          53.000  
G10  21052684.899      185209.981       -1375.370          53.000  
G11  21070290.908     -321446.668        2241.749          53.000  
G30  22342296.897     -497190.174        3573.724          53.000  
G01  22064379.572     -188637.538        1317.138          53.000  
G03  24751050.181      412097.981       -3029.188          52.000  
> 2018 02 16 08 22 32.0000000  0  8                     
G05  23924669.821     -497425.942        3619.475          53.000  
G09  20108757.389       89104.270        -662.781          53.000  
G23  22326107.312      288329.942       -2062.324          53.000  
G10  21052946.663      186585.584       -1375.670          53.000  
G11  21069864.321     -323688.298        2241.582          53.000  
G30  22341616.838     -500763.884        3573.948          53.000  
G01  22064128.994     -189954.348        1316.754          53.000  
G03  24751626.600      415127.079       -3028.774          53.000  
> 2018 02 16 08 22 33.0000000  0  8                     
G05  23923981.184     -501044.794        3618.680          53.000  
G09  20108883.633       89767.751        -663.665          53.000  
G23  22326499.894      290392.861       -2063.009          52.000  
G10  21053208.569      187961.937       -1376.597          53.000  
G11  21069437.895     -325929.253        2240.660          53.000  
G30  22340936.850     -504337.300        3573.392          53.000  
G01  22063878.596     -191270.263        1315.602          53.000  
G03  24752203.054      418156.317       -3029.204          53.000  
> 2018 02 16 08 22 34.0000000  0  8                     
G05  23923292.548     -504663.396        3618.406          53.000  
G09  20109009.967       90431.655        -664.178          53.000  
G23  22326892.495      292456.008       -2063.307          53.000  
G10  21053470.600      189338.890       -1377.105          53.000  
G11  21069011.540     -328169.715        2240.550          53.000  
G30  22340256.880     -507910.615        3573.228          53.000  
G01  22063628.322     -192585.480        1314.827          52.000  
G03  24752779.491      421185.504       -3029.197          53.000  
> 2018 02 16 08 22 35.0000000  0  8                     
G05  23922604.019     -508281.612        3617.989          53.000  
G09  20109136.408       91096.116        -664.756          53.000  
G23  22327285.166      294519.524       -2063.728          52.000  
G10  21053732.757      190716.458       -1378.006          53.000  
G11  21068585.292     -330409.691        2239.523          53.000  
G30  22339576.946     -511483.698        3572.931          53.000  
G01  22063378.192     -193899.880        1313.942          53.000  
G03  24753355.946      424214.787       -3029.358          53.000  
> 2018 02 16 08 22 36.0000000  0  8                     
G05  23921915.579     -511899.310        3617.691          53.000  
G09  20109262.993       91761.295        -665.345          53.000  
G23  22327677.945      296583.574       -2064.136          53.000  
G10  21053995.056      192094.868       -1378.704          53.000  
G11  21068159.169     -332648.938        2238.990          53.000  
G30  22338897.083     -515056.402        3572.713          53.000  
G01  22063128.258     -195213.317        1313.155          53.000  
G03  24753932.472      427244.327       -3029.461          53.000  
> 2018 02 16 08 22 37.0000000  0  8                     
G05  23921227.228     -515516.667        3617.321          53.000  
G09  20109389.666       92427.013        -665.951          53.000  
G23  22328070.778      298647.984       -2064.510          53.000  
G10  21054257.481      193473.894       -1379.299          53.000  
G11  21067733.154     -334887.678        2238.480          53.000  
G30  22338217.256     -518628.907        3572.395          53.000  
G01  22062878.467     -196525.982        1312.356          53.000  
G03  24754508.980      430273.959       -3029.705          53.000  
> 2018 02 16 08 22 38.0000000  0  8                     
G05  23920538.931     -519133.617        3616.852          53.000  
G09  20109516.483       93093.350        -666.524          53.000  
G23  22328463.718      300712.851       -2064.997          52.000  
G10  21054520.030      194853.647       -1379.822          53.000  
G11  21067307.264     -337125.812        2238.409          53.000  
G30  22337537.501     -522201.135        3572.175          53.000  
G01  22062628.836     -197837.796        1311.482          53.000  
G03  24755085.542      433303.762       -3029.779          53.000  
> 2018 02 16 08 22 39.0000000  0  8                     
G05  23919850.670     -522750.478        3617.187          53.000  
G09  20109643.335       93760.022        -666.480          53.000  
G23  22328856.693      302777.887       -2064.800          52.000  
G10  21054782.651      196233.732       -1380.057          53.000  
G11  21066881.391     -339363.800        2238.107          53.000  
G30  22336857.727     -525773.383        3572.599          53.000  
G01  22062379.295     -199149.072        1311.356          53.000  
G03  24755662.086      436333.467       -3029.266          53.000  
> 2018 02 16 08 22 40.0000000  0  8                     
G05  23919162.463     -526366.995        3616.370          53.000  
G09  20109770.294       94427.276        -667.534          53.000  
G23  22329249.723      304843.347       -2065.698          53.000  
G10  21055045.397      197614.453       -1381.054          53.000  
G11  21066455.608     -341601.281        2237.150          53.000  
G30  22336177.990     -529345.399        3571.908          53.000  
G01  22062129.915     -200459.568        1310.134          53.000  
G03  24756238.648      439363.329       -3029.895          53.000  
> 2018 02 16 08 22 41.0000000  0  8                     
G05  23918474.326     -529983.167        3615.941          53.000  
G09  20109897.379       95095.135        -668.203          53.000  
G23  22329642.859      306909.259       -2066.177          53.000  
G10  21055308.251      198995.812       -1381.723          53.000  
G11  21066029.915     -343838.284        2236.689          53.000  
G30  22335498.305     -532917.167        3571.623          53.000  
G01  22061880.696     -201769.273        1309.293          53.000  
G03  24756815.246      442393.383       -3030.171          53.000  
> 2018 02 16 08 22 42.0000000  0  8                     
G05  23917786.226     -533599.181        3616.032          52.000  
G09  20110024.570       95763.425        -668.382          53.000  
G23  22330036.031      308975.471       -2066.289          53.000  
G10  21055571.211      200377.636       -1381.678          53.000  
G11  21065604.292     -346074.941        2237.087          53.000  
G30  22334818.621     -536488.853        3571.753          53.000  
G01  22061631.584     -203078.371        1308.929          53.000  
G03  24757391.861      445423.458       -3029.931          53.000  
> 2018 02 16 08 22 43.0000000  0  8                     
G05  23917098.197     -537214.836        3615.485          52.000  
G09  20110151.869       96432.369        -669.228          52.000  
G23  22330429.310      311042.186       -2066.922          53.000  
G10  21055834.297      201760.055       -1382.728          53.000  
G11  21065178.741     -348311.245        2235.945          53.000  
G30  22334139.009     -540060.254        3571.329          52.000  
G01  22061382.633     -204386.660        1307.979          53.000  
G03  24757968.513      448453.794       -3030.392          53.000  
> 2018 02 16 08 22 44.0000000  0  8                     
G05  23916410.222     -540830.127        3615.101          53.000  
G09  20110279.293       97101.973        -669.908          53.000  
G23  22330822.679      313109.439       -2067.490          53.000  
G10  21056097.490      203143.134       -1383.356          53.000  
G11  21064753.298     -350547.045        2235.476          53.000  
G30  22333459.432     -543631.346        3570.984          53.000  
G01  22061133.825     -205694.135        1307.141          53.000  
G03  24758545.217      451484.404       -3030.712          53.000  
> 2018 02 16 08 22 45.0000000  0  8                     
G05  23915722.318     -544445.088        3615.041          53.000  
G09  20110406.824       97772.223        -670.376          53.000  
G23  22331216.173      315177.217       -2067.845          53.000  
G10  21056360.790      204526.852       -1383.870          53.000  
G11  21064327.926     -352782.394        2235.271          53.000  
G30  22332779.927     -547202.143        3570.827          53.000  
G01  22060885.177     -207000.821        1306.516          53.000  
G03  24759121.958      454515.289       -3030.821          53.000  
> 2018 02 16 08 22 46.0000000  0  8                     
G05  23915034.397     -548060.100        3615.102          53.000  
G09  20110534.427       98442.748        -670.596          53.000  
G23  22331609.702      317245.151       -2067.964          53.000  
G10  21056624.143      205910.832       -1383.875          53.000  
G11  21063902.554     -355017.625        2235.718          53.000  
G30  22332100.421     -550773.028        3570.996          53.000  
G01  22060636.601     -208307.109        1306.146          53.000  
G03  24759698.716      457546.083       -3030.698          53.000  
> 2018 02 16 08 22 47.0000000  0  8                     
G05  23914346.511     -551675.015        3615.209          53.000  
G09  20110662.101       99113.715        -670.801          53.000  
G23  22332003.268      319313.415       -2068.106          53.000  
G10  21056887.568      207295.145       -1384.222          53.000  
G11  21063477.217     -357252.796        2235.252          53.000  
G30  22331420.916     -554343.822        3571.091          53.000  
G01  22060388.132     -209612.841        1305.816          53.000  
G03  24760275.475      460576.969       -3030.583          52.000  
> 2018 02 16 08 22 48.0000000  0  8                     
G05  23913658.607     -555289.963        3614.911          53.000  
G09  20110789.865       99785.013        -671.510          53.000  
G23  22332396.886      321381.900       -2068.688          53.000  
G10  21057151.047      208679.749       -1384.844          53.000  
G11  21063051.917     -359487.864        2234.858          53.000  
G30  22330741.411     -557914.639        3570.747          53.000  
G01  22060139.753     -210918.141        1305.018          53.000  
G03  24760852.233      463607.842       -3030.921          52.000  
> 2018 02 16 08 22 49.0000000  0  8                     
G05  23912970.757     -558904.610        3614.635          53.000  
G09  20110917.736      100456.976        -672.139          53.000  
G23  22332790.612      323450.950       -2069.209          53.000  
G10  21057414.633      210064.947       -1385.368          53.000  
G11  21062626.670     -361722.539        2234.557          53.000  
G30  22330061.977     -561485.141        3570.473          53.000  
G01  22059891.499     -212222.681        1304.314          53.000  
G03  24761429.063      466639.052       -3031.219          53.000  
> 2018 02 16 08 22 50.0000000  0  8                     
G05  23912282.960     -562519.016        3614.417          53.000  
G09  20111045.731      101129.567        -672.749          53.000  
G23  22333184.446      325520.528       -2069.686          53.000  
G10  21057678.344      211450.732       -1385.734          53.000  
G11  21062201.494     -363956.800        2234.757          53.000  
G30  22329382.597     -565055.355        3570.186          53.000  
G01  22059643.405     -213526.513        1303.637          52.000  
G03  24762005.947      469670.577       -3031.566          53.000  
> 2018 02 16 08 22 51.0000000  0  8                     
G05  23911595.164     -566133.371        3614.375          53.000  
G09  20111173.781      101802.602        -673.191          53.000  
G23  22333578.333      327590.467       -2070.097          53.000  
G10  21057942.127      212836.820       -1386.289          53.000  
G11  21061776.337     -366191.061        2234.082          53.000  
G30  22328703.234     -568625.467        3570.097          53.000  
G01  22059395.383     -214829.827        1303.127          53.000  
G03  24762582.848      472702.241       -3031.662          52.000  
> 2018 02 16 08 22 52.0000000  0  8                     
G05  23910907.367     -569747.722        3614.335          52.000  
G09  20111301.955      102476.064        -673.675          53.000  
G23  22333972.291      329660.736       -2070.424          53.000  
G10  21058205.963      214223.259       -1386.610          53.000  
G11  21061351.197     -368425.182        2233.975          53.000  
G30  22328023.872     -572195.487        3569.968          53.000  
G01  22059147.468     -216132.656        1302.615          53.000  
G03  24763159.803      475734.040       -3031.862          52.000  
> 2018 02 16 08 22 53.0000000  0  8                     
G05  23910219.624     -573361.844        3613.998          52.000  
G09  20111430.219      103150.160        -674.409          52.000  
G23  22334366.356      331731.563       -2071.077          53.000  
G10  21058469.888      215610.239       -1387.271          53.000  
G11  21060926.128     -370658.977        2233.610          53.000  
G30  22327344.599     -575765.200        3569.575          53.000  
G01  22058899.696     -217434.793        1301.799          53.000  
G03  24763736.794      478766.195       -3032.320          52.000  
> 2018 02 16 08 22 54.0000000  0  8                     
G05  23909531.881     -576975.942        3614.028          53.000  
G09  20111558.572      103824.721        -674.825          53.000  
G23  22334760.494      333802.777       -2071.450          53.000  
G10  21058733.885      216997.612       -1387.428          53.000  
G11  21060501.096     -372892.552        2233.878          53.000  
G30  22326665.326     -579334.767        3569.429          53.000  
G01  22058651.996     -218736.423        1301.346          52.000  
G03  24764313.838      481798.548       -3032.478          53.000  
> 2018 02 16 08 22 55.0000000  0  8                     
G05  23908844.156     -580589.960        3614.195          53.000  
G09  20111687.033      104499.822        -675.145          53.000  
G23  22335154.720      335874.453       -2071.712          52.000  
G10  21058997.989      218385.361       -1387.753          53.000  
G11  21060076.045     -375126.110        2233.528          53.000  
G30  22325986.106     -582904.114        3569.451          52.000  
G01  22058404.421     -220037.481        1300.998          53.000  
G03  24764890.936      484831.186       -3032.543          52.000  
> 2018 02 16 08 22 56.0000000  0  8                     
G05  23908156.467     -584203.809        3614.023          53.000  
G09  20111815.618      105175.539        -675.780          53.000  
G23  22335549.054      337946.676       -2072.249          52.000  
G10  21059262.165      219773.630       -1388.304          53.000  
G11  21059651.066     -377359.352        2233.236          53.000  
G30  22325306.923     -586473.145        3569.107          53.000  
G01  22058156.953     -221337.893        1300.342          53.000  
G03  24765468.088      487864.204       -3032.967          53.000  
> 2018 02 16 08 22 57.0000000  0  8                     
G05  23907468.777     -587817.680        3614.022          53.000  
G09  20111944.275      105851.709        -676.282          53.000  
G23  22335943.476      340019.281       -2072.662          53.000  
G10  21059526.412      221162.255       -1388.707          53.000  
G11  21059226.123     -379592.492        2233.162          53.000  
G30  22324627.793     -590042.021        3568.905          53.000  
G01  22057909.574     -222637.832        1299.822          53.000  
G03  24766045.293      490897.445       -3033.264          53.000  
> 2018 02 16 08 22 58.0000000  0  8                     
G05  23906781.052     -591431.647        3614.034          53.000  
G09  20112073.039      106528.259        -676.731          53.000  
G23  22336337.953      342092.202       -2073.060          53.000  
G10  21059790.713      222551.160       -1388.884          53.000  
G11  21058801.198     -381825.526        2233.451          53.000  
G30  22323948.662     -593610.810        3568.766          53.000  
G01  22057662.284     -223937.384        1299.375          53.000  
G03  24766622.534      493930.843       -3033.445          53.000  
> 2018 02 16 08 22 59.0000000  0  8                     
G05  23906093.327     -595045.706        3614.440          53.000  
G09  20112201.875      107205.212        -676.849          53.000  
G23  22336732.465      344165.465       -2073.140          52.000  
G10  21060055.049      223940.310       -1389.029          53.000  
G11  21058376.255     -384058.682        2233.321          53.000  
G30  22323269.568     -597179.472        3568.894          53.000  
G01  22057415.066     -225236.526        1299.268          53.000  
G03  24767199.811      496964.448       -3033.382          53.000  
> 2018 02 16 08 23 00.0000000  0  8                     
G05  23905405.602     -598659.783        3614.312          53.000  
G09  20112330.800      107882.643        -677.448          53.000  
G23  22337127.067      346239.143       -2073.670          53.000  
G10  21060319.457      225329.829       -1389.501          53.000  
G11  21057951.311     -386291.691        2233.094          53.000  
G30  22322590.510     -600747.925        3568.568          53.000  
G01  22057167.956     -226535.190        1298.669          53.000  
G03  24767777.141      499998.337       -3033.797          53.000  
> 2018 02 16 08 23 01.0000000  0  8                     
G05  23904717.841     -602273.886        3614.295          53.000  
G09  20112459.797      108560.561        -678.021          53.000  
G23  22337521.758      348313.249       -2074.180          53.000  
G10  21060583.955      226719.724       -1389.954          53.000  
G11  21057526.404     -388524.580        2232.933          53.000  
G30  22321911.505     -604316.145        3568.236          53.000  
G01  22056920.916     -227833.370        1298.078          53.000  
G03  24768354.543      503032.537       -3034.226          53.000  
> 2018 02 16 08 23 02.0000000  0  8                     
G05  23904030.134     -605887.834        3613.945          53.000  
G09  20112588.936      109239.144        -678.830          53.000  
G23  22337916.574      350387.963       -2074.966          53.000  
G10  21060848.541      228110.189       -1390.553          53.000  
G11  21057101.586     -390757.090        2232.867          53.000  
G30  22321232.571     -607883.951        3567.671          53.000  
G01  22056673.984     -229130.903        1297.292          53.000  
G03  24768932.016      506067.229       -3034.854          53.000  
> 2018 02 16 08 23 03.0000000  0  8                     
G05  23903342.463     -609501.520        3613.649          53.000  
G09  20112718.200      109918.530        -679.738          53.000  
G23  22338311.515      352463.423       -2075.781          53.000  
G10  21061113.271      229501.311       -1391.452          53.000  
G11  21056676.803     -392989.315        2231.953          53.000  
G30  22320553.745     -611451.190        3567.014          53.000  
G01  22056427.231     -230427.647        1296.412          53.000  
G03  24769509.614      509102.573       -3035.622          53.000  
> 2018 02 16 08 23 04.0000000  0  8                     
G05  23902654.809     -613115.153        3613.718          53.000  
G09  20112847.608      110598.495        -680.187          53.000  
G23  22338706.563      354539.405       -2076.162          53.000  
G10  21061378.090      230892.910       -1391.759          53.000  
G11  21056252.074     -395221.297        2231.875          53.000  
G30  22319874.990     -615018.072        3566.773          53.000  
G01  22056180.585     -231723.833        1296.001          53.000  
G03  24770087.320      512138.349       -3035.916          53.000  
> 2018 02 16 08 23 05.0000000  0  8                     
G05  23901967.138     -616728.928        3613.958          53.000  
G09  20112977.069      111278.855        -680.439          53.000  
G23  22339101.683      356615.730       -2076.373          53.000  
G10  21061642.962      232284.807       -1391.916          53.000  
G11  21055827.346     -397453.225        2231.967          53.000  
G30  22319196.271     -618584.768        3566.728          53.000  
G01  22055934.010     -233019.644        1295.767          53.000  
G03  24770665.061      515174.390       -3036.045          53.000  
> 2018 02 16 08 23 06.0000000  0  8                     
G05  23901279.484     -620342.598        3613.747          53.000  
G09  20113106.655      111959.871        -681.205          53.000  
G23  22339496.910      358692.651       -2077.048          53.000  
G10  21061907.942      233677.274       -1392.512          53.000  
G11  21055402.688     -399684.792        2232.007          53.000  
G30  22318517.641     -622151.007        3566.155          53.000  
G01  22055687.543     -234314.829        1295.029          53.000  
G03  24771242.891      518210.963       -3036.702          53.000  
> 2018 02 16 08 23 07.0000000  0  8                     
G05  23900591.812     -623956.274        3613.507          53.000  
G09  20113236.349      112641.433        -681.979          53.000  
G23  22339892.245      360770.076       -2077.829          53.000  
G10  21062173.011      235070.174       -1393.304          53.000  
G11  21054978.067     -401916.291        2231.132          53.000  
G30  22317839.083     -625716.881        3565.526          53.000  
G01  22055441.183     -235609.487        1294.205          53.000  
G03  24771820.829      521247.977       -3037.398          53.000  
> 2018 02 16 08 23 08.0000000  0  8                     
G05  23899904.159     -627569.853        3614.128          53.000  
G09  20113366.167      113323.650        -681.952          53.000  
G23  22340287.668      362848.086       -2077.708          53.000  
G10  21062438.169      236463.628       -1393.177          53.000  
G11  21054553.499     -404147.455        2231.508          53.000  
G30  22317160.614     -629282.274        3565.695          53.000  
G01  22055194.930     -236903.529        1294.304          53.000  
G03  24772398.856      524285.540       -3037.267          53.000  
> 2018 02 16 08 23 09.0000000  0  8                     
G05  23899216.434     -631183.828        3614.285          53.000  
G09  20113496.021      114006.035        -682.315          53.000  
G23  22340683.110      364926.213       -2078.035          53.000  
G10  21062703.364      237857.189       -1393.484          53.000  
G11  21054128.877     -406378.770        2231.480          53.000  
G30  22316482.145     -632847.662        3565.528          53.000  
G01  22054948.730     -238197.434        1293.959          53.000  
G03  24772976.901      527323.178       -3037.561          53.000  
> 2018 02 16 08 23 10.0000000  0  8                     
G05  23898528.655     -634798.079        3614.353          53.000  
G09  20113625.947      114688.712        -682.902          53.000  
G23  22341078.605      367004.574       -2078.511          53.000  
G10  21062968.593      239250.984       -1393.989          53.000  
G11  21053704.291     -408610.057        2231.618          53.000  
G30  22315803.712     -636412.894        3565.095          53.000  
G01  22054702.549     -239491.073        1293.462          53.000  
G03  24773554.982      530361.025       -3037.994          53.000  
> 2018 02 16 08 23 11.0000000  0  8                     
G05  23897840.876     -638412.399        3614.486          53.000  
G09  20113755.944      115371.879        -683.267          53.000  
G23  22341474.189      369083.370       -2078.886          53.000  
G10  21063233.913      240645.181       -1394.307          53.000  
G11  21053279.705     -410841.284        2231.155          53.000  
G30  22315125.350     -639977.768        3564.836          53.000  
G01  22054456.457     -240784.249        1293.058          53.000  
G03  24774133.152      533399.299       -3038.356          53.000  
> 2018 02 16 08 23 12.0000000  0  8                     
G05  23897153.080     -642026.708        3614.475          53.000  
G09  20113886.066      116055.636        -683.899          53.000  
G23  22341869.881      371162.688       -2079.405          53.000  
G10  21063499.303      242039.918       -1394.816          53.000  
G11  21052855.191     -413072.208        2230.919          53.000  
G30  22314447.078     -643542.165        3564.320          53.000  
G01  22054210.472     -242076.871        1292.519          53.000  
G03  24774711.412      536438.093       -3038.878          53.000  
> 2018 02 16 08 23 13.0000000  0  8                     
G05  23896465.301     -645641.017        3614.367          53.000  
G09  20114016.296      116739.958        -684.536          53.000  
G23  22342265.662      373242.512       -2080.024          53.000  
G10  21063764.819      243435.184       -1395.479          53.000  
G11  21052430.712     -415302.841        2230.534          53.000  
G30  22313768.877     -647106.098        3563.755          53.000  
G01  22053964.612     -243368.949        1291.885          53.000  
G03  24775289.778      539477.400       -3039.526          53.000  
> 2018 02 16 08 23 14.0000000  0  8                     
G05  23895777.487     -649255.492        3614.794          52.000  
G09  20114146.597      117424.696        -684.733          53.000  
G23  22342661.514      375322.681       -2080.119          53.000  
G10  21064030.389      244830.837       -1395.664          53.000  
G11  21052006.270     -417533.261        2230.792          53.000  
G30  22313090.747     -650669.704        3563.652          53.000  
G01  22053718.823     -244660.642        1291.732          53.000  
G03  24775868.217      542517.072       -3039.648          53.000  
> 2018 02 16 08 23 15.0000000  0  8                     
G05  23895089.654     -652870.105        3614.742          53.000  
G09  20114276.987      118109.863        -685.366          53.000  
G23  22343057.420      377403.216       -2080.709          52.000  
G10  21064296.047      246226.900       -1396.226          53.000  
G11  21051581.862     -419763.616        2230.233          53.000  
G30  22312412.689     -654232.950        3563.083          53.000  
G01  22053473.088     -245951.921        1291.108          53.000  
G03  24776446.726      545557.133       -3040.190          53.000  
> 2018 02 16 08 23 16.0000000  0  8                     
G05  23894401.768     -656484.912        3615.077          53.000  
G09  20114407.449      118795.406        -685.548          53.000  
G23  22343453.398      379484.050       -2080.768          53.000  
G10  21064561.778      247623.325       -1396.305          53.000  
G11  21051157.455     -421993.833        2230.300          53.000  
G30  22311734.685     -657795.879        3562.988          53.000  
G01  22053227.425     -247242.847        1290.967          53.000  
G03  24777025.289      548597.538       -3040.392          53.000  
> 2018 02 16 08 23 17.0000000  0  8                     
G05  23893713.883     -660099.776        3614.904          53.000  
G09  20114537.000      119481.466        -686.262          53.000  
G23  22343849.465      381565.330       -2081.464          53.000  
G10  21064827.615      249020.278       -1397.138          53.000  
G11  21050733.120     -424223.745        2229.780          53.000  
G30  22311056.752     -661358.329        3562.246          53.000  
G01  22052981.869     -248533.268        1290.213          53.000  
G03  24777603.960      551638.432       -3041.085          53.000  
> 2018 02 16 08 23 18.0000000  0  8                     
G05  23893025.961     -663714.847        3615.389          53.000  
G09  20114668.604      120167.895        -686.424          53.000  
G23  22344245.567      383646.899       -2081.532          53.000  
G10  21065093.524      250417.620       -1397.474          53.000  
G11  21050308.837     -426453.432        2229.945          53.000  
G30  22310378.909     -664920.440        3562.125          53.000  
G01  22052736.367     -249823.329        1290.069          53.000  
G03  24778182.684      554679.670       -3041.215          53.000  
> 2018 02 16 08 23 19.0000000  0  8                     
G05  23892337.968     -667330.209        3615.592          53.000  
G09  20114799.280      120854.592        -686.754          53.000  
G23  22344641.706      385728.646       -2081.742          52.000  
G10  21065359.504      251815.268       -1397.693          53.000  
G11  21049884.537     -428683.135        2229.714          53.000  
G30  22309701.101     -668482.300        3561.808          53.000  
G01  22052490.936     -251113.132        1289.777          53.000  
G03  24778761.479      557721.161       -3041.529          53.000  
> 2018 02 16 08 23 20.0000000  0  8                     
G05  23891649.957     -670945.727        3615.590          53.000  
G09  20114930.046      121541.699        -687.305          52.000  
G23  22345037.898      387810.720       -2082.236          53.000  
G10  21065625.539      253213.372       -1398.308          53.000  
G11  21049460.273     -430912.581        2229.315          53.000  
G30  22309023.382     -672043.746        3561.231          53.000  
G01  22052245.576     -252402.518        1289.161          53.000  
G03  24779340.329      560763.048       -3042.127          53.000  
> 2018 02 16 08 23 21.0000000  0  8                     
G05  23890961.928     -674561.430        3615.744          53.000  
G09  20115060.865      122229.178        -687.701          52.000  
G23  22345434.161      389893.075       -2082.533          52.000  
G10  21065891.680      254611.912       -1398.745          53.000  
G11  21049036.081     -433141.791        2229.057          53.000  
G30  22308345.735     -675604.803        3560.815          53.000  
G01  22052000.288     -253691.525        1288.767          53.000  
G03  24779919.267      563805.297       -3042.466          52.000  
> 2018 02 16 08 23 22.0000000  0  8                     
G05  23890273.863     -678177.208        3616.046          53.000  
G09  20115191.774      122917.142        -687.968          53.000  
G23  22345830.514      391975.818       -2082.723          53.000  
G10  21066157.910      256011.006       -1399.272          53.000  
G11  21048611.959     -435370.600        2228.950          53.000  
G30  22307668.196     -679165.350        3560.512          53.000  
G01  22051755.107     -254980.033        1288.488          53.000  
G03  24780498.277      566848.027       -3042.738          52.000  
> 2018 02 16 08 23 23.0000000  0  8                     
G05  23889585.834     -681792.748        3615.124          53.000  
G09  20115322.825      123605.886        -689.410          53.000  
G23  22346226.992      394059.236       -2084.058          53.000  
G10  21066424.320      257411.001       -1400.684          53.000  
G11  21048187.927     -437598.800        2227.530          52.000  
G30  22306990.799     -682725.071        3559.001          53.000  
G01  22051510.069     -256267.737        1286.982          53.000  
G03  24781077.448      569891.533       -3044.187          53.000  
> 2018 02 16 08 23 24.0000000  0  8                     
G05  23888897.841     -685408.183        3615.747          53.000  
G09  20115454.019      124295.282        -689.332          53.000  
G23  22346623.559      396143.197       -2083.857          53.000  
G10  21066690.854      258811.741       -1400.713          53.000  
G11  21047764.038     -439826.425        2227.701          53.000  
G30  22306313.545     -686284.088        3559.048          53.000  
G01  22051265.156     -257554.763        1287.064          53.000  
G03  24781656.744      572935.689       -3044.118          53.000  
> 2018 02 16 08 23 25.0000000  0  8                     
G05  23888209.741     -689024.121        3616.297          53.000  
G09  20115585.214      124984.713        -689.340          53.000  
G23  22347020.109      398227.084       -2083.755          53.000  
G10  21066957.424      260212.654       -1400.874          53.000  
G11  21047340.132     -442054.068        2227.754          53.000  
G30  22305636.327     -689842.995        3558.914          53.000  
G01  22051020.261     -258841.712        1287.039          52.000  
G03  24782236.040      575979.881       -3044.103          53.000  
> 2018 02 16 08 23 26.0000000  0  8                     
G05  23887521.659     -692640.069        3615.936          53.000  
G09  20115716.515      125674.660        -690.212          53.000  
G23  22347416.747      400311.361       -2084.470          53.000  
G10  21067224.137      261614.210       -1402.103          52.000  
G11  21046916.314     -444281.184        2226.836          53.000  
G30  22304959.198     -693401.308        3557.972          53.000  
G01  22050775.474     -260128.098        1286.086          53.000  
G03  24782815.425      579024.589       -3044.997          53.000  
> 2018 02 16 08 23 27.0000000  0  8                     
G05  23886833.576     -696256.010        3616.045          53.000  
G09  20115847.906      126365.137        -690.639          52.000  
G23  22347813.440      402396.049       -2084.753          53.000  
G10  21067490.993      263016.481       -1402.475          53.000  
G11  21046492.586     -446507.829        2226.488          53.000  
G30  22304282.177     -696958.999        3557.504          53.000  
G01  22050530.793     -261413.898        1285.638          53.000  
G03  24783394.917      582069.829       -3045.390          53.000  
> 2018 02 16 08 23 28.0000000  0  8                     
G05  23886145.440     -699872.182        3616.285          53.000  
G09  20115979.351      127055.891        -690.876          53.000  
G23  22348210.168      404480.884       -2084.908          53.000  
G10  21067757.920      264419.209       -1402.905          53.000  
G11  21046068.947     -448734.187        2226.271          53.000  
G30  22303605.244     -700516.300        3557.120          53.000  
G01  22050286.166     -262699.351        1285.309          53.000  
G03  24783974.445      585115.345       -3045.634          53.000  
> 2018 02 16 08 23 29.0000000  0  8                     
G05  23885457.286     -703488.456        3616.366          53.000  
G09  20116110.885      127747.050        -691.299          53.000  
G23  22348606.949      406565.985       -2085.206          53.000  
G10  21068024.955      265822.535       -1403.574          53.000  
G11  21045645.362     -450960.085        2225.693          53.000  
G30  22302928.402     -704073.078        3556.545          53.000  
G01  22050041.646     -263984.323        1284.777          53.000  
G03  24784554.063      588161.266       -3046.074          52.000  
> 2018 02 16 08 23 30.0000000  0  8                     
G05  23884769.132     -707104.790        3616.683          53.000  
G09  20116242.490      128438.642        -691.470          53.000  
G23  22349003.785      408651.374       -2085.216          53.000  
G10  21068292.133      267226.480       -1404.155          53.000  
G11  21045221.902     -453185.468        2225.374          53.000  
G30  22302251.666     -707629.297        3556.254          53.000  
G01  22049797.216     -265268.778        1284.526          53.000  
G03  24785133.770      591207.615       -3046.224          53.000  
> 2018 02 16 08 23 31.0000000  0  8                     
G05  23884080.960     -710721.230        3616.340          53.000  
G09  20116374.167      129130.612        -692.257          53.000  
G23  22349400.656      410736.988       -2085.807          53.000  
G10  21068559.400      268631.079       -1404.926          53.000  
G11  21044798.495     -455410.414        2224.637          53.000  
G30  22301575.038     -711184.998        3555.334          53.000  
G01  22049552.875     -266552.757        1283.640          53.000  
G03  24785713.548      594254.341       -3047.031          53.000  
> 2018 02 16 08 23 32.0000000  0  8                     
G05  23883392.771     -714337.638        3616.769          53.000  
G09  20116505.933      129823.088        -692.325          53.000  
G23  22349797.616      412822.958       -2085.765          53.000  
G10  21068826.828      270036.418       -1405.280          53.000  
G11  21044375.232     -457634.738        2224.430          53.000  
G30  22300898.552     -714740.038        3555.112          53.000  
G01  22049308.641     -267836.119        1283.476          53.000  
G03  24786293.416      597301.561       -3047.035          53.000  
> 2018 02 16 08 23 33.0000000  0  8                     
G05  23882704.563     -717954.312        3616.731          53.000  
G09  20116637.735      130515.761        -692.839          53.000  
G23  22350194.558      414908.956       -2086.077          53.000  
G10  21069094.345      271442.223       -1406.078          53.000  
G11  21043952.022     -459858.715        2223.740          53.000  
G30  22300222.120     -718294.722        3554.409          53.000  
G01  22049064.497     -269119.162        1282.848          53.000  
G03  24786873.319      600348.970       -3047.574          53.000  
> 2018 02 16 08 23 34.0000000  0  8                     
G05  23882016.355     -721570.862        3616.869          53.000  
G09  20116769.662      131209.004        -693.117          53.000  
G23  22350591.608      416995.359       -2086.211          53.000  
G10  21069362.023      272848.854       -1406.899          52.000  
G11  21043528.955     -462081.954        2223.164          53.000  
G30  22299545.831     -721848.667        3553.961          52.000  
G01  22048820.460     -270401.501        1282.387          53.000  
G03  24787453.330      603396.934       -3047.852          53.000  
> 2018 02 16 08 23 35.0000000  0  8                     
G05  23881328.112     -725187.574        3616.720          53.000  
G09  20116901.625      131902.526        -693.671          53.000  
G23  22350988.658      419081.861       -2086.577          53.000  
G10  21069629.826      274256.122       -1407.499          53.000  
G11  21043105.977     -464304.717        2222.556          53.000  
G30  22298869.632     -725402.156        3553.203          53.000  
G01  22048576.529     -271683.417        1281.642          53.000  
G03  24788033.394      606445.158       -3048.426          53.000  
> 2018 02 16 08 23 36.0000000  0  8                     
G05  23880639.887     -728804.196        3616.822          53.000  
G09  20117033.712      132596.566        -694.034          53.000  
G23  22351385.761      421168.696       -2086.762          53.000  
G10  21069897.790      275664.202       -1408.244          53.000  
G11  21042683.125     -466526.754        2221.952          52.000  
G30  22298193.575     -728954.941        3552.665          52.000  
G01  22048332.707     -272964.664        1281.137          53.000  
G03  24788613.547      609493.868       -3048.742          53.000  
> 2018 02 16 08 23 37.0000000  0  8                     
G05  23879951.661     -732420.915        3616.690          53.000  
G09  20117165.836      133290.925        -694.606          53.000  
G23  22351782.882      423255.656       -2087.101          53.000  
G10  21070165.861      277072.932       -1409.110          53.000  
G11  21042260.379     -468748.237        2221.152          53.000  
G30  22297517.590     -732507.216        3551.945          52.000  
G01  22048088.973     -274245.422        1280.435          52.000  
G03  24789193.755      612542.863       -3049.211          53.000  
> 2018 02 16 08 23 38.0000000  0  8                     
G05  23879263.436     -736037.511        3616.707          52.000  
G09  20117298.067      133985.807        -695.066          53.000  
G23  22352180.093      425342.947       -2087.330          53.000  
G10  21070434.093      278482.511       -1410.309          53.000  
G11  21041837.813     -470968.912        2220.003          53.000  
G30  22296841.766     -736058.761        3551.215          53.000  
G01  22047845.401     -275525.475        1279.815          53.000  
G03  24789774.051      615592.347       -3049.614          53.000  
> 2018 02 16 08 23 39.0000000  0  8                     
G05  23878575.193     -739654.201        3616.862          53.000  
G09  20117430.351      134680.978        -695.160          53.000  
G23  22352577.321      427430.320       -2087.254          53.000  
G10  21070702.467      279892.800       -1410.319          53.000  
G11  21041415.317     -473189.013        2220.010          53.000  
G30  22296166.013     -739609.816        3550.929          53.000  
G01  22047601.899     -276805.047        1279.512          53.000  
G03  24790354.401      618642.075       -3049.687          53.000  
> 2018 02 16 08 23 40.0000000  0  8                     
G05  23877886.967     -743270.866        3616.785          53.000  
G09  20117562.707      135376.548        -695.572          53.000  
G23  22352974.549      429517.883       -2087.511          53.000  
G10  21070970.967      281303.869       -1411.218          53.000  
G11  21040993.001     -475408.389        2219.240          53.000  
G30  22295490.385     -743160.259        3550.281          53.000  
G01  22047358.523     -278084.009        1278.754          53.000  
G03  24790934.823      621692.151       -3050.102          53.000  
> 2018 02 16 08 23 41.0000000  0  8                     
G05  23877198.724     -746887.639        3616.545          53.000  
G09  20117695.116      136072.373        -696.212          53.000  
G23  22353371.814      431605.483       -2087.925          53.000  
G10  21071239.610      282715.583       -1412.292          53.000  
G11  21040570.756     -477627.178        2218.220          53.000  
G30  22294814.847     -746710.228        3549.418          53.000  
G01  22047115.237     -279362.499        1277.987          53.000  
G03  24791515.262      624742.422       -3050.663          53.000  
> 2018 02 16 08 23 42.0000000  0  8                     
G05  23876510.516     -750504.205        3616.442          53.000  
G09  20117827.633      136768.751        -696.645          53.000  
G23  22353769.131      433693.405       -2088.086          53.000  
G10  21071508.414      284128.223       -1413.426          53.000  
G11  21040148.708     -479845.065        2217.157          53.000  
G30  22294139.469     -750259.428        3548.805          53.000  
G01  22046872.093     -280640.208        1277.302          53.000  
G03  24792095.809      627793.173       -3051.036          53.000  
> 2018 02 16 08 23 43.0000000  0  8                     
G05  23875822.398     -754120.347        3616.082          53.000  
G09  20117960.293      137465.885        -697.335          53.000  
G23  22354166.556      435781.855       -2088.544          53.000  
G10  21071777.468      285542.111       -1414.212          53.000  
G11  21039726.891     -482061.775        2216.381          53.000  
G30  22293464.252     -753807.647        3547.884          53.000  
G01  22046629.145     -281916.914        1276.345          53.000  
G03  24792676.463      630844.601       -3051.601          53.000  
> 2018 02 16 08 23 44.0000000  0  8                     
G05  23875134.244     -757736.619        3616.419          53.000  
G09  20118092.970      138163.208        -697.330          53.000  
G23  22354563.963      437870.258       -2088.308          53.000  
G10  21072046.647      286956.621       -1414.675          53.000  
G11  21039305.182     -484277.903        2215.981          53.000  
G30  22292789.125     -757355.450        3547.680          53.000  
G01  22046386.288     -283193.176        1276.107          53.000  
G03  24793257.170      633896.130       -3051.486          53.000  
> 2018 02 16 08 23 45.0000000  0  8                     
G05  23874446.019     -761353.226        3616.607          53.000  
G09  20118225.666      138860.499        -697.425          53.000  
G23  22354961.335      439958.380       -2088.150          53.000  
G10  21072315.897      288371.559       -1415.296          53.000  
G11  21038883.527     -486493.635        2215.402          53.000  
G30  22292114.033     -760903.055        3547.334          53.000  
G01  22046143.483     -284469.201        1275.730          53.000  
G03  24793837.842      636947.532       -3051.510          53.000  
> 2018 02 16 08 23 46.0000000  0  8                     
G05  23873757.811     -764969.785        3616.435          53.000  
G09  20118358.432      139558.128        -697.864          53.000  
G23  22355358.706      442046.587       -2088.325          52.000  
G10  21072585.291      289787.242       -1416.347          53.000  
G11  21038462.015     -488708.607        2214.247          53.000  
G30  22291439.067     -764450.094        3546.672          53.000  
G01  22045900.786     -285744.610        1275.010          53.000  
G03  24794418.550      639999.161       -3051.815          53.000  
> 2018 02 16 08 23 47.0000000  0  8                     
G05  23873069.657     -768586.082        3616.421          53.000  
G09  20118491.289      140256.297        -698.182          53.000  
G23  22355756.131      444135.079       -2088.348          53.000  
G10  21072854.898      291204.045       -1416.973          53.000  
G11  21038040.735     -490922.508        2213.777          53.000  
G30  22290764.225     -767996.366        3546.161          53.000  
G01  22045658.250     -287019.186        1274.452          53.000  
G03  24794999.329      643051.217       -3051.991          53.000  
> 2018 02 16 08 23 48.0000000  0  8                     
G05  23872381.521     -772202.244        3616.222          53.000  
G09  20118624.216      140954.854        -698.571          53.000  
G23  22356153.574      446223.703       -2088.584          53.000  
G10  21073124.685      292621.710       -1417.893          53.000  
G11  21037619.615     -493135.542        2212.803          53.000  
G30  22290089.509     -771542.012        3545.471          53.000  
G01  22045415.839     -288293.057        1273.620          53.000  
G03  24795580.161      646103.532       -3052.313          53.000  
> 2018 02 16 08 23 49.0000000  0  8                     
G05  23871693.367     -775818.425        3616.277          53.000  
G09  20118757.198      141653.648        -698.778          53.000  
G23  22356551.034      448312.284       -2088.453          53.000  
G10  21073394.597      294040.102       -1418.620          53.000  
G11  21037198.621     -495347.854        2212.096          53.000  
G30  22289414.899     -775087.199        3545.055          53.000  
G01  22045173.535     -289566.389        1273.172          53.000  
G03  24796161.012      649155.938       -3052.343          53.000  
> 2018 02 16 08 23 50.0000000  0  8                     
G05  23871005.231     -779434.591        3615.995          53.000  
G09  20118890.215      142352.688        -699.306          53.000  
G23  22356948.477      450400.842       -2088.696          52.000  
G10  21073664.651      295459.221       -1419.919          53.000  
G11  21036777.770     -497559.417        2210.717          53.000  
G30  22288740.362     -778631.908        3544.305          53.000  
G01  22044931.338     -290839.136        1272.296          53.000  
G03  24796741.880      652208.444       -3052.708          53.000  
> 2018 02 16 08 23 51.0000000  0  8                     
G05  23870317.131     -783050.541        3615.852          53.000  
G09  20119023.321      143052.164        -699.678          53.000  
G23  22357345.956      452489.551       -2088.778          53.000  
G10  21073934.902      296879.369       -1420.561          53.000  
G11  21036357.115     -499769.941        2210.114          53.000  
G30  22288065.949     -782175.962        3543.710          53.000  
G01  22044689.284     -292111.116        1271.615          53.000  
G03  24797322.802      655261.221       -3052.917          53.000  
> 2018 02 16 08 23 52.0000000  0  8                     
G05  23869629.084     -786666.307        3615.690          53.000  
G09  20119156.517      143752.026        -700.033          53.000  
G23  22357743.416      454578.367       -2088.858          52.000  
G10  21074205.314      298300.433       -1421.435          53.000  
G11  21035936.657     -501979.537        2209.198          53.000  
G30  22287391.644     -785719.402        3543.139          52.000  
G01  22044447.374     -293382.352        1270.888          53.000  
G03  24797903.795      658314.208       -3053.074          53.000  
> 2018 02 16 08 23 53.0000000  0  8                     
G05  23868941.037     -790282.046        3615.936          53.000  
G09  20119289.748      144452.108        -699.980          53.000  
G23  22358140.895      456667.105       -2088.470          53.000  
G10  21074475.887      299722.253       -1421.932          53.000  
G11  21035516.324     -504188.346        2208.701          53.000  
G30  22286717.427     -789262.409        3543.015          53.000  
G01  22044205.588     -294653.008        1270.579          53.000  
G03  24798484.771      661367.228       -3052.807          53.000  
> 2018 02 16 08 23 54.0000000  0  8                     
G05  23868253.044     -793897.503        3615.545          53.000  
G09  20119423.051      145152.650        -700.545          53.000  
G23  22358538.409      458756.011       -2088.768          53.000  
G10  21074746.620      301145.031       -1423.236          53.000  
G11  21035096.206     -506396.154        2207.245          53.000  
G30  22286043.354     -792804.739        3542.208          53.000  
G01  22043963.927     -295922.835        1269.677          53.000  
G03  24799065.782      664420.508       -3053.153          53.000  
> 2018 02 16 08 23 55.0000000  0  8                     
G05  23867565.087     -797512.733        3615.087          53.000  
G09  20119556.443      145853.584        -701.153          53.000  
G23  22358935.924      460845.009       -2089.071          53.000  
G10  21075017.551      302568.839       -1424.250          53.000  
G11  21034676.284     -508602.899        2206.295          53.000  
G30  22285369.370     -796346.471        3541.403          53.000  
G01  22043722.427     -297191.883        1268.618          53.000  
G03  24799646.847      667473.971       -3053.576          53.000  
> 2018 02 16 08 23 56.0000000  0  8                     
G05  23866877.201     -801127.593        3615.084          53.000  
G09  20119689.925      146555.038        -701.292          53.000  
G23  22359333.491      462934.222       -2088.882          53.000  
G10  21075288.695      303993.721       -1424.967          53.000  
G11  21034256.558     -510808.540        2205.580          53.000  
G30  22284695.547     -799887.479        3541.059          53.000  
G01  22043481.106     -298460.022        1268.091          53.000  
G03  24800227.966      670527.727       -3053.462          53.000  
> 2018 02 16 08 23 57.0000000  0  8                     
G05  23866189.351     -804742.295        3614.589          53.000  
G09  20119823.478      147256.794        -701.928          53.000  
G23  22359731.059      465023.430       -2089.219          53.000  
G10  21075559.983      305419.465       -1426.174          53.000  
G11  21033837.011     -513013.258        2204.273          53.000  
G30  22284021.814     -803427.988        3540.228          53.000  
G01  22043239.910     -299727.458        1267.060          53.000  
G03  24800809.084      673581.550       -3053.875          53.000  
> 2018 02 16 08 23 58.0000000  0  8                     
G05  23865501.536     -808356.748        3614.558          53.000  
G09  20119957.085      147958.925        -702.099          53.000  
G23  22360128.645      467112.701       -2089.066          53.000  
G10  21075831.485      306846.110       -1427.023          53.000  
G11  21033417.643     -515217.021        2203.245          53.000  
G30  22283348.187     -806967.935        3539.923          53.000  
G01  22042998.875     -300994.110        1266.499          53.000  
G03  24801390.238      676635.499       -3053.775          53.000  
> 2018 02 16 08 23 59.0000000  0  8                     
G05  23864813.793     -811970.809        3613.976          53.000  
G09  20120090.781      148661.567        -702.832          53.000  
G23  22360526.249      469202.167       -2089.469          53.000  
G10  21076103.183      308273.927       -1428.223          53.000  
G11  21032998.507     -517419.554        2202.117          53.000  
G30  22282674.686     -810507.190        3539.008          53.000  
G01  22042758.000     -302259.835        1265.342          53.000  
G03  24801971.428      679689.694       -3054.214          53.000  
> 2018 02 16 08 24 00.0000000  0  8                     
G05  23864126.104     -815584.655        3613.747          53.000  
G09  20120224.548      149364.521        -703.067          53.000  
G23  22360923.852      471291.628       -2089.422          53.000  
G10  21076375.060      309702.613       -1429.055          53.000  
G11  21032579.568     -519621.160        2201.201          53.000  
G30  22282001.292     -814045.955        3538.540          53.000  
G01  22042517.287     -303524.819        1264.626          53.000  
G03  24802552.636      682743.930       -3054.222          53.000  
> 2018 02 16 08 24 01.0000000  0  8                     
G05  23863438.451     -819198.243        3613.366          53.000  
G09  20120358.405      150067.835        -703.591          53.000  
G23  22361321.474      473381.124       -2089.586          53.000  
G10  21076647.116      311132.234       -1430.135          53.000  
G11  21032160.790     -521821.773        2200.073          53.000  
G30  22281327.987     -817584.202        3537.917          53.000  
G01  22042276.716     -304789.017        1263.736          53.000  
G03  24803133.862      685798.234       -3054.406          53.000  
> 2018 02 16 08 24 02.0000000  0  8                     
G05  23862750.833     -822811.677        3613.418          53.000  
G09  20120492.280      150771.381        -703.540          53.000  
G23  22361719.077      475470.526       -2089.011          53.000  
G10  21076919.315      312562.640       -1431.011          53.000  
G11  21031742.190     -524021.544        2199.339          53.000  
G30  22280654.736     -821122.063        3537.995          53.000  
G01  22042036.288     -306052.536        1263.261          53.000  
G03  24803715.070      688852.470       -3053.883          53.000  
> 2018 02 16 08 24 03.0000000  0  8                     
G05  23862063.286     -826424.868        3612.976          52.000  
G09  20120626.208      151475.248        -704.069          53.000  
G23  22362116.681      477559.934       -2089.409          53.000  
G10  21077191.692      313993.988       -1431.760          53.000  
G11  21031323.787     -526220.269        2198.363          53.000  
G30  22279981.592     -824659.451        3537.143          53.000  
G01  22041796.004     -307315.296        1262.362          53.000  
G03  24804296.278      691906.728       -3054.321          53.000  
> 2018 02 16 08 24 04.0000000  0  8                     
G05  23861375.793     -830037.658        3612.890          53.000  
G09  20120760.244      152179.580        -704.271          53.000  
G23  22362514.320      479649.474       -2089.301          53.000  
G10  21077464.267      315426.393       -1432.606          53.000  
G11  21030905.580     -528417.882        2197.409          53.000  
G30  22279308.555     -828196.243        3536.797          53.000  
G01  22041555.880     -308577.136        1261.698          53.000  
G03  24804877.503      694961.116       -3054.180          53.000  
> 2018 02 16 08 24 05.0000000  0  8                     
G05  23860688.372     -833650.136        3612.499          53.000  
G09  20120894.351      152884.279        -704.718          53.000  
G23  22362911.960      481739.053       -2089.420          53.000  
G10  21077737.019      316859.732       -1433.641          53.000  
G11  21030487.570     -530614.484        2196.274          53.000  
G30  22278635.626     -831732.543        3536.211          53.000  
G01  22041315.917     -309838.149        1260.739          53.000  
G03  24805458.747      698015.538       -3054.276          53.000  
> 2018 02 16 08 24 06.0000000  0  8                     
G05  23860001.004     -837262.310        3611.871          53.000  
G09  20121028.529      153589.328        -705.372          53.000  
G23  22363309.581      483828.651       -2089.758          53.000  
G10  21078009.969      318293.966       -1435.011          53.000  
G11  21030069.774     -532810.125        2194.748          53.000  
G30  22277962.768     -835268.381        3535.442          53.000  
G01  22041076.114     -311098.354        1259.597          53.000  
G03  24806039.973      701069.962       -3054.578          53.000  
> 2018 02 16 08 24 07.0000000  0  8                     
G05  23859313.655     -840874.257        3611.975          53.000  
G09  20121162.743      154294.644        -705.271          53.000  
G23  22363707.203      485918.183       -2089.325          53.000  
G10  21078283.061      319729.082       -1435.316          53.000  
G11  21029652.158     -535004.797        2194.425          53.000  
G30  22277289.999     -838803.858        3535.464          53.000  
G01  22040836.437     -312357.837        1259.322          53.000  
G03  24806621.198      704124.292       -3054.105          53.000  
> 2018 02 16 08 24 08.0000000  0  8                     
G05  23858626.358     -844485.980        3611.423          53.000  
G09  20121297.029      155000.224        -705.905          53.000  
G23  22364104.824      488007.648       -2089.598          53.000  
G10  21078556.314      321165.042       -1436.542          53.000  
G11  21029234.684     -537198.556        2193.198          53.000  
G30  22276617.284     -842338.983        3534.807          53.000  
G01  22040596.903     -313616.583        1258.230          53.000  
G03  24807202.388      707178.517       -3054.355          53.000  
> 2018 02 16 08 24 09.0000000  0  8                     
G05  23857939.151     -848097.279        3611.028          53.000  
G09  20121431.386      155706.247        -706.335          53.000  
G23  22364502.464      490097.222       -2089.589          53.000  
G10  21078829.764      322601.991       -1437.492          53.000  
G11  21028817.424     -539391.239        2192.168          53.000  
G30  22275944.676     -845873.584        3534.263          53.000  
G01  22040357.565     -314874.412        1257.330          53.000  
G03  24807783.596      710232.803       -3054.370          53.000  
> 2018 02 16 08 24 10.0000000  0  8                     
G05  23857252.034     -851708.105        3610.793          53.000  
G09  20121565.833      156412.765        -706.550          53.000  
G23  22364900.139      492186.970       -2089.634          53.000  
G10  21079103.392      324039.960       -1438.330          53.000  
G11  21028400.379     -541582.836        2191.121          53.000  
G30  22275272.157     -849407.626        3533.967          52.000  
G01  22040118.388     -316131.276        1256.595          53.000  
G03  24808364.840      713287.195       -3054.228          53.000  
> 2018 02 16 08 24 11.0000000  0  8                     
G05  23856564.988     -855318.583        3610.419          53.000  
G09  20121700.351      157119.648        -706.926          53.000  
G23  22365297.796      494276.743       -2089.646          52.000  
G10  21079377.199      325478.894       -1439.219          53.000  
G11  21027983.548     -543773.381        2190.214          52.000  
G30  22274599.728     -852941.261        3533.568          53.000  
G01  22039879.372     -317387.304        1255.763          53.000  
G03  24808946.065      716341.545       -3054.181          53.000  
> 2018 02 16 08 24 12.0000000  0  8                     
G05  23855878.013     -858928.636        3609.886          53.000  
G09  20121834.958      157826.967        -707.482          53.000  
G23  22365695.489      496366.630       -2089.919          53.000  
G10  21079651.203      326918.800       -1440.318          53.000  
G11  21027566.878     -545962.876        2189.024          53.000  
G30  22273927.388     -856474.417        3532.951          53.000  
G01  22039640.517     -318642.417        1254.692          53.000  
G03  24809527.309      719395.920       -3054.314          53.000  
> 2018 02 16 08 24 13.0000000  0  8                     
G05  23855191.092     -862538.404        3609.660          53.000  
G09  20121969.601      158534.580        -707.714          53.000  
G23  22366093.182      498456.473       -2089.795          53.000  
G10  21079925.367      328359.536       -1441.070          53.000  
G11  21027150.405     -548151.468        2188.176          53.000  
G30  22273255.120     -860007.259        3532.690          53.000  
G01  22039401.823     -319896.764        1253.985          53.000  
G03  24810108.517      722450.174       -3054.187          53.000  
> 2018 02 16 08 24 14.0000000  0  8                     
G05  23854504.279     -866147.733        3609.302          53.000  
G09  20122104.351      159242.638        -708.074          53.000  
G23  22366490.893      500546.435       -2089.787          53.000  
G10  21080199.692      329801.210       -1441.943          53.000  
G11  21026734.128     -550339.076        2187.261          53.000  
G30  22272582.941     -863539.652        3532.366          53.000  
G01  22039163.289     -321150.197        1253.189          53.000  
G03  24810689.725      725504.433       -3054.076          53.000  
> 2018 02 16 08 24 15.0000000  0  8                     
G05  23853817.536     -869756.557        3608.875          53.000  
G09  20122239.191      159951.205        -708.528          53.000  
G23  22366888.622      502636.585       -2089.919          53.000  
G10  21080474.232      331243.945       -1442.961          53.000  
G11  21026318.066     -552525.521        2186.218          53.000  
G30  22271910.833     -867071.542        3531.945          53.000  
G01  22038924.952     -322402.646        1252.283          53.000  
G03  24811270.950      728558.767       -3054.072          52.000  
> 2018 02 16 08 24 16.0000000  0  8                     
G05  23853130.865     -873365.084        3608.520          53.000  
G09  20122374.084      160660.067        -708.895          53.000  
G23  22367286.368      504726.708       -2089.977          53.000  
G10  21080748.932      332687.470       -1443.848          53.000  
G11  21025902.164     -554711.111        2185.227          53.000  
G30  22271238.797     -870603.153        3531.588          53.000  
G01  22038686.758     -323654.326        1251.429          53.000  
G03  24811852.158      731612.947       -3053.980          53.000  
> 2018 02 16 08 24 17.0000000  0  8                     
G05  23852444.212     -876973.515        3608.483          53.000  
G09  20122508.996      161369.025        -708.913          53.000  
G23  22367684.061      506816.606       -2089.726          53.000  
G10  21081023.722      334131.576       -1444.325          53.000  
G11  21025486.370     -556896.058        2184.717          53.000  
G30  22270566.779     -874134.704        3531.636          52.000  
G01  22038448.689     -324905.442        1250.915          53.000  
G03  24812433.277      734666.766       -3053.546          53.000  
> 2018 02 16 08 24 18.0000000  0  8                     
G05  23851757.667     -880581.367        3607.086          53.000  
G09  20122644.014      162078.562        -710.302          53.000  
G23  22368081.808      508906.765       -2090.794          53.000  
G10  21081298.744      335576.738       -1446.190          53.000  
G11  21025070.790     -559079.903        2182.736          53.000  
G30  22269894.850     -877665.723        3530.263          53.000  
G01  22038210.799     -326155.520        1249.187          53.000  
G03  24813014.413      737720.697       -3054.382          53.000  
> 2018 02 16 08 24 19.0000000  0  8                     
G05  23851071.228     -884188.524        3606.843          53.000  
G09  20122779.157      162788.792        -710.500          53.000  
G23  22368479.626      510997.305       -2090.693          53.000  
G10  21081573.981      337023.070       -1446.850          53.000  
G11  21024655.461     -561262.499        2182.033          53.000  
G30  22269223.046     -881196.113        3530.135          53.000  
G01  22037973.141     -327404.435        1248.405          53.000  
G03  24813595.621      740774.864       -3054.205          53.000  
> 2018 02 16 08 24 20.0000000  0  8                     
G05  23850384.879     -887795.333        3606.633          52.000  
G09  20122914.372      163499.375        -710.698          53.000  
G23  22368877.444      513087.883       -2090.566          53.000  
G10  21081849.361      338470.219       -1447.497          53.000  
G11  21024240.310     -563444.227        2181.308          53.000  
G30  22268551.296     -884726.230        3530.021          53.000  
G01  22037735.643     -328652.546        1247.749          52.000  
G03  24814176.775      743828.900       -3053.922          52.000  
> 2018 02 16 08 24 21.0000000  0  8                     
G05  23849698.601     -891401.725        3606.236          53.000  
G09  20123049.676      164210.381        -711.157          53.000  
G23  22369275.298      515178.577       -2090.687          53.000  
G10  21082124.901      339918.219       -1448.316          53.000  
G11  21023825.301     -565625.066        2180.477          53.000  
G30  22267879.600     -888256.014        3529.677          53.000  
G01  22037498.307     -329899.780        1246.879          53.000  
G03  24814757.929      746882.878       -3053.877          53.000  
> 2018 02 16 08 24 22.0000000  0  8                     
G05  23849012.431     -895007.634        3605.815          53.000  
G09  20123185.070      164921.876        -711.595          53.000  
G23  22369673.187      517269.460       -2090.847          53.000  
G10  21082400.620      341367.129       -1449.133          53.000  
G11  21023410.490     -567804.954        2179.612          53.000  
G30  22267207.975     -891785.412        3529.330          53.000  
G01  22037261.149     -331146.074        1245.957          52.000  
G03  24815339.084      749936.862       -3053.852          53.000  
> 2018 02 16 08 24 23.0000000  0  8                     
G05  23848326.386     -898612.915        3605.068          53.000  
G09  20123320.571      165634.007        -712.330          53.000  
G23  22370071.148      519360.680       -2091.278          53.000  
G10  21082676.553      342817.086       -1450.393          53.000  
G11  21022995.875     -569983.733        2178.319          53.000  
G30  22266536.439     -895314.299        3528.740          53.000  
G01  22037024.206     -332391.296        1244.813          53.000  
G03  24815920.274      752990.990       -3054.109          53.000  
> 2018 02 16 08 24 24.0000000  0  8                     
G05  23847640.376     -902217.860        3604.692          53.000  
G09  20123456.143      166346.484        -712.718          53.000  
G23  22370469.091      521451.951       -2091.368          53.000  
G10  21082952.594      344267.798       -1451.152          53.000  
G11  21022581.403     -572161.730        2177.501          53.000  
G30  22265864.957     -898842.968        3528.488          53.000  
G01  22036787.388     -333635.735        1244.006          53.000  
G03  24816501.428      756044.969       -3053.979          52.000  
> 2018 02 16 08 24 25.0000000  0  8                     
G05  23846954.438     -905822.508        3604.596          53.000  
G09  20123591.787      167059.285        -712.861          53.000  
G23  22370867.052      523543.261       -2091.254          53.000  
G10  21083228.795      345719.213       -1451.716          53.000  
G11  21022167.092     -574339.010        2176.998          53.000  
G30  22265193.510     -902371.462        3528.505          53.000  
G01  22036550.731     -334879.418        1243.400          53.000  
G03  24817082.546      759098.779       -3053.665          53.000  
> 2018 02 16 08 24 26.0000000  0  8                     
G05  23846268.553     -909426.784        3604.036          53.000  
G09  20123727.502      167772.475        -713.408          53.000  
G23  22371265.031      525634.672       -2091.507          53.000  
G10  21083505.140      347171.373       -1452.462          53.000  
G11  21021752.906     -576515.515        2176.215          53.000  
G30  22264522.100     -905899.731        3528.137          53.000  
G01  22036314.216     -336122.297        1242.434          53.000  
G03  24817663.647      762152.472       -3053.692          53.000  
> 2018 02 16 08 24 27.0000000  0  8                     
G05  23845582.758     -913030.698        3603.913          53.000  
G09  20123863.289      168486.062        -713.589          53.000  
G23  22371663.028      527726.201       -2091.395          53.000  
G10  21083781.609      348624.270       -1453.108          53.000  
G11  21021338.881     -578691.264        2175.492          53.000  
G30  22263850.725     -909427.776        3528.122          53.000  
G01  22036077.881     -337364.370        1241.863          53.000  
G03  24818244.730      765206.061       -3053.359          53.000  
> 2018 02 16 08 24 28.0000000  0  8                     
G05  23844897.034     -916634.138        3603.341          53.000  
G09  20123999.183      169200.158        -714.207          53.000  
G23  22372061.096      529817.968       -2091.749          52.000  
G10  21084058.258      350078.013       -1454.075          53.000  
G11  21020925.016     -580866.151        2174.540          53.000  
G30  22263179.421     -912955.499        3527.729          53.000  
G01  22035841.688     -338605.525        1240.825          53.000  
G03  24818825.830      768259.657       -3053.473          53.000  
> 2018 02 16 08 24 29.0000000  0  8                     
G05  23844211.400     -920237.162        3602.792          53.000  
G09  20124135.148      169914.713        -714.793          53.000  
G23  22372459.200      531909.926       -2092.079          53.000  
G10  21084335.049      351532.526       -1454.919          53.000  
G11  21020511.277     -583040.272        2173.706          53.000  
G30  22262508.171     -916482.960        3527.325          53.000  
G01  22035605.674     -339845.827        1239.825          53.000  
G03  24819406.895      771313.206       -3053.557          53.000  
> 2018 02 16 08 24 30.0000000  0  8                     
G05  23843525.872     -923839.682        3602.387          53.000  
G09  20124271.239      170629.826        -715.301          53.000  
G23  22372857.340      534002.180       -2092.329          53.000  
G10  21084612.001      352987.904       -1455.590          53.000  
G11  21020097.716     -585213.538        2173.189          53.000  
G30  22261836.975     -920010.076        3527.033          53.000  
G01  22035369.821     -341085.194        1239.013          53.000  
G03  24819987.978      774366.806       -3053.534          53.000  
> 2018 02 16 08 24 31.0000000  0  8                     
G05  23842840.399     -927441.925        3602.130          53.000  
G09  20124407.383      171345.276        -715.588          53.000  
G23  22373255.497      536094.513       -2092.324          53.000  
G10  21084889.078      354443.867       -1456.264          53.000  
G11  21019684.280     -587386.218        2172.374          53.000  
G30  22261165.815     -923537.082        3527.024          53.000  
G01  22035134.128     -342323.845        1238.381          53.000  
G03  24820569.025      777420.242       -3053.298          53.000  
> 2018 02 16 08 24 32.0000000  0  8                     
G05  23842154.997     -931043.780        3601.656          53.000  
G09  20124543.634      172061.180        -716.142          53.000  
G23  22373653.691      538187.055       -2092.646          53.000  
G10  21085166.262      355900.556       -1457.084          53.000  
G11  21019270.952     -589558.185        2171.548          53.000  
G30  22260494.690     -927063.862        3526.648          53.000  
G01  22034898.579     -343561.671        1237.439          53.000  
G03  24821150.072      780473.630       -3053.356          53.000  
> 2018 02 16 08 24 33.0000000  0  8                     
G05  23841469.630     -934645.358        3601.137          53.000  
G09  20124679.939      172777.443        -716.754          53.000  
G23  22374051.920      540279.713       -2093.035          53.000  
G10  21085443.572      357357.857       -1457.940          53.000  
G11  21018857.749     -591729.576        2170.767          53.000  
G30  22259823.583     -930590.534        3526.295          53.000  
G01  22034663.172     -344798.784        1236.435          53.000  
G03  24821731.083      783526.876       -3053.496          53.000  
> 2018 02 16 08 24 34.0000000  0  8                     
G05  23840784.371     -938246.456        3601.199          53.000  
G09  20124816.351      173494.272        -716.755          53.000  
G23  22374450.220      542372.699       -2092.803          53.000  
G10  21085721.042      358815.962       -1458.006          53.000  
G11  21018444.706     -593900.192        2170.892          53.000  
G30  22259152.530     -934116.894        3526.549          53.000  
G01  22034427.926     -346034.991        1236.105          53.000  
G03  24822312.095      786580.188       -3052.986          53.000  
> 2018 02 16 08 24 35.0000000  0  8                     
G05  23840099.219     -941846.000        3600.508          53.000  
G09  20124952.888      174211.758        -717.567          53.000  
G23  22374848.574      544466.115       -2093.398          53.000  
G10  21085998.655      360274.894       -1459.212          53.000  
G11  21018031.807     -596070.027        2169.591          53.000  
G30  22258481.566     -937642.866        3526.013          53.000  
G01  22034192.877     -347270.206        1234.956          53.000  
G03  24822893.159      789633.662       -3053.299          53.000  
> 2018 02 16 08 24 36.0000000  0  8                     
G05  23839414.157     -945446.992        3599.990          53.000  
G09  20125089.550      174929.908        -718.220          53.000  
G23  22375247.018      546559.969       -2093.828          53.000  
G10  21086276.429      361734.683       -1459.983          53.000  
G11  21017619.050     -598239.051        2168.767          53.000  
G30  22257810.673     -941168.449        3525.659          53.000  
G01  22033958.007     -348504.441        1234.027          53.000  
G03  24823474.260      792687.304       -3053.444          53.000  
> 2018 02 16 08 24 37.0000000  0  8                     
G05  23838729.148     -949046.768        3599.696          53.000  
G09  20125226.266      175648.389        -718.614          53.000  
G23  22375645.479      548653.940       -2094.013          53.000  
G10  21086554.328      363194.992       -1460.538          53.000  
G11  21017206.401     -600407.610        2168.327          53.000  
G30  22257139.781     -944693.985        3525.575          53.000  
G01  22033723.279     -349738.031        1233.331          53.000  
G03  24824055.325      795740.795       -3053.367          53.000  
> 2018 02 16 08 24 38.0000000  0  8                     
G05  23838044.139     -952646.432        3600.023          53.000  
G09  20125363.036      176367.123        -718.437          53.000  
G23  22376043.958      550747.953       -2093.651          53.000  
G10  21086832.281      364655.719       -1460.297          53.000  
G11  21016793.805     -602575.805        2168.790          53.000  
G30  22256468.888     -948219.554        3525.956          53.000  
G01  22033488.641     -350971.071        1233.148          53.000  
G03  24824636.336      798794.053       -3052.761          53.000  
> 2018 02 16 08 24 39.0000000  0  8                     
G05  23837359.183     -956245.820        3599.256          53.000  
G09  20125499.895      177086.277        -719.358          53.000  
G23  22376442.473      552842.181       -2094.343          53.000  
G10  21087110.323      366116.958       -1461.586          53.000  
G11  21016381.299     -604743.584        2167.431          53.000  
G30  22255798.014     -951745.018        3525.439          53.000  
G01  22033254.128     -352203.411        1232.012          53.000  
G03  24825217.347      801847.250       -3053.148          53.000  
> 2018 02 16 08 24 40.0000000  0  8                     
G05  23836674.335     -959844.705        3598.760          53.000  
G09  20125636.879      177806.095        -720.073          53.000  
G23  22376841.078      554936.879       -2094.843          53.000  
G10  21087388.543      367578.996       -1462.409          53.000  
G11  21015968.935     -606910.631        2166.695          53.000  
G30  22255127.228     -955270.115        3524.983          53.000  
G01  22033019.794     -353434.813        1231.058          53.000  
G03  24825798.395      804900.640       -3053.391          53.000  
> 2018 02 16 08 24 41.0000000  0  8                     
G05  23835989.594     -963443.033        3598.042          53.000  
G09  20125773.988      178526.631        -720.882          53.000  
G23  22377239.789      557032.109       -2095.482          53.000  
G10  21087666.907      369041.873       -1463.324          53.000  
G11  21015556.697     -609076.930        2165.881          53.000  
G30  22254456.497     -958794.812        3524.485          53.000  
G01  22032785.656     -354665.223        1229.888          53.000  
G03  24826379.495      807954.287       -3053.767          53.000  
> 2018 02 16 08 24 42.0000000  0  8                     
G05  23835304.907     -967041.115        3598.132          53.000  
G09  20125911.186      179247.607        -720.989          53.000  
G23  22377638.554      559127.594       -2095.430          53.000  
G10  21087945.378      370505.293       -1463.299          53.000  
G11  21015144.548     -611242.766        2166.213          53.000  
G30  22253785.801     -962319.393        3524.716          53.000  
G01  22032551.643     -355894.961        1229.545          53.000  
G03  24826960.560      811007.909       -3053.417          53.000  
> 2018 02 16 08 24 43.0000000  0  8                     
G05  23834620.255     -970639.039        3597.873          53.000  
G09  20126048.456      179968.941        -721.500          52.000  
G23  22378037.337      561223.261       -2095.770          53.000  
G10  21088223.956      371969.081       -1464.029          53.000  
G11  21014732.453     -613408.368        2165.345          53.000  
G30  22253115.087     -965843.935        3524.503          53.000  
G01  22032317.738     -357124.103        1228.858          53.000  
G03  24827541.643      814061.440       -3053.483          53.000  
> 2018 02 16 08 24 44.0000000  0  8                     
G05  23833935.711     -974236.310        3597.181          53.000  
G09  20126185.887      180691.134        -722.389          53.000  
G23  22378436.281      563319.619       -2096.470          53.000  
G10  21088502.695      373433.811       -1465.028          53.000  
G11  21014320.518     -615573.135        2164.506          53.000  
G30  22252444.481     -969367.953        3524.022          53.000  
G01  22032084.047     -358352.163        1227.791          53.000  
G03  24828122.797      817115.388       -3053.933          53.000  
> 2018 02 16 08 24 45.0000000  0  8                     
G05  23833251.220     -977833.367        3597.179          53.000  
G09  20126323.407      181413.770        -722.643          53.000  
G23  22378835.261      565416.259       -2096.568          53.000  
G10  21088781.523      374899.018       -1465.272          52.000  
G11  21013908.637     -617737.544        2164.384          53.000  
G30  22251773.892     -972891.854        3524.049          53.000  
G01  22031850.481     -359579.563        1227.293          53.000  
G03  24828703.933      820169.344       -3053.776          53.000  
> 2018 02 16 08 24 46.0000000  0  8                     
G05  23832566.747     -981430.359        3597.073          53.000  
G09  20126460.962      182136.709        -722.948          53.000  
G23  22379234.258      567513.046       -2096.728          53.000  
G10  21089060.405      376364.588       -1465.421          53.000  
G11  21013496.810     -619901.688        2164.569          53.000  
G30  22251103.303     -976415.793        3524.062          53.000  
G01  22031617.022     -360806.471        1226.765          53.000  
G03  24829285.070      823223.175       -3053.663          53.000  
> 2018 02 16 08 24 47.0000000  0  8                     
G05  23831882.346     -985026.864        3596.290          52.000  
G09  20126598.661      182860.388        -723.990          53.000  
G23  22379633.381      569610.428       -2097.637          53.000  
G10  21089339.430      377830.853       -1466.682          53.000  
G11  21013085.089     -622065.318        2163.223          53.000  
G30  22250432.786     -979939.331        3523.371          53.000  
G01  22031383.724     -362032.447        1225.561          53.000  
G03  24829866.260      826277.331       -3054.305          53.000  
> 2018 02 16 08 24 48.0000000  0  8                     
G05  23831197.980     -988623.248        3596.405          52.000  
G09  20126736.431      183584.458        -724.171          52.000  
G23  22380032.539      571708.053       -2097.650          53.000  
G10  21089618.544      379297.506       -1466.815          53.000  
G11  21012673.423     -624228.689        2163.211          53.000  
G30  22249762.304     -983462.820        3523.548          53.000  
G01  22031150.533     -363257.862        1225.229          53.000  
G03  24830447.485      829331.471       -3054.100          53.000  
> 2018 02 16 08 24 49.0000000  0  8                     
G05  23830513.650     -992219.366        3595.997          52.000  
G09  20126874.326      184309.079        -724.972          52.000  
G23  22380431.804      573806.098       -2098.342          53.000  
G10  21089897.729      380764.713       -1467.482          53.000  
G11  21012261.828     -626391.659        2162.820          53.000  
G30  22249091.841     -986986.105        3523.260          52.000  
G01  22030917.485     -364482.566        1224.295          53.000  
G03  24831028.693      832385.753       -3054.256          52.000  
> 2018 02 16 08 24 50.0000000  0  8                     
G05  23829829.338     -995815.316        3595.944          53.000  
G09  20127012.293      185034.153        -725.191          53.000  
G23  22380831.105      575904.464       -2098.429          53.000  
G10  21090177.022      382232.380       -1467.531          53.000  
G11  21011850.286     -628554.293        2163.113          53.000  
G30  22248421.413     -990509.264        3523.189          53.000  
G01  22030684.545     -365706.666        1223.896          53.000  
G03  24831609.901      835440.121       -3054.324          53.000  
> 2018 02 16 08 24 51.0000000  0  8                     
G05  23829145.097     -999411.097        3595.972          53.000  
G09  20127150.349      185759.714        -725.503          53.000  
G23  22381230.478      578003.195       -2098.630          53.000  
G10  21090456.386      383700.422       -1468.092          53.000  
G11  21011438.781     -630716.777        2162.472          53.000  
G30  22247751.003     -994032.291        3523.297          53.000  
G01  22030451.729     -366930.143        1223.468          53.000  
G03  24832191.163      838494.590       -3054.219          53.000  
> 2018 02 16 08 24 52.0000000  0  8                     
G05  23828460.839    -1003006.825        3595.789          53.000  
G09  20127288.495      186485.653        -726.029          53.000  
G23  22381629.904      580102.180       -2098.996          53.000  
G10  21090735.804      385168.804       -1468.501          53.000  
G11  21011027.293     -632879.068        2162.189          53.000  
G30  22247080.593     -997555.271        3523.039          53.000  
G01  22030219.003     -368153.120        1222.837          53.000  
G03  24832772.406      841549.078       -3054.433          52.000  
> 2018 02 16 08 24 53.0000000  0  8                     
G05  23827776.616    -1006602.441        3595.527          53.000  
G09  20127426.729      187212.041        -726.660          53.000  
G23  22382029.384      582201.507       -2099.550          53.000  
G10  21091015.312      386637.586       -1469.055          53.000  
G11  21010615.876     -635041.141        2161.869          53.000  
G30  22246410.219    -1001078.146        3522.776          53.000  
G01  22029986.366     -369375.535        1222.111          53.000  
G03  24833353.668      844603.656       -3054.692          53.000  
> 2018 02 16 08 24 54.0000000  0  8                     
G05  23827092.447    -1010197.846        3595.601          53.000  
G09  20127565.053      187938.989        -726.907          53.000  
G23  22382428.953      584301.286       -2099.683          53.000  
G10  21091294.908      388106.885       -1469.019          53.000  
G11  21010204.514     -637202.837        2162.346          53.000  
G30  22245739.898    -1004600.792        3522.823          53.000  
G01  22029753.872     -370597.283        1221.718          53.000  
G03  24833934.983      847658.454       -3054.625          53.000  
> 2018 02 16 08 24 55.0000000  0  8                     
G05  23826408.242    -1013793.256        3595.631          53.000  
G09  20127703.467      188666.302        -727.259          53.000  
G23  22382828.594      586401.329       -2099.949          53.000  
G10  21091574.558      389576.402       -1469.522          53.000  
G11  21009793.133     -639364.578        2161.788          53.000  
G30  22245069.542    -1008123.412        3522.835          53.000  
G01  22029521.450     -371818.577        1221.290          53.000  
G03  24834516.316      850713.290       -3054.657          53.000  
> 2018 02 16 08 24 56.0000000  0  8                     
G05  23825724.126    -1017388.414        3595.317          53.000  
G09  20127841.970      189394.243        -727.978          53.000  
G23  22383228.324      588501.907       -2100.591          53.000  
G10  21091854.298      391046.473       -1470.107          53.000  
G11  21009381.860     -641525.946        2161.344          53.000  
G30  22244399.275    -1011645.725        3522.439          53.000  
G01  22029289.171     -373039.161        1220.520          53.000  
G03  24835097.702      853768.432       -3055.024          53.000  
> 2018 02 16 08 24 57.0000000  0  8                     
G05  23825040.011    -1020983.482        3594.783          53.000  
G09  20127980.598      190122.667        -728.920          53.000  
G23  22383628.126      590602.870       -2101.417          53.000  
G10  21092134.109      392516.931       -1470.908          52.000  
G11  21008970.604     -643687.121        2160.742          53.000  
G30  22243729.043    -1015167.881        3521.797          53.000  
G01  22029056.981     -374259.190        1219.498          52.000  
G03  24835679.107      856823.756       -3055.688          53.000  
> 2018 02 16 08 24 58.0000000  0  8                     
G05  23824355.913    -1024578.386        3594.970          53.000  
G09  20128119.333      190851.658        -729.131          53.000  
G23  22384028.034      592704.314       -2101.537          53.000  
G10  21092414.045      393987.890       -1470.860          53.000  
G11  21008559.402     -645847.954        2161.289          53.000  
G30  22243058.866    -1018689.787        3521.914          53.000  
G01  22028824.951     -375478.593        1219.227          53.000  
G03  24836260.565      859879.350       -3055.578          53.000  
> 2018 02 16 08 24 59.0000000  0  8                     
G05  23823671.815    -1028173.390        3594.963          53.000  
G09  20128258.121      191580.970        -729.608          53.000  
G23  22384427.961      594805.995       -2101.841          53.000  
G10  21092693.999      395459.004       -1471.426          53.000  
G11  21008148.182     -648008.932        2160.756          53.000  
G30  22242388.670    -1022211.691        3521.886          53.000  
G01  22028592.976     -376697.622        1218.713          53.000  
G03  24836842.023      862934.987       -3055.727          53.000  
> 2018 02 16 08 25 00.0000000  0  8                     
G05  23822987.718    -1031768.273        3595.000          53.000  
G09  20128397.017      192310.829        -729.956          53.000  
G23  22384827.995      596908.148       -2102.218          53.000  
G10  21092974.025      396930.552       -1471.621          53.000  
G11  21007737.016     -650169.667        2160.706          53.000  
G30  22241718.528    -1025733.344        3521.734          53.000  
G01  22028361.107     -377916.063        1218.342          53.000  
G03  24837423.534      865990.904       -3055.894          53.000  
> 2018 02 16 08 25 01.0000000  0  8                     
G05  23822303.674    -1035362.941        3594.770          53.000  
G09  20128536.020      193041.350        -730.672          53.000  
G23  22385228.136      599010.883       -2102.856          53.000  
G10  21093254.139      398402.656       -1472.190          53.000  
G11  21007325.903     -652330.067        2160.410          53.000  
G30  22241048.440    -1029254.639        3521.325          53.000  
G01  22028129.382     -379133.811        1217.642          53.000  
G03  24838005.117      869047.219       -3056.276          53.000  
> 2018 02 16 08 25 02.0000000  0  8                     
G05  23821619.612    -1038957.637        3594.835          52.000  
G09  20128675.131      193772.290        -731.062          52.000  
G23  22385628.348      601113.965       -2103.161          53.000  
G10  21093534.379      399875.297       -1473.762          53.000  
G11  21006914.934     -654489.728        2156.398          53.000  
G30  22240378.405    -1032775.794        3521.169          53.000  
G01  22027897.728     -380351.105        1217.185          53.000  
G03  24838586.754      872103.724       -3056.495          53.000  
> 2018 02 16 08 25 03.0000000  0  8                     
G05  23820935.514    -1042552.531        3594.988          53.000  
G09  20128814.277      194503.502        -731.417          53.000  
G23  22386028.597      603217.250       -2103.409          53.000  
G10  21093814.673      401348.225       -1472.858          53.000  
G11  21006503.000     -656649.186        2159.332          53.000  
G30  22239708.334    -1036296.972        3521.007          53.000  
G01  22027666.145     -381568.112        1216.806          53.000  
G03  24839168.373      875160.265       -3056.639          53.000  
> 2018 02 16 08 25 04.0000000  0  8                     
G05  23820251.488    -1046147.136        3594.519          53.000  
G09  20128953.566      195235.472        -732.310          53.000  
G23  22386428.952      605321.230       -2104.281          53.000  
G10  21094095.109      402821.936       -1473.963          53.000  
G11  21006093.227     -658807.830        2158.370          53.000  
G30  22239038.353    -1039817.660        3520.405          53.000  
G01  22027434.706     -382784.346        1215.887          53.000  
G03  24839750.117      878217.345       -3057.359          53.000  
> 2018 02 16 08 25 05.0000000  0  8                     
G05  23819567.480    -1049741.583        3594.359          53.000  
G09  20129092.980      195968.086        -732.922          53.000  
G23  22386829.433      607425.789       -2104.845          53.000  
G10  21094375.653      404296.280       -1474.726          52.000  
G11  21005682.561     -660965.840        2157.690          53.000  
G30  22238368.461    -1043337.961        3520.135          53.000  
G01  22027203.373     -383999.932        1215.259          53.000  
G03  24840331.950      881274.865       -3057.754          53.000  
> 2018 02 16 08 25 06.0000000  0  8                     
G05  23818883.525    -1053335.880        3594.550          53.000  
G09  20129232.519      196701.345        -733.228          53.000  
G23  22387230.038      609530.928       -2105.077          53.000  
G10  21094656.322      405771.256       -1474.929          53.000  
G11  21005272.020     -663123.239        2157.514          53.000  
G30  22237698.641    -1046857.876        3520.083          53.000  
G01  22026972.166     -385214.873        1214.967          53.000  
G03  24840913.873      884332.834       -3057.854          53.000  
> 2018 02 16 08 25 07.0000000  0  8                     
G05  23818199.534    -1056930.241        3594.650          53.000  
G09  20129372.130      197435.045        -733.622          53.000  
G23  22387630.698      611636.453       -2105.449          53.000  
G10  21094937.080      407246.666       -1475.354          53.000  
G11  21004861.569     -665280.210        2157.035          53.000  
G30  22237028.857    -1050377.590        3519.931          53.000  
G01  22026741.066     -386429.381        1214.564          53.000  
G03  24841495.813      887391.064       -3058.065          53.000  
> 2018 02 16 08 25 08.0000000  0  8                     
G05  23817515.580    -1060524.528        3594.268          53.000  
G09  20129511.883      198169.335        -734.598          53.000  
G23  22388031.482      613742.500       -2106.286          53.000  
G10  21095217.963      408722.657       -1476.284          53.000  
G11  21004451.206     -667436.597        2156.077          53.000  
G30  22236359.143    -1053896.943        3519.180          53.000  
G01  22026510.055     -387643.307        1213.633          53.000  
G03  24842077.861      890449.718       -3058.887          53.000  
> 2018 02 16 08 25 09.0000000  0  8                     
G05  23816831.625    -1064118.719        3594.468          53.000  
G09  20129651.726      198904.234        -734.884          53.000  
G23  22388432.356      615849.111       -2106.601          53.000  
G10  21095498.935      410199.240       -1476.555          53.000  
G11  21004040.969     -669592.394        2155.816          53.000  
G30  22235689.502    -1057415.905        3519.085          53.000  
G01  22026279.170     -388856.641        1213.381          53.000  
G03  24842659.998      893508.815       -3058.975          53.000  
> 2018 02 16 08 25 10.0000000  0  8                     
G05  23816147.635    -1067713.109        3594.697          53.000  
G09  20129791.641      199639.464        -735.195          53.000  
G23  22388833.283      617955.986       -2106.823          53.000  
G10  21095779.979      411676.138       -1476.853          53.000  
G11  21003630.822     -671747.872        2155.510          53.000  
G30  22235019.896    -1060934.742        3518.959          53.000  
G01  22026048.320     -390069.657        1213.061          53.000  
G03  24843242.170      896568.105       -3059.169          53.000  
> 2018 02 16 08 25 11.0000000  0  8                     
G05  23815463.573    -1071307.825        3594.893          53.000  
G09  20129931.591      200374.903        -735.529          53.000  
G23  22389234.228      620063.019       -2107.136          53.000  
G10  21096061.059      413153.229       -1477.215          53.000  
G11  21003220.674     -673903.162        2155.172          53.000  
G30  22234350.290    -1064453.565        3518.813          53.000  
G01  22025817.541     -391282.489        1212.752          53.000  
G03  24843824.343      899627.469       -3059.393          53.000  
> 2018 02 16 08 25 12.0000000  0  8                     
G05  23814779.493    -1074902.651        3594.908          53.000  
G09  20130071.631      201110.767        -736.028          53.000  
G23  22389635.262      622170.417       -2107.532          53.000  
G10  21096342.210      414630.714       -1477.634          53.000  
G11  21002810.598     -676058.052        2154.720          52.000  
G30  22233680.738    -1067972.143        3518.480          53.000  
G01  22025586.816     -392494.916        1212.280          53.000  
G03  24844406.587      902687.136       -3059.803          53.000  
> 2018 02 16 08 25 13.0000000  0  8                     
G05  23814095.449    -1078497.418        3594.707          53.000  
G09  20130211.760      201847.237        -736.787          53.000  
G23  22390036.386      624278.372       -2108.309          53.000  
G10  21096623.487      416108.788       -1478.363          53.000  
G11  21002400.647     -678212.357        2153.996          53.000  
G30  22233011.257    -1071490.284        3517.887          53.000  
G01  22025356.217     -393706.756        1211.520          53.000  
G03  24844988.921      905747.291       -3060.376          53.000  
> 2018 02 16 08 25 14.0000000  0  8                     
G05  23813411.423    -1082092.002        3594.741          53.000  
G09  20130352.049      202584.445        -737.336          53.000  
G23  22390437.635      626386.999       -2108.732          53.000  
G10  21096904.888      417587.571       -1478.893          53.000  
G11  21001990.839     -680365.950        2153.463          53.000  
G30  22232341.883    -1075007.841        3517.474          53.000  
G01  22025125.742     -394917.894        1211.020          53.000  
G03  24845571.398      908808.086       -3060.880          53.000  
> 2018 02 16 08 25 15.0000000  0  8                     
G05  23812727.271    -1085687.290        3595.846          53.000  
G09  20130492.303      203321.498        -736.785          53.000  
G23  22390838.848      628495.415       -2108.087          53.000  
G10  21097186.271      419066.172       -1478.276          53.000  
G11  21001580.995     -682519.724        2154.059          53.000  
G30  22231672.456    -1078525.694        3518.182          53.000  
G01  22024895.232     -396129.206        1211.624          53.000  
G03  24846153.803      911868.633       -3060.231          53.000  
