     3.04           OBSERVATION DATA    G: GPS              RINEX VERSION / TYPE
RTKCONV demo5 b34i                      20250516 060601 UTC PGM / RUN BY / DATE 
format: u-blox UBX                                          COMMENT             
log: D:\20242\NGUYENDS\GNSS_DOA_Spoofing\hai\ngoc\2025-04-20COMMENT             
                                                            MARKER NAME         
                                                            MARKER NUMBER       
                                                            MARKER TYPE         
                                                            OBSERVER / AGENCY   
                                                            REC # / TYPE / VERS 
                                                            ANT # / TYPE        
 -1626587.2093  5730541.4210  2271875.1914                  APPROX POSITION XYZ 
        0.0000        0.0000        0.0000                  ANTENNA: DELTA H/E/N
G    8 C1C L1C D1C S1C C2X L2X D2X S2X                      SYS / # / OBS TYPES 
  2025    04    20    15    07   33.9980000     GPS         TIME OF FIRST OBS   
  2025    04    20    15    09   01.9980000     GPS         TIME OF LAST OBS    
G L1C                                                       SYS / PHASE SHIFT   
G L2X  0.00000                                              SYS / PHASE SHIFT   
  0                                                         GLONASS SLOT / FRQ #
                                                            GLONASS COD/PHS/BIS 
                                                            END OF HEADER       
> 2025 04 20 15 07 33.9980000  0  9                     
G32  22031843.606   115778221.2161        936.083          38.000    22031852.788    90216864.6971        729.083          38.000  
G12  22736407.565   119480581.4121       1497.872          35.000    22736418.199    93101725.5241       1167.540          35.000  
G24  21820995.473   114670159.1961      -3048.262          36.000    21821006.452    89353536.2331      -2375.536          37.000  
G10  21428584.369   112608096.8091       2638.627          40.000    21428590.947    87746895.2511       2055.822          38.000  
G15  23653138.995   124298058.7031      -1952.595          31.000    23653156.094    96855691.0911      -1521.313          33.000  
G25  22043169.503   115837597.6951       2725.295          35.000    22043179.661    90263070.8331       2123.906          35.000  
G28  22240422.369   116874187.0041       3176.711          33.000    22240433.140    91070805.1021       2475.402          39.000  
G18  21095504.485   110857826.2681      -2670.408          37.000    21095510.498    86382848.6961      -2080.884          40.000  
G23  19794810.419   104022717.1471        589.884          40.000    19794815.045    81056869.8171        459.662          42.000  
> 2025 04 20 15 07 34.9980000  0  9                     
G32  22031665.456   115777284.825         936.496          38.000    22031674.625    90216135.038         729.716          38.000  
G12  22736122.551   119479083.711        1497.805          35.000    22736133.120    93100558.508        1167.368          35.000  
G24  21821575.556   114673207.679       -3049.208          36.000    21821586.561    89355911.627       -2375.295          37.000  
G10  21428082.294   112605458.295        2638.246          40.000    21428088.882    87744839.247        2056.269          38.000  
G15  23653510.218   124300010.654       -1951.480          31.000    23653527.531    96857212.106       -1521.137          33.000  
G25  22042650.868   115834871.943        2725.583          35.000    22042660.974    90260946.880        2123.799          35.000  
G28  22239817.769   116871009.926        3177.195          34.000    22239828.519    91068329.476        2475.510          39.000  
G18  21096012.687   110860496.826       -2670.600          37.000    21096018.720    86384929.659       -2081.211          40.000  
G23  19794698.157   104022127.366         589.483          40.000    19794702.840    81056410.228         459.454          42.000  
> 2025 04 20 15 07 35.9980000  0  9                     
G32  22031487.244   115776348.549         936.177          38.000    22031496.312    90215405.472         729.448          38.000  
G12  22735837.595   119477586.411        1496.935          35.000    22735848.230    93099391.786        1167.075          34.000  
G24  21822155.719   114676256.395       -3049.260          36.000    21822166.754    89358287.266       -2376.151          37.000  
G10  21427580.124   112602819.869        2638.118          40.000    21427586.895    87742783.320        2056.011          38.000  
G15  23653881.804   124301962.676       -1952.392          31.000    23653899.002    96858733.119       -1521.094          33.000  
G25  22042132.247   115832146.350        2725.467          35.000    22042142.326    90258823.053        2123.717          35.000  
G28  22239213.363   116867833.244        3176.471          34.000    22239223.987    91065854.154        2475.088          39.000  
G18  21096520.976   110863167.772       -2671.533          37.000    21096527.029    86387010.918       -2081.735          40.000  
G23  19794586.082   104021537.974         589.370          40.000    19794590.600    81055950.987         458.768          42.000  
> 2025 04 20 15 07 36.9980000  0  9                     
G32  22031309.185   115775412.337         935.783          38.000    22031318.174    90214675.959         729.380          39.000  
G12  22735552.699   119476089.458        1496.900          35.000    22735563.278    93098225.355        1165.690          34.000  
G24  21822735.922   114679305.344       -3049.524          35.000    21822747.020    89360663.067       -2375.936          37.000  
G10  21427077.987   112600181.494        2638.164          40.000    21427084.733    87740727.481        2055.349          38.000  
G15  23654253.112   124303914.609       -1952.757          31.000    23654270.457    96860254.069       -1520.570          33.000  
G25  22041613.624   115829420.893        2725.325          35.000    22041623.754    90256699.300        2123.718          35.000  
G28  22238608.962   116864656.867        3177.065          34.000    22238619.500    91063379.051        2475.017          39.000  
G18  21097029.260   110865839.075       -2671.922          37.000    21097035.479    86389092.439       -2082.002          40.000  
G23  19794473.940   104020948.994         588.565          40.000    19794478.531    81055492.022         458.572          42.000  
> 2025 04 20 15 07 37.9980000  0  9                     
G32  22031130.948   115774476.182         936.456          38.000    22031139.950    90213946.502         729.538          39.000  
G12  22735267.817   119474592.885        1496.207          35.000    22735278.431    93097059.130        1166.630          34.000  
G24  21823316.118   114682354.556       -3049.718          35.000    21823327.257    89363039.086       -2376.604          38.000  
G10  21426575.915   112597543.208        2638.454          40.000    21426582.588    87738671.671        2055.665          38.000  
G15  23654624.819   124305866.510       -1952.818          31.000    23654641.899    96861775.014       -1520.489          33.000  
G25  22041095.128   115826695.598        2724.568          35.000    22041105.159    90254575.656        2124.152          35.000  
G28  22238004.721   116861480.844        3175.988          34.000    22238015.083    91060904.228        2474.542          39.000  
G18  21097537.648   110868510.712       -2671.968          37.000    21097543.917    86391174.246       -2081.758          40.000  
G23  19794361.814   104020360.396         588.507          40.000    19794366.614    81055033.387         458.495          42.000  
> 2025 04 20 15 07 38.9980000  0  9                     
G32  22030952.858   115773540.101         935.899          38.000    22030961.822    90213217.093         729.276          39.000  
G12  22734983.010   119473096.603        1496.211          35.000    22734993.774    93095893.226        1166.000          34.000  
G24  21823896.405   114685403.956       -3049.061          36.000    21823907.634    89365415.225       -2375.926          37.000  
G10  21426073.885   112594904.985        2638.135          40.000    21426080.679    87736615.917        2055.525          38.000  
G15  23654996.147   124307818.298       -1952.479          31.000    23655013.358    96863295.956       -1521.614          33.000  
G25  22040576.417   115823970.352        2725.318          35.000    22040586.563    90252452.159        2123.104          35.000  
G28  22237400.378   116858305.083        3175.339          34.000    22237410.833    91058429.615        2474.677          39.000  
G18  21098046.102   110871182.731       -2672.381          37.000    21098052.393    86393256.332       -2082.412          40.000  
G23  19794249.901   104019772.192         587.667          40.000    19794254.651    81054575.029         458.314          42.000  
> 2025 04 20 15 07 39.9980000  0  9                     
G32  22030774.778   115772604.199         935.352          38.000    22030783.850    90212487.826         728.743          39.000  
G12  22734698.428   119471600.821        1495.282          35.000    22734709.109    93094727.671        1165.640          34.000  
G24  21824476.741   114688453.750       -3050.237          36.000    21824488.038    89367791.684       -2376.565          37.000  
G10  21425571.739   112592266.943        2638.000          40.000    21425578.696    87734560.286        2055.531          38.000  
G15  23655367.438   124309770.164       -1952.111          31.000    23655384.749    96864816.911       -1521.813          33.000  
G25  22040057.857   115821245.403        2724.727          35.000    22040067.955    90250328.823        2122.571          35.000  
G28  22236796.164   116855129.790        3174.242          34.000    22236806.627    91055955.363        2473.903          39.000  
G18  21098554.712   110873855.188       -2672.984          37.000    21098560.837    86395338.762       -2082.870          40.000  
G23  19794138.045   104019184.469         587.495          40.000    19794142.798    81054117.079         457.405          42.000  
> 2025 04 20 15 07 40.9980000  0  9                     
G32  22030596.618   115771668.401         935.718          38.000    22030605.732    90211758.621         729.460          38.000  
G12  22734413.741   119470105.444        1495.062          35.000    22734424.445    93093562.453        1164.996          34.000  
G24  21825057.085   114691503.821       -3049.900          36.000    21825068.445    89370168.376       -2376.851          37.000  
G10  21425069.785   112589629.025        2638.150          40.000    21425076.721    87732504.780        2055.610          38.000  
G15  23655738.728   124311722.064       -1951.930          31.000    23655756.199    96866337.804       -1521.174          33.000  
G25  22039539.329   115818520.647        2724.195          35.000    22039549.545    90248205.592        2123.706          35.000  
G28  22236191.913   116851954.824        3175.146          34.000    22236202.351    91053481.383        2474.023          39.000  
G18  21099063.331   110876528.055       -2672.954          37.000    21099069.438    86397421.529       -2083.078          40.000  
G23  19794026.269   104018597.202         587.379          40.000    19794031.103    81053659.458         457.777          42.000  
> 2025 04 20 15 07 41.9980000  0  9                     
G32  22030418.535   115770732.630         935.768          38.000    22030427.658    90211029.479         728.983          38.000  
G12  22734129.258   119468610.313        1495.661          35.000    22734139.939    93092397.433        1164.976          34.000  
G24  21825637.613   114694554.061       -3050.088          35.000    21825649.013    89372545.175       -2376.566          37.000  
G10  21424567.915   112586991.134        2638.135          40.000    21424574.623    87730449.285        2055.510          38.000  
G15  23656110.199   124313673.819       -1951.525          31.000    23656127.547    96867858.671       -1520.605          33.000  
G25  22039020.806   115815795.932        2724.997          35.000    22039031.097    90246082.461        2123.496          35.000  
G28  22235587.734   116848780.146        3174.436          34.000    22235598.193    91051007.609        2473.788          39.000  
G18  21099571.997   110879201.228       -2673.332          37.000    21099578.126    86399504.511       -2083.110          40.000  
G23  19793914.484   104018010.270         586.995          40.000    19793919.507    81053202.119         457.170          42.000  
> 2025 04 20 15 07 42.9980000  0  9                     
G32  22030240.454   115769796.832         935.979          38.000    22030249.611    90210300.277         729.119          38.000  
G12  22733844.752   119467115.524        1494.750          35.000    22733855.546    93091232.645        1164.932          34.000  
G24  21826218.112   114697604.476       -3050.451          36.000    21826229.451    89374922.109       -2376.755          38.000  
G10  21424065.822   112584353.221        2638.116          40.000    21424072.676    87728393.763        2055.573          38.000  
G15  23656481.517   124315625.469       -1951.150          31.000    23656498.867    96869379.440       -1521.003          33.000  
G25  22038502.361   115813071.278        2725.072          35.000    22038512.596    90243959.379        2122.853          35.000  
G28  22234983.667   116845605.666        3175.102          34.000    22234994.162    91048534.033        2473.257          39.000  
G18  21100080.723   110881874.669       -2673.260          37.000    21100086.778    86401587.702       -2083.138          40.000  
G23  19793802.883   104017423.655         586.374          40.000    19793808.009    81052744.995         457.197          42.000  
> 2025 04 20 15 07 43.9980000  0  9                     
G32  22030062.409   115768861.124         935.325          38.000    22030071.582    90209571.162         728.671          39.000  
G12  22733560.404   119465621.031        1494.757          35.000    22733571.154    93090068.144        1164.085          34.000  
G24  21826798.722   114700655.081       -3049.820          35.000    21826809.969    89377299.227       -2377.247          38.000  
G10  21423563.850   112581715.386        2637.638          40.000    21423570.746    87726338.333        2054.867          38.000  
G15  23656852.825   124317577.095       -1952.033          32.000    23656870.326    96870900.137       -1520.746          33.000  
G25  22037983.952   115810346.790        2724.075          35.000    22037994.140    90241836.363        2122.593          35.000  
G28  22234379.478   116842431.515        3174.641          33.000    22234390.143    91046060.672        2473.082          39.000  
G18  21100589.535   110884548.463       -2673.782          37.000    21100595.525    86403671.191       -2083.605          40.000  
G23  19793691.222   104016837.423         585.887          40.000    19793696.356    81052288.206         456.294          42.000  
> 2025 04 20 15 07 44.9980000  0  9                     
G32  22029884.461   115767925.466         935.282          38.000    22029893.518    90208842.056         729.283          39.000  
G12  22733276.090   119464126.913        1494.113          36.000    22733286.765    93088903.888        1163.489          34.000  
G24  21827379.354   114703705.976       -3050.932          35.000    21827390.587    89379676.525       -2377.537          38.000  
G10  21423061.872   112579077.609        2637.712          40.000    21423068.686    87724282.889        2055.527          38.000  
G15  23657224.230   124319528.613       -1951.781          31.000    23657241.752    96872420.772       -1520.598          33.000  
G25  22037465.443   115807622.343        2724.733          35.000    22037475.737    90239713.439        2122.797          35.000  
G28  22233775.468   116839257.767        3173.358          34.000    22233786.072    91043587.559        2473.064          39.000  
G18  21101098.336   110887222.638       -2674.408          37.000    21101104.489    86405754.947       -2084.036          40.000  
G23  19793579.791   104016251.576         585.675          40.000    19793584.850    81051831.690         456.482          42.000  
> 2025 04 20 15 07 45.9980000  0  9                     
G32  22029706.407   115766989.956         935.544          38.000    22029715.420    90208113.100         728.934          38.000  
G12  22732991.770   119462633.254        1493.023          36.000    22733002.599    93087739.979        1163.241          34.000  
G24  21827960.085   114706757.202       -3051.482          35.000    21827971.200    89382054.079       -2377.743          38.000  
G10  21422560.030   112576439.998        2637.675          40.000    21422566.656    87722227.637        2055.130          38.000  
G15  23657595.461   124321480.150       -1951.033          31.000    23657612.991    96873941.482       -1520.518          33.000  
G25  22036947.047   115804898.172        2724.269          35.000    22036957.365    90237590.693        2123.168          35.000  
G28  22233171.625   116836084.335        3173.011          34.000    22233182.235    91041114.784        2472.853          39.000  
G18  21101607.287   110889897.238       -2674.856          38.000    21101613.433    86407839.026       -2084.211          40.000  
G23  19793468.354   104015666.221         584.872          40.000    19793473.439    81051375.575         455.956          42.000  
> 2025 04 20 15 07 46.9980000  0  9                     
G32  22029528.332   115766054.430         935.629          38.000    22029537.439    90207384.131         729.234          38.000  
G12  22732707.620   119461139.853        1493.185          36.000    22732718.435    93086576.309        1163.858          34.000  
G24  21828540.848   114709808.553       -3050.903          35.000    21828551.806    89384431.776       -2377.632          37.000  
G10  21422058.240   112573802.378        2637.580          40.000    21422064.754    87720172.359        2055.301          38.000  
G15  23657966.868   124323431.625       -1951.617          31.000    23657984.295    96875462.074       -1520.097          33.000  
G25  22036428.639   115802174.097        2723.656          35.000    22036439.056    90235468.046        2122.423          35.000  
G28  22232567.700   116832911.192        3172.685          34.000    22232578.421    91038642.193        2472.719          39.000  
G18  21102116.393   110892572.112       -2674.979          37.000    21102122.450    86409923.371       -2084.549          40.000  
G23  19793357.028   104015081.175         584.832          40.000    19793362.099    81050919.693         455.798          42.000  
> 2025 04 20 15 07 47.9980000  0  9                     
G32  22029350.411   115765118.980         935.185          38.000    22029359.439    90206655.216         728.813          38.000  
G12  22732423.504   119459646.772        1493.044          36.000    22732434.191    93085412.875        1163.375          34.000  
G24  21829121.518   114712860.142       -3051.573          36.000    21829132.463    89386809.626       -2377.896          37.000  
G10  21421556.339   112571164.819        2637.347          40.000    21421562.883    87718117.093        2055.414          38.000  
G15  23658338.050   124325382.964       -1951.698          31.000    23658355.643    96876982.633       -1520.765          32.000  
G25  22035910.350   115799450.079        2723.831          35.000    22035920.808    90233345.429        2122.699          35.000  
G28  22231964.071   116829738.318        3172.214          34.000    22231974.537    91036169.839        2471.896          39.000  
G18  21102625.458   110895247.319       -2675.743          38.000    21102631.526    86412007.948       -2084.835          40.000  
G23  19793245.722   104014496.479         584.347          40.000    19793250.868    81050464.101         455.506          42.000  
> 2025 04 20 15 07 48.9980000  0  9                     
G32  22029172.502   115764183.733         935.214          38.000    22029181.367    90205926.444         728.699          38.000  
G12  22732139.432   119458154.239        1492.352          36.000    22732150.200    93084249.858        1162.566          34.000  
G24  21829702.406   114715912.138       -3052.187          36.000    21829713.195    89389187.792       -2378.556          37.000  
G10  21421054.387   112568527.484        2637.133          40.000    21421061.063    87716062.039        2054.977          38.000  
G15  23658709.277   124327334.434       -1951.554          31.000    23658726.934    96878503.230       -1520.848          32.000  
G25  22035391.973   115796726.353        2723.631          35.000    22035402.512    90231223.061        2122.208          35.000  
G28  22231360.652   116826565.932        3171.364          34.000    22231370.903    91033697.841        2471.807          39.000  
G18  21103134.666   110897923.047       -2676.294          38.000    21103140.642    86414092.914       -2085.329          40.000  
G23  19793134.620   104013912.357         584.053          40.000    19793139.626    81050008.947         454.820          41.000  
> 2025 04 20 15 07 49.9980000  0  9                     
G32  22028994.508   115763248.603         935.055          38.000    22029003.535    90205197.775         728.873          38.000  
G12  22731855.350   119456662.081        1491.926          35.000    22731866.197    93083087.126        1162.670          34.000  
G24  21830283.177   114718964.415       -3052.967          36.000    21830294.021    89391566.183       -2378.556          37.000  
G10  21420552.562   112565890.271        2637.081          40.000    21420559.275    87714007.064        2054.857          38.000  
G15  23659080.510   124329285.949       -1951.712          31.000    23659098.221    96880023.860       -1520.157          32.000  
G25  22034873.854   115794002.819        2723.661          35.000    22034884.255    90229100.831        2122.063          35.000  
G28  22230756.970   116823393.920        3170.993          34.000    22230767.316    91031226.151        2471.551          39.000  
G18  21103643.955   110900599.162       -2676.285          37.000    21103649.870    86416178.191       -2085.335          40.000  
G23  19793023.604   104013328.677         583.527          40.000    19793028.520    81049554.127         454.595          42.000  
> 2025 04 20 15 07 50.9980000  0  9                     
G32  22028816.529   115762313.607         934.779          38.000    22028825.687    90204469.203         728.607          38.000  
G12  22731571.419   119455170.301        1491.907          35.000    22731582.285    93081924.728        1161.967          35.000  
G24  21830864.102   114722016.937       -3053.127          36.000    21830874.835    89393944.776       -2378.793          37.000  
G10  21420050.856   112563253.172        2637.059          40.000    21420057.394    87711952.182        2054.798          38.000  
G15  23659451.767   124331237.382       -1951.234          31.000    23659469.565    96881544.488       -1520.467          33.000  
G25  22034355.794   115791279.480        2723.266          35.000    22034366.011    90226978.746        2121.771          35.000  
G28  22230153.301   116820222.246        3170.823          34.000    22230163.818    91028754.724        2471.178          39.000  
G18  21104153.237   110903275.680       -2676.787          37.000    21104159.237    86418263.788       -2085.322          40.000  
G23  19792912.629   104012745.414         583.173          40.000    19792917.401    81049099.643         454.222          42.000  
> 2025 04 20 15 07 51.9980000  0  9                     
G32  22028638.537   115761378.687         935.167          38.000    22028647.832    90203740.722         728.628          38.000  
G12  22731287.596   119453678.960        1491.323          35.000    22731298.510    93080762.608        1162.604          34.000  
G24  21831445.005   114725069.741       -3052.845          36.000    21831455.795    89396323.602       -2378.789          37.000  
G10  21419549.030   112560616.193        2637.189          40.000    21419555.623    87709897.389        2054.989          38.000  
G15  23659823.060   124333188.835       -1950.629          30.000    23659840.942    96883065.114       -1520.602          32.000  
G25  22033837.486   115788556.308        2722.931          35.000    22033847.737    90224856.788        2121.893          35.000  
G28  22229549.815   116817050.917        3170.530          34.000    22229560.366    91026283.592        2470.897          39.000  
G18  21104662.604   110905952.604       -2677.070          37.000    21104668.703    86420349.715       -2085.838          40.000  
G23  19792801.693   104012162.624         582.407          40.000    19792806.397    81048645.499         454.103          42.000  
> 2025 04 20 15 07 52.9980000  0  9                     
G32  22028460.704   115760443.755         935.108          38.000    22028469.887    90203012.212         728.635          38.000  
G12  22731003.867   119452187.847        1491.358          35.000    22731014.827    93079600.739        1161.815          34.000  
G24  21832025.931   114728122.685       -3052.937          36.000    21832036.720    89398702.503       -2378.504          37.000  
G10  21419047.148   112557979.202        2636.959          40.000    21419053.767    87707842.610        2054.503          38.000  
G15  23660194.205   124335140.182       -1951.507          30.000    23660212.268    96884585.580       -1520.144          32.000  
G25  22033319.281   115785833.167        2722.795          35.000    22033329.625    90222734.857        2121.786          35.000  
G28  22228946.338   116813879.794        3171.743          33.000    22228956.981    91023812.643        2470.639          39.000  
G18  21105172.019   110908629.812       -2677.670          37.000    21105178.149    86422435.824       -2086.168          40.000  
G23  19792690.741   104011580.084         582.754          40.000    19792695.437    81048191.589         454.053          42.000  
> 2025 04 20 15 07 53.9980000  0  9                     
G32  22028282.747   115759508.858         934.568          38.000    22028291.952    90202283.718         728.215          38.000  
G12  22730720.226   119450697.061        1490.601          35.000    22730731.091    93078439.091        1161.345          34.000  
G24  21832607.070   114731175.827       -3053.025          36.000    21832617.752    89401081.572       -2378.765          37.000  
G10  21418545.299   112555342.204        2636.912          40.000    21418551.990    87705787.818        2054.537          38.000  
G15  23660565.439   124337091.391       -1951.106          30.000    23660583.522    96886106.040       -1520.792          33.000  
G25  22032801.156   115783110.100        2722.956          35.000    22032811.420    90220613.008        2121.625          35.000  
G28  22228342.776   116810708.980        3171.141          34.000    22228353.532    91021341.867        2470.485          39.000  
G18  21105681.566   110911307.270       -2677.946          37.000    21105687.654    86424522.175       -2086.425          40.000  
G23  19792580.023   104010997.915         581.913          40.000    19792584.785    81047737.957         453.472          42.000  
> 2025 04 20 15 07 54.9980000  0  9                     
G32  22028104.875   115758573.968         934.905          38.000    22028114.120    90201555.259         728.245          38.000  
G12  22730436.647   119449206.615        1490.085          35.000    22730447.510    93077277.702        1160.753          34.000  
G24  21833188.131   114734229.234       -3053.716          36.000    21833198.759    89403460.836       -2379.062          37.000  
G10  21418043.488   112552705.296        2636.958          40.000    21418050.250    87703733.068        2054.589          38.000  
G15  23660936.719   124339042.558       -1951.694          30.000    23660954.821    96887626.396       -1520.320          33.000  
G25  22032282.911   115780387.170        2722.993          35.000    22032293.347    90218491.238        2121.672          35.000  
G28  22227739.372   116807538.479        3170.712          33.000    22227750.295    91018871.355        2470.410          39.000  
G18  21106191.189   110913985.089       -2677.802          37.000    21106197.256    86426608.800       -2087.109          40.000  
G23  19792469.276   104010416.117         581.598          40.000    19792474.094    81047284.610         453.162          42.000  
> 2025 04 20 15 07 55.9980000  0  9                     
G32  22027926.975   115757639.328         934.551          38.000    22027936.361    90200826.966         727.793          38.000  
G12  22730153.144   119447716.645        1489.000          35.000    22730163.922    93076116.657        1160.477          34.000  
G24  21833769.157   114737283.009       -3054.933          35.000    21833779.837    89405840.377       -2379.881          37.000  
G10  21417541.585   112550068.591        2636.359          40.000    21417548.476    87701678.481        2054.566          38.000  
G15  23661308.203   124340993.787       -1951.318          30.000    23661326.056    96889146.823       -1520.221          33.000  
G25  22031764.724   115777664.477        2723.201          35.000    22031775.116    90216369.678        2121.302          35.000  
G28  22227136.190   116804368.455        3169.790          33.000    22227146.967    91016401.182        2469.898          39.000  
G18  21106700.875   110916663.409       -2678.368          37.000    21106706.910    86428695.787       -2087.175          40.000  
G23  19792358.704   104009834.855         580.802          40.000    19792363.512    81046831.677         452.587          42.000  
> 2025 04 20 15 07 56.9980000  0  9                     
G32  22027749.112   115756704.865         934.416          38.000    22027758.498    90200098.812         728.125          39.000  
G12  22729869.647   119446227.143        1488.997          35.000    22729880.395    93074955.994        1160.717          34.000  
G24  21834350.369   114740337.078       -3054.243          35.000    21834361.073    89408220.207       -2379.925          37.000  
G10  21417039.889   112547432.089        2636.324          40.000    21417046.809    87699624.081        2054.346          38.000  
G15  23661679.409   124342945.092       -1951.283          31.000    23661697.435    96890667.385       -1521.713          33.000  
G25  22031246.667   115774942.089        2722.206          35.000    22031256.997    90214248.342        2120.864          35.000  
G28  22226532.887   116801198.852        3169.415          34.000    22226543.748    91013931.373        2469.729          39.000  
G18  21107210.730   110919342.218       -2679.064          37.000    21107216.698    86430783.170       -2087.738          40.000  
G23  19792248.232   104009254.115         580.535          40.000    19792252.955    81046379.162         452.184          42.000  
> 2025 04 20 15 07 57.9980000  0  9                     
G32  22027571.260   115755770.436         934.302          38.000    22027580.748    90199370.705         727.657          39.000  
G12  22729586.340   119444737.953        1488.637          35.000    22729596.975    93073795.610        1160.123          34.000  
G24  21834931.594   114743391.398       -3054.677          35.000    21834942.321    89410600.176       -2379.932          37.000  
G10  21416538.209   112544795.602        2636.442          40.000    21416545.076    87697569.689        2054.262          38.000  
G15  23662050.536   124344896.303       -1950.883          31.000    23662068.642    96892187.737       -1520.124          33.000  
G25  22030728.564   115772219.782        2722.135          35.000    22030739.045    90212127.029        2121.115          35.000  
G28  22225929.798   116798029.520        3169.287          34.000    22225940.597    91011461.781        2469.408          39.000  
G18  21107720.636   110922021.333       -2679.374          37.000    21107726.479    86432870.780       -2087.813          40.000  
G23  19792137.811   104008673.739         579.917          40.000    19792142.428    81045926.908         451.704          42.000  
> 2025 04 20 15 07 58.9980000  0  9                     
G32  22027393.526   115754836.027         935.054          38.000    22027402.928    90198642.597         728.160          39.000  
G12  22729303.089   119443249.063        1489.067          35.000    22729313.687    93072635.441        1160.742          34.000  
G24  21835512.791   114746445.885       -3054.372          35.000    21835523.596    89412980.296       -2379.750          37.000  
G10  21416036.650   112542159.165        2636.535          40.000    21416043.361    87695515.335        2054.118          38.000  
G15  23662421.668   124346847.457       -1951.159          31.000    23662439.930    96893708.107       -1520.446          33.000  
G25  22030210.467   115769497.552        2722.219          35.000    22030221.107    90210005.835        2120.930          35.000  
G28  22225326.719   116794860.473        3168.904          34.000    22225337.587    91008992.399        2469.376          39.000  
G18  21108230.475   110924700.755       -2679.625          37.000    21108236.420    86434958.627       -2087.639          40.000  
G23  19792027.485   104008093.682         580.295          40.000    19792032.096    81045474.925         451.860          42.000  
> 2025 04 20 15 07 59.9980000  0  9                     
G32  22027215.697   115753901.664         934.611          38.000    22027225.076    90197914.534         727.748          39.000  
G12  22729019.911   119441760.553        1488.555          35.000    22729030.480    93071475.568        1160.061          34.000  
G24  21836094.040   114749500.615       -3054.634          35.000    21836104.794    89415360.629       -2380.587          38.000  
G10  21415534.917   112539522.782        2636.240          40.000    21415541.694    87693460.995        2054.213          38.000  
G15  23662793.081   124348798.552       -1952.272          30.000    23662811.142    96895228.401       -1520.093          32.000  
G25  22029692.454   115766775.446        2722.240          35.000    22029703.044    90207884.700        2121.404          35.000  
G28  22224723.691   116791691.714        3168.654          34.000    22224734.646    91006523.261        2468.742          39.000  
G18  21108740.418   110927380.514       -2680.027          37.000    21108746.428    86437046.761       -2088.214          40.000  
G23  19791917.218   104007514.033         579.202          40.000    19791921.832    81045023.238         451.415          42.000  
> 2025 04 20 15 08 00.9980000  0  9                     
G32  22027038.010   115752967.478         934.273          39.000    22027047.291    90197186.587         727.526          39.000  
G12  22728736.692   119440272.459        1488.180          35.000    22728747.246    93070316.040        1159.279          34.000  
G24  21836675.399   114752555.669       -3055.443          35.000    21836686.219    89417741.165       -2380.782          37.000  
G10  21415033.256   112536886.560        2635.833          40.000    21415039.959    87691406.800        2054.011          38.000  
G15  23663164.261   124350749.628       -1951.747          30.000    23663182.542    96896748.752       -1520.710          32.000  
G25  22029174.464   115764053.579        2721.897          35.000    22029185.171    90205763.777        2120.717          35.000  
G28  22224120.733   116788523.432        3167.354          34.000    22224131.712    91004054.414        2468.417          39.000  
G18  21109250.415   110930060.721       -2680.563          37.000    21109256.483    86439135.229       -2088.690          40.000  
G23  19791807.036   104006934.843         578.788          40.000    19791811.578    81044571.938         450.894          42.000  
> 2025 04 20 15 08 01.9980000  0  9                     
G32  22026860.275   115752033.445         934.100          39.000    22026869.595    90196458.765         727.692          39.000  
G12  22728453.681   119438784.841        1487.026          35.000    22728464.240    93069156.843        1159.127          34.000  
G24  21837256.827   114755611.032       -3055.536          35.000    21837267.599    89420121.971       -2381.375          38.000  
G10  21414531.607   112534250.491        2635.834          40.000    21414538.372    87689352.720        2054.075          38.000  
G15  23663535.579   124352700.724       -1950.961          30.000    23663553.849    96898269.139       -1521.654          32.000  
G25  22028656.534   115761331.905        2721.713          35.000    22028667.159    90203643.000        2120.671          35.000  
G28  22223517.979   116785355.473        3167.957          34.000    22223528.856    91001585.905        2468.236          38.000  
G18  21109760.559   110932741.344       -2680.680          37.000    21109766.568    86441224.048       -2089.120          40.000  
G23  19791696.916   104006356.135         578.225          40.000    19791701.449    81044120.985         450.916          42.000  
> 2025 04 20 15 08 02.9980000  0  9                     
G32  22026682.615   115751099.473         933.943          38.000    22026691.934    90195731.006         727.616          39.000  
G12  22728170.755   119437297.587        1486.529          35.000    22728181.277    93067997.939        1158.982          34.000  
G24  21837838.430   114758666.671       -3056.121          35.000    21837849.015    89422502.963       -2380.935          37.000  
G10  21414029.927   112531614.507        2635.955          40.000    21414036.740    87687298.722        2053.556          38.000  
G15  23663906.981   124354651.847       -1951.352          31.000    23663925.043    96899789.455       -1520.723          32.000  
G25  22028138.597   115758610.415        2720.817          35.000    22028149.319    90201522.359        2120.015          36.000  
G28  22222915.298   116782187.895        3167.187          34.000    22222926.060    90999117.655        2468.024          39.000  
G18  21110270.749   110935422.366       -2681.357          37.000    21110276.748    86443313.144       -2089.429          40.000  
G23  19791586.902   104005777.835         578.093          40.000    19791591.371    81043670.373         450.581          42.000  
> 2025 04 20 15 08 03.9980000  0  9                     
G32  22026504.866   115750165.509         933.818          39.000    22026514.189    90195003.251         727.474          39.000  
G12  22727887.778   119435810.600        1487.038          35.000    22727898.326    93066839.251        1159.096          34.000  
G24  21838419.902   114761722.463       -3056.385          35.000    21838430.574    89424884.119       -2381.632          37.000  
G10  21413528.327   112528978.569        2635.535          40.000    21413535.173    87685244.710        2053.952          38.000  
G15  23664278.280   124356602.838       -1951.542          31.000    23664296.304    96901309.664       -1520.567          33.000  
G25  22027620.788   115755888.942        2721.776          35.000    22027631.455    90199401.731        2120.950          35.000  
G28  22222312.835   116779020.521        3167.091          34.000    22222323.366    90996649.607        2467.591          38.000  
G18  21110780.911   110938103.658       -2681.349          37.000    21110787.053    86445402.462       -2089.579          40.000  
G23  19791476.952   104005199.870         577.691          40.000    19791481.289    81043220.011         450.201          42.000  
> 2025 04 20 15 08 04.9980000  0  9                     
G32  22026327.053   115749231.675         933.575          39.000    22026336.522    90194275.561         728.031          39.000  
G12  22727604.961   119434324.016        1486.571          35.000    22727615.454    93065680.912        1157.894          34.000  
G24  21839001.376   114764778.521       -3056.104          35.000    21839012.058    89427265.464       -2381.697          37.000  
G10  21413026.751   112526342.701        2635.778          40.000    21413033.528    87683190.802        2053.879          38.000  
G15  23664649.486   124358553.809       -1952.028          31.000    23664667.637    96902829.901       -1520.229          33.000  
G25  22027102.923   115753167.688        2721.477          35.000    22027113.603    90197281.279        2120.283          35.000  
G28  22221710.303   116775853.543        3167.079          34.000    22221720.666    90994181.835        2467.379          38.000  
G18  21111291.233   110940785.359       -2682.041          37.000    21111297.397    86447492.095       -2089.660          40.000  
G23  19791366.973   104004622.339         577.152          40.000    19791371.384    81042769.999         449.644          42.000  
> 2025 04 20 15 08 05.9980000  0  9                     
G32  22026149.340   115748297.850         933.747          39.000    22026158.837    90193547.922         727.751          39.000  
G12  22727322.112   119432837.773        1486.226          35.000    22727332.611    93064522.804        1157.300          34.000  
G24  21839583.063   114767834.799       -3056.309          35.000    21839593.724    89429646.952       -2381.371          38.000  
G10  21412525.201   112523706.882        2635.674          40.000    21412531.929    87681136.932        2053.825          38.000  
G15  23665020.892   124360504.661       -1950.432          31.000    23665038.900    96904350.060       -1520.050          33.000  
G25  22026585.013   115750446.553        2720.976          35.000    22026595.817    90195160.895        2120.134          36.000  
G28  22221107.393   116772686.880        3166.176          33.000    22221118.082    90991714.281        2467.132          38.000  
G18  21111801.606   110943467.377       -2682.206          37.000    21111807.715    86449581.996       -2090.419          40.000  
G23  19791257.115   104004045.163         577.169          40.000    19791261.509    81042320.247         449.596          42.000  
> 2025 04 20 15 08 06.9980000  0  9                     
G32  22025971.632   115747364.147         933.606          38.000    22025981.218    90192820.366         727.700          38.000  
G12  22727039.298   119431351.917        1485.375          35.000    22727049.870    93063364.986        1157.490          34.000  
G24  21840164.757   114770891.349       -3057.192          35.000    21840175.425    89432028.695       -2382.052          37.000  
G10  21412023.679   112521071.180        2635.684          40.000    21412030.323    87679083.146        2053.611          38.000  
G15  23665392.183   124362455.571       -1951.004          31.000    23665410.196    96905870.198       -1519.871          33.000  
G25  22026067.178   115747725.564        2720.941          35.000    22026077.955    90193040.630        2120.486          35.000  
G28  22220504.874   116769520.533        3165.877          33.000    22220515.577    90989246.994        2467.260          39.000  
G18  21112312.070   110946149.785       -2682.778          37.000    21112318.007    86451672.156       -2090.318          40.000  
G23  19791147.491   104003468.427         576.538          40.000    19791151.853    81041870.845         449.125          42.000  
> 2025 04 20 15 08 07.9980000  0  9                     
G32  22025794.020   115746430.582         933.689          38.000    22025803.477    90192092.933         727.358          38.000  
G12  22726756.540   119429866.528        1484.655          35.000    22726767.231    93062207.507        1157.472          34.000  
G24  21840746.371   114773948.207       -3056.630          35.000    21840757.139    89434410.649       -2381.917          37.000  
G10  21411522.159   112518435.647        2635.596          40.000    21411528.861    87677029.498        2053.489          38.000  
G15  23665763.477   124364406.491       -1951.439          31.000    23665781.407    96907390.392       -1519.876          33.000  
G25  22025549.406   115745004.801        2720.771          35.000    22025560.171    90190920.565        2120.186          36.000  
G28  22219902.345   116766354.618        3165.491          33.000    22219912.971    90986780.062        2466.807          39.000  
G18  21112822.600   110948832.645       -2683.327          37.000    21112828.530    86453762.687       -2090.522          40.000  
G23  19791037.822   104002892.181         575.974          40.000    19791042.204    81041421.822         448.870          42.000  
> 2025 04 20 15 08 08.9980000  0  9                     
G32  22025616.376   115745497.067         933.611          38.000    22025625.753    90191365.501         727.737          38.000  
G12  22726473.927   119428381.409        1485.320          35.000    22726484.603    93061050.278        1157.419          34.000  
G24  21841328.145   114777005.282       -3056.906          35.000    21841338.898    89436792.798       -2382.265          37.000  
G10  21411020.578   112515800.160        2635.593          40.000    21411027.321    87674975.851        2053.941          38.000  
G15  23666134.689   124366357.296       -1951.066          31.000    23666152.640    96908910.490       -1519.692          34.000  
G25  22025031.653   115742284.147        2720.723          35.000    22025042.519    90188800.552        2120.730          36.000  
G28  22219299.982   116763188.957        3165.852          33.000    22219310.527    90984313.340        2466.684          39.000  
G18  21113333.197   110951515.797       -2683.417          37.000    21113339.088    86455853.477       -2090.974          40.000  
G23  19790928.169   104002316.291         575.645          40.000    19790932.623    81040973.066         448.668          42.000  
> 2025 04 20 15 08 09.9980000  0  9                     
G32  22025438.682   115744563.603         933.368          38.000    22025448.096    90190638.142         727.386          38.000  
G12  22726191.492   119426896.704        1484.117          35.000    22726202.069    93059893.325        1157.082          34.000  
G24  21841909.934   114780062.586       -3057.285          35.000    21841920.616    89439175.092       -2382.462          37.000  
G10  21410519.052   112513164.738        2635.074          40.000    21410525.824    87672922.288        2053.193          38.000  
G15  23666505.942   124368308.029       -1950.525          31.000    23666523.948    96910430.556       -1520.061          34.000  
G25  22024514.071   115739563.600        2720.667          35.000    22024524.808    90186680.701        2119.564          36.000  
G28  22218697.629   116760023.646        3165.069          33.000    22218708.229    90981846.844        2466.275          39.000  
G18  21113843.834   110954199.307       -2684.089          37.000    21113849.719    86457944.508       -2091.048          40.000  
G23  19790818.632   104001740.763         575.470          41.000    19790823.110    81040524.612         448.228          42.000  
> 2025 04 20 15 08 10.9980000  0  9                     
G32  22025261.092   115743630.294         933.284          38.000    22025270.412    90189910.893         727.421          38.000  
G12  22725909.009   119425412.404        1484.324          35.000    22725919.518    93058736.761        1156.604          34.000  
G24  21842491.717   114783120.255       -3058.310          35.000    21842502.353    89441557.662       -2382.660          38.000  
G10  21410017.602   112510529.475        2635.309          40.000    21410024.257    87670868.843        2053.195          38.000  
G15  23666877.242   124370258.847       -1950.929          32.000    23666895.114    96911950.667       -1519.783          34.000  
G25  22023996.474   115736843.316        2720.655          35.000    22024007.224    90184560.993        2119.551          36.000  
G28  22218095.162   116756858.705        3165.679          33.000    22218105.802    90979380.697        2466.009          39.000  
G18  21114354.589   110956883.278       -2684.368          37.000    21114360.397    86460035.912       -2091.366          40.000  
G23  19790709.196   104001165.765         574.675          41.000    19790713.661    81040076.554         447.825          42.000  
> 2025 04 20 15 08 11.9980000  0  9                     
G32  22025083.396   115742697.124         933.354          38.000    22025092.849    90189183.769         727.145          38.000  
G12  22725626.557   119423928.545        1483.457          35.000    22725637.147    93057580.540        1155.452          34.000  
G24  21843073.415   114786178.155       -3057.875          35.000    21843084.215    89443940.477       -2382.954          37.000  
G10  21409516.163   112507894.354        2635.310          40.000    21409522.718    87668815.496        2053.347          38.000  
G15  23667248.563   124372209.671       -1950.368          32.000    23667266.435    96913470.800       -1520.155          34.000  
G25  22023478.773   115734123.225        2720.420          35.000    22023489.566    90182441.475        2118.738          36.000  
G28  22217493.025   116753694.216        3164.814          34.000    22217503.561    90976914.860        2465.397          39.000  
G18  21114865.492   110959567.654       -2684.859          37.000    21114871.173    86462127.635       -2091.821          40.000  
G23  19790599.897   104000591.219         574.100          40.000    19790604.333    81039628.849         447.465          42.000  
> 2025 04 20 15 08 12.9980000  0  9                     
G32  22024905.804   115741764.013         932.777          38.000    22024915.292    90188456.649         727.208          38.000  
G12  22725344.230   119422445.014        1482.921          35.000    22725354.799    93056424.511        1155.978          33.000  
G24  21843655.470   114789236.298       -3058.656          35.000    21843666.229    89446323.429       -2383.310          37.000  
G10  21409014.727   112505259.264        2635.247          40.000    21409021.293    87666762.199        2053.204          38.000  
G15  23667619.802   124374160.430       -1950.920          32.000    23667637.660    96914990.840       -1520.075          34.000  
G25  22022961.189   115731403.237        2719.849          35.000    22022972.039    90180321.953        2119.487          36.000  
G28  22216890.774   116750529.977        3164.376          33.000    22216901.402    90974449.218        2465.229          39.000  
G18  21115376.315   110962252.351       -2685.245          37.000    21115382.053    86464219.596       -2092.315          40.000  
G23  19790490.661   104000016.991         573.881          40.000    19790495.105    81039181.408         447.295          42.000  
> 2025 04 20 15 08 13.9980000  0  9                     
G32  22024728.306   115740830.879         933.013          38.000    22024737.683    90187729.553         726.832          38.000  
G12  22725062.018   119420961.743        1483.588          35.000    22725072.495    93055268.748        1155.710          34.000  
G24  21844237.457   114792294.585       -3058.328          36.000    21844248.146    89448706.538       -2383.429          37.000  
G10  21408513.166   112502624.249        2634.749          40.000    21408519.902    87664708.931        2053.102          38.000  
G15  23667991.010   124376111.098       -1951.383          31.000    23668008.940    96916510.779       -1519.209          34.000  
G25  22022443.632   115728683.315        2720.073          35.000    22022454.414    90178202.552        2119.409          36.000  
G28  22216288.664   116747366.046        3163.322          34.000    22216299.240    90971983.803        2465.097          39.000  
G18  21115887.272   110964937.340       -2685.017          37.000    21115892.972    86466311.804       -2092.350          40.000  
G23  19790381.404   103999443.132         573.674          40.000    19790385.852    81038734.268         446.669          42.000  
> 2025 04 20 15 08 14.9980000  0  9                     
G32  22024550.666   115739897.797         932.627          38.000    22024560.158    90187002.473         726.793          38.000  
G12  22724779.795   119419478.832        1482.686          35.000    22724790.367    93054113.259        1154.994          34.000  
G24  21844819.414   114795353.103       -3058.425          35.000    21844830.087    89451089.789       -2383.648          37.000  
G10  21408011.686   112499989.211        2634.948          40.000    21408018.561    87662655.670        2053.088          38.000  
G15  23668362.293   124378061.618       -1950.593          32.000    23668380.139    96918030.728       -1520.115          34.000  
G25  22021926.181   115725963.514        2719.312          35.000    22021936.806    90176083.216        2118.852          36.000  
G28  22215686.697   116744202.333        3163.626          34.000    22215697.260    90969518.606        2464.716          39.000  
G18  21116398.349   110967622.666       -2686.051          37.000    21116404.015    86468404.240       -2092.421          40.000  
G23  19790272.287   103998869.636         573.142          40.000    19790276.787    81038287.373         446.654          42.000  
> 2025 04 20 15 08 15.9980000  0  9                     
G32  22024373.135   115738964.776         933.091          39.000    22024382.643    90186275.443         727.039          38.000  
G12  22724497.546   119417996.318        1482.453          35.000    22724508.222    93052958.048        1154.531          34.000  
G24  21845401.471   114798411.884       -3059.103          36.000    21845412.229    89453473.205       -2383.406          37.000  
G10  21407510.259   112497354.280        2634.816          40.000    21407517.071    87660602.480        2052.861          38.000  
G15  23668733.328   124380012.156       -1950.985          31.000    23668751.281    96919550.575       -1519.720          34.000  
G25  22021408.770   115723243.853        2719.075          34.000    22021419.294    90173963.982        2119.213          36.000  
G28  22215084.709   116741038.988        3162.508          34.000    22215095.229    90967053.646        2465.015          39.000  
G18  21116909.486   110970308.323       -2685.802          37.000    21116914.998    86470496.995       -2093.283          40.000  
G23  19790163.253   103998296.538         572.534          40.000    19790167.695    81037840.804         446.399          42.000  
> 2025 04 20 15 08 16.9980000  0  9                     
G32  22024195.623   115738031.855         932.717          39.000    22024205.106    90185548.502         726.467          38.000  
G12  22724215.502   119416514.130        1481.945          35.000    22724226.142    93051803.096        1154.884          33.000  
G24  21845983.674   114801470.901       -3059.176          36.000    21845994.357    89455856.866       -2383.913          37.000  
G10  21407008.827   112494719.452        2634.659          40.000    21407015.651    87658549.350        2053.043          38.000  
G15  23669104.387   124381962.657       -1951.078          32.000    23669122.416    96921070.446       -1520.381          34.000  
G25  22020891.285   115720524.314        2719.518          35.000    22020901.722    90171844.875        2119.023          36.000  
G28  22214482.880   116737875.993        3162.278          34.000    22214493.361    90964588.981        2464.398          39.000  
G18  21117420.599   110972994.393       -2686.546          37.000    21117426.158    86472589.996       -2092.999          40.000  
G23  19790054.243   103997723.846         572.379          40.000    19790058.631    81037394.566         445.914          42.000  
> 2025 04 20 15 08 17.9980000  0  9                     
G32  22024018.096   115737098.997         932.959          39.000    22024027.705    90184821.615         726.919          38.000  
G12  22723933.402   119415032.347        1481.617          35.000    22723944.171    93050648.454        1154.124          33.000  
G24  21846565.757   114804530.153       -3059.422          35.000    21846576.558    89458240.722       -2383.687          37.000  
G10  21406507.418   112492084.722        2634.664          40.000    21406514.301    87656496.303        2053.441          38.000  
G15  23669475.563   124383913.057       -1950.639          31.000    23669493.647    96922590.266       -1519.929          34.000  
G25  22020373.823   115717804.967        2719.335          35.000    22020384.327    90169725.923        2118.714          36.000  
G28  22213881.089   116734713.299        3162.468          34.000    22213891.549    90962124.571        2464.146          39.000  
G18  21117931.785   110975680.779       -2686.342          37.000    21117937.271    86474683.310       -2093.300          40.000  
G23  19789945.311   103997151.592         571.935          40.000    19789949.764    81036948.633         445.850          42.000  
> 2025 04 20 15 08 18.9980000  0  9                     
G32  22023840.564   115736166.225         932.627          39.000    22023850.154    90184094.769         726.872          38.000  
G12  22723651.437   119413550.911        1481.499          35.000    22723662.216    93049494.068        1154.481          33.000  
G24  21847147.940   114807589.645       -3059.402          35.000    21847158.826    89460624.725       -2383.855          37.000  
G10  21406006.140   112489450.044        2634.615          40.000    21406013.028    87654443.316        2053.137          38.000  
G15  23669846.571   124385863.407       -1949.643          31.000    23669864.794    96924110.029       -1519.289          34.000  
G25  22019856.348   115715085.728        2719.318          35.000    22019866.979    90167607.027        2118.887          36.000  
G28  22213279.431   116731550.938        3162.584          34.000    22213289.753    90959660.376        2464.057          39.000  
G18  21118443.010   110978367.552       -2687.066          37.000    21118448.616    86476776.882       -2093.504          40.000  
G23  19789836.534   103996579.692         571.729          40.000    19789840.870    81036503.009         445.587          42.000  
> 2025 04 20 15 08 19.9980000  0  9                     
G32  22023663.074   115735233.484         932.225          38.000    22023672.652    90183367.947         726.859          38.000  
G12  22723369.586   119412069.802        1480.424          35.000    22723380.382    93048339.940        1154.597          33.000  
G24  21847730.342   114810649.351       -3060.226          35.000    21847740.999    89463008.911       -2384.347          37.000  
G10  21405504.795   112486815.399        2634.246          40.000    21405511.635    87652390.364        2052.762          38.000  
G15  23670217.780   124387813.724       -1949.549          31.000    23670235.918    96925629.747       -1519.701          34.000  
G25  22019338.948   115712366.556        2719.714          35.000    22019349.526    90165488.246        2118.265          36.000  
G28  22212677.641   116728388.854        3162.218          34.000    22212688.090    90957196.431        2463.976          39.000  
G18  21118954.344   110981054.639       -2687.565          37.000    21118959.952    86478870.716       -2094.092          40.000  
G23  19789727.748   103996008.176         571.141          40.000    19789732.169    81036057.670         445.221          42.000  
> 2025 04 20 15 08 20.9980000  0  9                     
G32  22023485.553   115734300.807         932.258          38.000    22023495.090    90182641.206         726.594          38.000  
G12  22723087.711   119410589.055        1480.545          35.000    22723098.606    93047186.153        1153.487          34.000  
G24  21848312.584   114813709.254       -3059.654          35.000    21848323.331    89465393.272       -2384.673          38.000  
G10  21405003.474   112484180.865        2634.209          40.000    21405010.358    87650337.476        2053.005          38.000  
G15  23670589.066   124389764.021       -1950.072          31.000    23670606.915    96927149.452       -1519.726          34.000  
G25  22018821.616   115709647.624        2718.900          35.000    22018832.138    90163369.544        2118.704          36.000  
G28  22212075.918   116725227.115        3161.870          34.000    22212086.496    90954732.766        2463.369          39.000  
G18  21119465.727   110983742.074       -2687.654          37.000    21119471.345    86480964.828       -2094.150          40.000  
G23  19789619.122   103995437.060         570.911          40.000    19789623.504    81035612.652         444.824          42.000  
> 2025 04 20 15 08 21.9980000  0  9                     
G32  22023308.050   115733368.258         932.330          38.000    22023317.638    90181914.540         726.793          39.000  
G12  22722806.040   119409108.692        1480.381          35.000    22722816.921    93046032.622        1153.608          34.000  
G24  21848894.845   114816769.523       -3060.523          35.000    21848905.626    89467777.856       -2384.679          38.000  
G10  21404502.121   112481546.436        2634.404          40.000    21404509.007    87648284.672        2052.932          38.000  
G15  23670960.147   124391714.300       -1950.976          31.000    23670977.990    96928669.079       -1519.369          34.000  
G25  22018304.261   115706928.813        2719.019          35.000    22018314.875    90161251.043        2117.924          36.000  
G28  22211474.159   116722065.747        3161.348          34.000    22211484.938    90952269.358        2463.013          39.000  
G18  21119977.212   110986429.931       -2688.444          37.000    21119982.832    86483059.253       -2094.582          40.000  
G23  19789510.491   103994866.378         570.765          40.000    19789514.895    81035167.971         444.580          42.000  
> 2025 04 20 15 08 22.9980000  0  9                     
G32  22023130.773   115732435.833         932.650          39.000    22023140.173    90181187.995         726.555          39.000  
G12  22722524.436   119407628.800        1479.800          35.000    22722535.236    93044879.482        1152.860          33.000  
G24  21849477.244   114819830.005       -3060.101          35.000    21849487.986    89470162.685       -2385.094          37.000  
G10  21404000.837   112478912.146        2634.400          40.000    21404007.832    87646232.002        2052.563          38.000  
G15  23671331.335   124393664.591       -1951.050          32.000    23671349.160    96930188.783       -1519.558          34.000  
G25  22017786.918   115704210.261        2718.480          35.000    22017797.548    90159132.642        2118.157          36.000  
G28  22210872.535   116718904.767        3160.985          34.000    22210883.442    90949806.262        2462.893          39.000  
G18  21120488.770   110989118.155       -2688.353          37.000    21120494.408    86485154.003       -2094.697          40.000  
G23  19789402.017   103994296.187         570.150          40.000    19789406.440    81034723.653         444.078          42.000  
> 2025 04 20 15 08 23.9980000  0  9                     
G32  22022953.504   115731503.617         931.576          39.000    22022962.709    90180461.566         726.424          39.000  
G12  22722242.911   119406149.372        1479.154          34.000    22722253.725    93043726.701        1151.694          33.000  
G24  21850059.627   114822890.905       -3060.763          35.000    21850070.491    89472547.775       -2385.299          37.000  
G10  21403499.702   112476278.070        2634.151          40.000    21403506.649    87644179.470        2052.764          38.000  
G15  23671702.393   124395614.899       -1950.479          32.000    23671720.368    96931708.546       -1519.698          34.000  
G25  22017269.590   115701491.947        2717.605          35.000    22017280.309    90157014.466        2117.936          36.000  
G28  22210271.178   116715744.225        3160.236          34.000    22210281.936    90947343.507        2462.595          39.000  
G18  21121000.586   110991806.918       -2689.331          37.000    21121006.029    86487249.112       -2095.262          40.000  
G23  19789293.579   103993726.474         569.579          40.000    19789297.955    81034279.735         443.657          42.000  
> 2025 04 20 15 08 24.9980000  0  9                     
G32  22022776.078   115730571.360         932.071          39.000    22022785.196    90179735.171         726.094          39.000  
G12  22721961.467   119404670.208        1479.032          34.000    22721972.226    93042574.076        1151.902          33.000  
G24  21850642.067   114825951.945       -3060.989          35.000    21850653.056    89474932.969       -2385.085          37.000  
G10  21402998.410   112473643.983        2634.088          40.000    21403005.459    87642126.946        2052.432          38.000  
G15  23672073.540   124397565.126       -1950.570          33.000    23672091.475    96933228.145       -1519.123          34.000  
G25  22016752.340   115698773.636        2718.140          35.000    22016763.126    90154896.311        2118.067          36.000  
G28  22209669.844   116712583.915        3159.885          34.000    22209680.531    90944880.946        2462.414          39.000  
G18  21121512.283   110994495.914       -2689.259          37.000    21121517.765    86489344.440       -2095.473          40.000  
G23  19789185.291   103993157.107         569.151          40.000    19789189.610    81033836.052         443.572          42.000  
> 2025 04 20 15 08 25.9980000  0  9                     
G32  22022598.814   115729639.221         932.198          38.000    22022607.830    90179008.818         726.479          39.000  
G12  22721680.021   119403191.455        1478.623          34.000    22721690.833    93041421.806        1152.072          33.000  
G24  21851224.628   114829013.278       -3061.941          35.000    21851235.578    89477318.409       -2385.276          37.000  
G10  21402497.205   112471010.035        2633.878          40.000    21402504.158    87640074.524        2052.444          38.000  
G15  23672444.858   124399515.329       -1950.034          33.000    23672462.575    96934747.823       -1519.802          33.000  
G25  22016235.110   115696055.578        2717.716          34.000    22016245.913    90152778.319        2118.243          36.000  
G28  22209068.523   116709424.006        3159.395          34.000    22209079.200    90942418.652        2462.265          38.000  
G18  21122024.067   110997185.312       -2689.364          37.000    21122029.549    86491440.073       -2095.810          40.000  
G23  19789076.949   103992588.151         569.138          40.000    19789081.337    81033392.733         443.226          42.000  
> 2025 04 20 15 08 26.9980000  0  9                     
G32  22022421.453   115728707.220         931.948          38.000    22022430.456    90178282.607         725.936          39.000  
G12  22721398.738   119401713.155        1477.911          34.000    22721409.501    93040269.826        1152.589          33.000  
G24  21851807.184   114832074.901       -3062.340          35.000    21851818.182    89479704.101       -2385.927          37.000  
G10  21401996.091   112468376.210        2633.509          40.000    21402002.921    87638022.180        2052.404          38.000  
G15  23672816.012   124401465.555       -1950.303          33.000    23672833.762    96936267.471       -1519.828          33.000  
G25  22015718.026   115693337.693        2717.522          35.000    22015728.736    90150660.501        2117.745          36.000  
G28  22208467.324   116706264.453        3159.603          34.000    22208477.970    90939956.677        2461.791          39.000  
G18  21122535.860   110999875.156       -2690.548          37.000    21122541.486    86493536.032       -2096.102          40.000  
G23  19788968.844   103992019.693         568.244          40.000    19788973.184    81032949.766         442.786          42.000  
> 2025 04 20 15 08 27.9980000  0  9                     
G32  22022244.252   115727775.361         931.709          39.000    22022253.019    90177556.467         725.985          39.000  
G12  22721117.484   119400235.224        1478.380          34.000    22721128.276    93039118.252        1151.774          33.000  
G24  21852389.812   114835136.772       -3061.750          35.000    21852400.811    89482089.988       -2385.885          37.000  
G10  21401494.934   112465742.511        2633.779          40.000    21401501.747    87635969.960        2052.234          38.000  
G15  23673187.225   124403415.797       -1949.848          33.000    23673204.817    96937787.110       -1518.996          33.000  
G25  22015200.926   115690620.016        2717.378          35.000    22015211.552    90148542.828        2117.666          36.000  
G28  22207866.298   116703105.339        3158.542          34.000    22207876.806    90937495.001        2461.611          39.000  
G18  21123047.789   111002565.340       -2689.781          37.000    21123053.488    86495632.307       -2096.185          40.000  
G23  19788860.828   103991451.673         567.939          40.000    19788865.132    81032507.156         442.456          42.000  
> 2025 04 20 15 08 28.9980000  0  9                     
G32  22022066.938   115726843.551         931.488          38.000    22022075.740    90176830.392         725.813          39.000  
G12  22720836.290   119398757.703        1477.290          34.000    22720847.067    93037966.925        1151.041          33.000  
G24  21852972.646   114838198.933       -3062.768          35.000    21852983.561    89484476.076       -2386.592          37.000  
G10  21400993.852   112463108.914        2633.186          40.000    21401000.619    87633917.810        2051.912          38.000  
G15  23673558.307   124405366.003       -1950.167          33.000    23673575.962    96939306.761       -1519.375          33.000  
G25  22014683.741   115687902.457        2717.720          35.000    22014694.415    90146425.266        2117.355          36.000  
G28  22207265.116   116699946.469        3158.701          34.000    22207275.734    90935033.580        2461.064          39.000  
G18  21123559.778   111005255.935       -2690.635          37.000    21123565.475    86497728.864       -2096.763          40.000  
G23  19788752.784   103990884.055         567.352          40.000    19788757.069    81032064.866         442.028          42.000  
> 2025 04 20 15 08 29.9980000  0  9                     
G32  22021889.599   115725911.904         931.366          38.000    22021898.511    90176104.429         726.127          39.000  
G12  22720555.290   119397280.596        1476.557          35.000    22720566.010    93036815.959        1150.457          33.000  
G24  21853555.488   114841261.381       -3062.313          35.000    21853566.336    89486862.417       -2386.697          37.000  
G10  21400492.768   112460475.465        2633.497          40.000    21400499.521    87631865.772        2051.815          38.000  
G15  23673929.512   124407316.237       -1950.276          33.000    23673947.202    96940826.451       -1520.147          33.000  
G25  22014166.527   115685185.138        2717.495          34.000    22014177.373    90144307.883        2117.118          36.000  
G28  22206664.327   116696788.028        3158.410          34.000    22206674.729    90932572.464        2461.065          38.000  
G18  21124071.722   111007946.944       -2690.900          37.000    21124077.593    86499825.751       -2096.918          39.000  
G23  19788644.749   103990316.916         566.782          40.000    19788649.041    81031622.933         441.698          42.000  
> 2025 04 20 15 08 30.9980000  0  9                     
G32  22021712.261   115724980.283         931.262          38.000    22021721.310    90175378.516         725.717          39.000  
G12  22720274.252   119395803.816        1476.788          35.000    22720285.006    93035665.227        1150.370          33.000  
G24  21854138.299   114844324.056       -3062.893          35.000    21854149.107    89489248.917       -2387.177          37.000  
G10  21399991.595   112457842.060        2633.317          40.000    21399998.435    87629813.801        2051.447          38.000  
G15  23674300.849   124409266.383       -1950.187          33.000    23674318.264    96942346.043       -1520.210          33.000  
G25  22013649.554   115682467.978        2716.302          35.000    22013660.302    90142190.578        2117.110          36.000  
G28  22206063.390   116693629.944        3157.055          34.000    22206073.697    90930111.591        2460.736          38.000  
G18  21124583.831   111010638.304       -2691.669          37.000    21124589.771    86501922.910       -2097.494          40.000  
G23  19788536.988   103989750.144         566.251          40.000    19788541.203    81031181.294         441.498          42.000  
> 2025 04 20 15 08 31.9980000  0  9                     
G32  22021535.019   115724048.856         930.772          38.000    22021544.039    90174652.719         725.663          39.000  
G12  22719993.321   119394327.557        1475.244          35.000    22720003.998    93034514.863        1150.848          33.000  
G24  21854721.200   114847387.092       -3063.567          35.000    21854731.950    89491635.638       -2387.007          37.000  
G10  21399490.527   112455208.874        2632.720          40.000    21399497.389    87627761.937        2051.738          38.000  
G15  23674671.914   124411216.613       -1950.307          32.000    23674689.312    96943865.682       -1520.205          34.000  
G25  22013132.432   115679750.994        2716.868          35.000    22013143.354    90140073.467        2116.928          36.000  
G28  22205462.461   116690472.209        3157.125          34.000    22205472.718    90927651.065        2460.175          39.000  
G18  21125096.049   111013330.115       -2692.265          37.000    21125101.945    86504020.425       -2097.874          40.000  
G23  19788429.263   103989183.880         565.892          40.000    19788433.498    81030740.053         440.922          42.000  
> 2025 04 20 15 08 32.9980000  0  9                     
G32  22021357.687   115723117.488         931.435          38.000    22021366.927    90173927.020         725.538          38.000  
G12  22719712.460   119392851.636        1475.586          35.000    22719723.050    93033364.793        1149.983          33.000  
G24  21855304.103   114850450.335       -3063.481          36.000    21855314.928    89494022.609       -2387.167          37.000  
G10  21398989.493   112452575.749        2633.241          40.000    21398996.252    87625710.145        2052.029          38.000  
G15  23675042.962   124413166.836       -1950.442          32.000    23675060.503    96945385.291       -1519.736          34.000  
G25  22012615.423   115677034.181        2716.412          34.000    22012626.304    90137956.503        2116.488          36.000  
G28  22204861.574   116687314.875        3156.528          33.000    22204871.910    90925190.794        2459.979          39.000  
G18  21125608.373   111016022.274       -2692.166          37.000    21125614.159    86506118.219       -2097.857          39.000  
G23  19788321.710   103988618.031         565.766          40.000    19788325.729    81030299.141         440.778          42.000  
> 2025 04 20 15 08 33.9980000  0  9                     
G32  22021180.427   115722186.154         931.102          38.000    22021189.736    90173201.296         725.316          38.000  
G12  22719431.672   119391376.004        1475.232          34.000    22719442.193    93032214.973        1149.248          33.000  
G24  21855887.074   114853513.769       -3063.724          36.000    21855897.904    89496409.702       -2387.457          37.000  
G10  21398488.383   112449942.661        2633.247          40.000    21398495.116    87623658.403        2051.868          38.000  
G15  23675414.074   124415116.931       -1951.239          32.000    23675431.658    96946904.819       -1519.697          34.000  
G25  22012098.427   115674317.445        2716.835          34.000    22012109.264    90135839.539        2117.273          36.000  
G28  22204260.764   116684157.760        3157.192          34.000    22204271.093    90922730.719        2459.918          39.000  
G18  21126120.695   111018714.747       -2692.630          37.000    21126126.532    86508216.245       -2098.157          40.000  
G23  19788214.017   103988052.520         565.264          40.000    19788218.107    81029858.479         440.589          42.000  
> 2025 04 20 15 08 34.9980000  0  9                     
G32  22021003.225   115721254.917         930.906          38.000    22021012.576    90172475.631         726.078          38.000  
G12  22719150.868   119389900.746        1475.208          34.000    22719161.428    93031065.453        1149.159          33.000  
G24  21856470.132   114856577.486       -3063.892          36.000    21856480.846    89498797.008       -2387.704          37.000  
G10  21397987.441   112447309.686        2632.902          40.000    21397994.058    87621606.729        2051.510          38.000  
G15  23675785.130   124417066.966       -1950.272          32.000    23675802.790    96948424.344       -1519.758          34.000  
G25  22011581.445   115671600.906        2716.343          34.000    22011592.246    90133722.772        2116.238          36.000  
G28  22203659.965   116681001.009        3156.468          34.000    22203670.454    90920270.922        2459.521          38.000  
G18  21126633.229   111021407.615       -2693.572          37.000    21126638.938    86510314.575       -2098.672          39.000  
G23  19788106.565   103987487.430         564.862          40.000    19788110.538    81029418.151         440.222          42.000  
> 2025 04 20 15 08 35.9980000  0  9                     
G32  22020825.994   115720323.832         930.737          38.000    22020835.353    90171750.125         725.450          38.000  
G12  22718870.219   119388425.958        1474.725          34.000    22718880.873    93029916.275        1148.633          33.000  
G24  21857053.266   114859641.512       -3064.549          36.000    21857063.841    89501184.550       -2387.828          37.000  
G10  21397486.407   112444676.862        2632.707          40.000    21397493.065    87619555.218        2050.892          38.000  
G15  23676156.188   124419017.051       -1950.492          32.000    23676173.964    96949943.887       -1519.639          34.000  
G25  22011064.595   115668884.571        2716.090          34.000    22011075.331    90131606.153        2116.431          36.000  
G28  22203059.456   116677844.692        3156.348          34.000    22203069.781    90917811.453        2459.292          38.000  
G18  21127145.754   111024100.898       -2693.615          37.000    21127151.427    86512413.229       -2098.794          39.000  
G23  19787999.140   103986922.830         564.299          40.000    19788003.149    81028978.210         439.714          42.000  
> 2025 04 20 15 08 36.9980000  0  9                     
G32  22020648.766   115719392.772         931.009          39.000    22020658.112    90171024.634         725.492          38.000  
G12  22718589.686   119386951.502        1474.561          34.000    22718600.306    93028767.347        1148.912          33.000  
G24  21857636.405   114862705.705       -3064.281          36.000    21857646.931    89503572.261       -2388.016          37.000  
G10  21396985.436   112442044.077        2632.803          40.000    21396992.025    87617503.666        2051.659          38.000  
G15  23676527.405   124420967.064       -1949.715          32.000    23676545.067    96951463.357       -1519.214          34.000  
G25  22010547.815   115666168.332        2716.652          35.000    22010558.388    90129489.602        2116.799          36.000  
G28  22202458.806   116674688.643        3155.886          34.000    22202469.250    90915352.201        2459.080          39.000  
G18  21127658.317   111026794.499       -2693.604          37.000    21127663.858    86514512.146       -2098.990          39.000  
G23  19787891.730   103986358.576         564.308          40.000    19787895.829    81028538.548         439.476          42.000  
> 2025 04 20 15 08 37.9980000  0  9                     
G32  22020471.486   115718461.730         931.017          39.000    22020480.996    90170299.142         725.624          38.000  
G12  22718309.147   119385477.368        1474.079          34.000    22718319.750    93027618.657        1148.573          33.000  
G24  21858219.601   114865770.112       -3064.365          36.000    21858230.159    89505960.092       -2387.621          37.000  
G10  21396484.438   112439411.341        2632.913          40.000    21396491.078    87615452.193        2051.300          38.000  
G15  23676898.591   124422916.942       -1949.932          32.000    23676916.211    96952982.797       -1520.111          34.000  
G25  22010030.922   115663452.234        2715.735          35.000    22010041.498    90127373.132        2116.412          36.000  
G28  22201858.466   116671532.891        3155.124          34.000    22201868.747    90912893.150        2458.934          39.000  
G18  21128170.897   111029488.388       -2693.789          37.000    21128176.527    86516611.284       -2099.204          40.000  
G23  19787784.448   103985794.698         563.738          40.000    19787788.454    81028099.148         439.282          42.000  
> 2025 04 20 15 08 38.9980000  0  9                     
G32  22020294.329   115717530.832         930.430          39.000    22020303.759    90169573.777         725.189          38.000  
G12  22718028.711   119384003.647        1473.391          34.000    22718039.235    93026470.304        1148.090          33.000  
G24  21858802.784   114868834.857       -3065.179          35.000    21858813.386    89508348.193       -2388.278          37.000  
G10  21395983.430   112436778.748        2632.366          40.000    21395990.165    87613400.819        2051.206          38.000  
G15  23677269.638   124424866.928       -1950.157          32.000    23677287.292    96954502.179       -1519.119          34.000  
G25  22009514.077   115660736.324        2715.404          35.000    22009524.652    90125256.840        2116.422          36.000  
G28  22201257.901   116668377.518        3154.726          34.000    22201268.319    90910434.432        2458.658          39.000  
G18  21128683.639   111032182.739       -2695.064          37.000    21128689.214    86518710.764       -2099.594          40.000  
G23  19787677.191   103985231.273         563.252          40.000    19787681.303    81027660.137         438.504          42.000  
> 2025 04 20 15 08 39.9980000  0  9                     
G32  22020117.195   115716600.076         931.124          39.000    22020126.571    90168848.532         725.102          38.000  
G12  22717748.365   119382530.391        1473.076          34.000    22717758.876    93025322.296        1148.106          33.000  
G24  21859386.066   114871899.919       -3065.193          35.000    21859396.744    89510736.560       -2388.694          37.000  
G10  21395482.527   112434146.334        2632.239          40.000    21395489.258    87611349.582        2051.263          38.000  
G15  23677640.711   124426816.896       -1950.144          32.000    23677658.357    96956021.685       -1519.820          34.000  
G25  22008997.164   115658020.646        2715.363          34.000    22009007.873    90123140.733        2115.986          36.000  
G28  22200657.461   116665222.558        3154.492          34.000    22200667.899    90907976.041        2458.408          39.000  
G18  21129196.440   111034877.491       -2694.911          37.000    21129201.974    86520810.579       -2099.798          40.000  
G23  19787569.955   103984668.342         562.965          40.000    19787574.192    81027221.483         438.526          42.000  
> 2025 04 20 15 08 40.9980000  0  9                     
G32  22019940.118   115715669.381         930.407          39.000    22019949.532    90168123.293         725.462          38.000  
G12  22717468.115   119381057.409        1473.074          34.000    22717478.605    93024174.533        1147.359          33.000  
G24  21859969.289   114874965.115       -3065.162          35.000    21859980.018    89513125.014       -2388.440          37.000  
G10  21394981.641   112431513.913        2632.692          40.000    21394988.302    87609298.369        2051.167          38.000  
G15  23678011.567   124428766.733       -1949.463          31.000    23678029.423    96957541.043       -1519.578          34.000  
G25  22008480.379   115655305.054        2714.893          34.000    22008491.073    90121024.671        2116.402          36.000  
G28  22200057.147   116662067.880        3154.265          34.000    22200067.533    90905517.844        2458.281          39.000  
G18  21129709.275   111037572.578       -2695.448          37.000    21129714.799    86522910.621       -2099.981          40.000  
G23  19787462.999   103984105.756         562.463          40.000    19787467.169    81026783.092         438.393          42.000  
> 2025 04 20 15 08 41.9980000  0  9                     
G32  22019763.007   115714738.725         930.331          39.000    22019772.429    90167398.103         725.300          38.000  
G12  22717187.800   119379584.825        1472.445          34.000    22717198.397    93023027.089        1147.179          33.000  
G24  21860552.619   114878030.580       -3065.586          35.000    21860563.325    89515513.699       -2389.256          37.000  
G10  21394480.716   112428881.597        2632.387          40.000    21394487.473    87607247.208        2051.136          38.000  
G15  23678382.528   124430716.608       -1950.016          31.000    23678400.474    96959060.383       -1519.515          34.000  
G25  22007963.585   115652589.590        2715.103          34.000    22007974.363    90118908.757        2115.918          36.000  
G28  22199456.763   116658913.515        3154.039          34.000    22199467.201    90903059.916        2457.756          39.000  
G18  21130222.200   111040267.996       -2695.656          37.000    21130227.792    86525010.952       -2100.405          40.000  
G23  19787356.006   103983543.568         562.036          40.000    19787360.181    81026345.032         437.766          42.000  
> 2025 04 20 15 08 42.9980000  0  9                     
G32  22019585.821   115713808.136         930.616          38.000    22019595.302    90166672.999         725.026          38.000  
G12  22716907.574   119378112.602        1472.413          34.000    22716918.168    93021879.891        1147.035          33.000  
G24  21861136.011   114881096.293       -3065.684          35.000    21861146.753    89517902.540       -2388.883          37.000  
G10  21393979.767   112426249.385        2632.233          40.000    21393986.599    87605196.120        2051.275          38.000  
G15  23678753.332   124432666.412       -1949.490          31.000    23678771.612    96960579.716       -1519.605          34.000  
G25  22007446.849   115649874.292        2715.314          34.000    22007457.682    90116792.946        2115.682          36.000  
G28  22198856.527   116655759.493        3153.898          34.000    22198867.110    90900602.259        2457.200          39.000  
G18  21130735.252   111042963.781       -2695.781          37.000    21130740.704    86527111.570       -2100.725          40.000  
G23  19787249.118   103982981.800         561.454          40.000    19787253.282    81025907.295         437.400          42.000  
> 2025 04 20 15 08 43.9980000  0  9                     
G32  22019408.825   115712877.752         930.300          38.000    22019418.174    90165948.005         725.165          39.000  
G12  22716627.487   119376640.866        1471.953          34.000    22716638.025    93020733.083        1146.806          33.000  
G24  21861719.570   114884162.344       -3066.123          35.000    21861730.185    89520291.662       -2389.142          37.000  
G10  21393478.884   112423617.326        2632.292          40.000    21393485.794    87603145.185        2051.078          38.000  
G15  23679124.205   124434616.235       -1950.002          31.000    23679142.734    96962099.071       -1519.794          34.000  
G25  22006930.084   115647159.239        2715.358          34.000    22006941.043    90114677.313        2115.876          36.000  
G28  22198256.401   116652605.893        3153.876          34.000    22198267.034    90898144.891        2457.759          39.000  
G18  21131248.239   111045660.025       -2696.477          37.000    21131253.804    86529212.530       -2100.999          40.000  
G23  19787142.358   103982420.534         560.936          40.000    19787146.410    81025469.922         437.428          42.000  
> 2025 04 20 15 08 44.9980000  0  9                     
G32  22019231.775   115711947.411         930.081          38.000    22019241.221    90165223.087         724.880          39.000  
G12  22716347.599   119375169.476        1471.612          34.000    22716358.082    93019586.541        1146.798          33.000  
G24  21862303.014   114887228.633       -3066.670          36.000    21862313.705    89522680.962       -2389.293          37.000  
G10  21392978.046   112420985.392        2631.890          40.000    21392984.927    87601094.299        2051.338          38.000  
G15  23679495.075   124436566.094       -1950.503          32.000    23679513.752    96963618.380       -1519.360          34.000  
G25  22006413.545   115644444.348        2714.535          34.000    22006424.418    90112561.830        2114.929          36.000  
G28  22197656.177   116649452.614        3153.517          34.000    22197666.929    90895687.833        2457.128          39.000  
G18  21131761.303   111048356.595       -2696.206          37.000    21131766.972    86531313.786       -2101.402          40.000  
G23  19787035.589   103981859.652         560.706          40.000    19787039.705    81025032.896         436.587          42.000  
> 2025 04 20 15 08 45.9980000  0  9                     
G32  22019054.683   115711017.065         930.338          38.000    22019064.167    90164498.133         725.216          39.000  
G12  22716067.804   119373698.363        1471.566          34.000    22716078.218    93018440.236        1146.310          33.000  
G24  21862886.648   114890295.033       -3066.692          35.000    21862897.240    89525070.388       -2389.449          38.000  
G10  21392477.225   112418353.415        2631.901          40.000    21392484.007    87599043.430        2051.068          38.000  
G15  23679865.884   124438515.721       -1949.432          32.000    23679884.868    96965137.580       -1519.198          34.000  
G25  22005896.838   115641729.464        2715.275          34.000    22005907.916    90110446.348        2115.467          36.000  
G28  22197056.230   116646299.593        3153.513          34.000    22197066.941    90893230.945        2456.545          39.000  
G18  21132274.573   111051053.473       -2696.852          37.000    21132280.208    86533415.231       -2101.844          40.000  
G23  19786928.891   103981299.083         560.448          40.000    19786932.989    81024596.088         436.780          42.000  
> 2025 04 20 15 08 46.9980000  0  9                     
G32  22018877.663   115710086.861         930.201          38.000    22018887.186    90163773.324         724.522          39.000  
G12  22715787.912   119372227.730        1470.180          34.000    22715798.375    93017294.299        1145.070          33.000  
G24  21863470.232   114893361.792       -3067.134          35.000    21863480.917    89527460.051       -2389.897          38.000  
G10  21391976.361   112415721.597        2631.641          40.000    21391983.187    87596992.694        2050.481          38.000  
G15  23680236.878   124440465.452       -1949.479          32.000    23680255.896    96966656.823       -1519.090          34.000  
G25  22005380.218   115639014.870        2714.372          34.000    22005391.334    90108331.055        2115.253          36.000  
G28  22196456.171   116643146.984        3152.963          34.000    22196467.034    90890774.346        2456.383          38.000  
G18  21132787.804   111053750.772       -2697.581          37.000    21132793.457    86535517.016       -2101.993          39.000  
G23  19786822.247   103980739.013         559.821          40.000    19786826.429    81024159.666         436.137          42.000  
> 2025 04 20 15 08 47.9980000  0  9                     
G32  22018700.738   115709156.803         930.081          38.000    22018710.223    90163048.605         724.597          39.000  
G12  22715508.066   119370757.532        1469.757          34.000    22715518.570    93016148.652        1145.497          33.000  
G24  21864053.858   114896428.875       -3067.883          35.000    21864064.622    89529849.988       -2390.381          38.000  
G10  21391475.507   112413089.972        2631.564          40.000    21391482.321    87594942.088        2050.229          38.000  
G15  23680608.077   124442415.200       -1949.631          32.000    23680626.994    96968176.116       -1519.763          34.000  
G25  22004863.765   115636300.474        2714.476          34.000    22004874.767    90106215.922        2115.232          36.000  
G28  22195856.510   116639994.799        3151.706          34.000    22195867.185    90888318.087        2456.240          38.000  
G18  21133301.227   111056448.504       -2697.766          37.000    21133306.720    86537619.148       -2102.349          40.000  
G23  19786715.872   103980179.409         559.485          40.000    19786719.957    81023723.619         435.845          42.000  
> 2025 04 20 15 08 48.9980000  0  9                     
G32  22018523.755   115708226.924         929.610          38.000    22018533.257    90162324.021         724.521          38.000  
G12  22715228.451   119369287.722        1469.854          34.000    22715238.832    93015003.391        1145.151          33.000  
G24  21864637.486   114899496.211       -3067.635          35.000    21864648.291    89532240.121       -2389.980          38.000  
G10  21390974.711   112410458.486        2631.331          40.000    21390981.624    87592891.555        2050.530          38.000  
G15  23680979.121   124444364.996       -1950.447          32.000    23680998.109    96969695.399       -1519.593          34.000  
G25  22004347.286   115633586.280        2714.036          34.000    22004358.234    90104100.982        2114.970          36.000  
G28  22195256.718   116636842.980        3151.940          34.000    22195267.398    90885862.134        2455.853          39.000  
G18  21133814.736   111059146.667       -2698.545          37.000    21133820.085    86539721.589       -2102.540          40.000  
G23  19786609.397   103979620.284         559.083          40.000    19786613.533    81023287.932         435.535          42.000  
> 2025 04 20 15 08 49.9980000  0  9                     
G32  22018346.823   115707297.093         929.532          38.000    22018356.262    90161599.480         724.473          38.000  
G12  22714948.885   119367818.322        1469.578          34.000    22714959.151    93013858.392        1144.957          33.000  
G24  21865221.085   114902563.858       -3068.010          36.000    21865232.049    89534630.488       -2390.505          38.000  
G10  21390474.012   112407827.104        2631.366          40.000    21390480.915    87590841.142        2050.295          38.000  
G15  23681350.198   124446314.687       -1949.865          32.000    23681369.109    96971214.647       -1519.190          34.000  
G25  22003830.826   115630872.270        2713.807          34.000    22003841.797    90101986.158        2114.671          36.000  
G28  22194656.984   116633691.534        3150.987          34.000    22194667.653    90883406.484        2455.052          39.000  
G18  21134328.329   111061845.204       -2699.013          37.000    21134333.688    86541824.337       -2102.775          40.000  
G23  19786503.157   103979061.598         558.217          40.000    19786507.163    81022852.581         435.173          42.000  
> 2025 04 20 15 08 50.9980000  0  9                     
G32  22018169.939   115706367.257         930.003          38.000    22018179.351    90160874.945         724.738          39.000  
G12  22714669.376   119366349.169        1469.334          34.000    22714679.494    93012713.625        1144.537          33.000  
G24  21865804.967   114905631.646       -3068.326          35.000    21865815.949    89537020.951       -2390.446          37.000  
G10  21389973.277   112405195.711        2631.430          40.000    21389980.119    87588790.693        2050.604          38.000  
G15  23681721.267   124448264.282       -1949.305          33.000    23681740.121    96972733.819       -1519.138          34.000  
G25  22003314.300   115628158.333        2712.925          34.000    22003325.280    90099871.390        2114.840          36.000  
G28  22194057.480   116630540.310        3151.168          34.000    22194068.063    90880950.964        2455.744          39.000  
G18  21134841.988   111064543.962       -2698.742          37.000    21134847.148    86543927.281       -2102.857          40.000  
G23  19786396.818   103978503.195         558.049          40.000    19786400.873    81022417.463         435.158          42.000  
> 2025 04 20 15 08 51.9980000  0  9                     
G32  22017992.997   115705437.430         929.647          38.000    22018002.354    90160150.398         724.654          38.000  
G12  22714389.859   119364880.359        1468.157          35.000    22714399.955    93011569.059        1144.203          33.000  
G24  21866388.759   114908699.585       -3068.417          35.000    21866399.722    89539411.549       -2390.577          37.000  
G10  21389472.469   112402564.345        2631.155          40.000    21389479.354    87586740.288        2050.145          38.000  
G15  23682092.317   124450213.786       -1949.515          33.000    23682111.138    96974252.888       -1518.888          34.000  
G25  22002797.882   115625444.432        2713.381          34.000    22002808.870    90097756.675        2114.628          36.000  
G28  22193457.885   116627389.352        3150.538          34.000    22193468.516    90878495.672        2455.419          39.000  
G18  21135355.616   111067243.051       -2699.549          37.000    21135360.789    86546030.476       -2103.540          40.000  
G23  19786290.630   103977945.132         558.022          40.000    19786294.620    81021982.625         434.472          42.000  
> 2025 04 20 15 08 52.9980000  0  9                     
G32  22017816.043   115704507.774         929.667          38.000    22017825.486    90159426.010         723.996          38.000  
G12  22714110.358   119363411.995        1468.333          34.000    22714120.470    93010424.892        1144.174          33.000  
G24  21866972.601   114911767.839       -3068.527          35.000    21866983.571    89541802.418       -2391.079          37.000  
G10  21388971.777   112399933.158        2631.011          40.000    21388978.684    87584690.007        2050.220          38.000  
G15  23682463.453   124452163.345       -1949.554          33.000    23682482.130    96975772.041       -1519.410          34.000  
G25  22002281.501   115622730.732        2714.280          34.000    22002292.410    90095642.159        2114.219          36.000  
G28  22192858.525   116624238.823        3150.077          34.000    22192869.025    90876040.723        2455.046          39.000  
G18  21135869.399   111069942.576       -2699.598          37.000    21135874.560    86548133.991       -2103.688          40.000  
G23  19786184.621   103977387.584         557.339          40.000    19786188.578    81021548.158         434.367          42.000  
> 2025 04 20 15 08 53.9980000  0  9                     
G32  22017639.076   115703578.138         929.438          38.000    22017648.621    90158701.621         724.366          38.000  
G12  22713830.892   119361943.937        1467.885          35.000    22713841.176    93009280.980        1143.565          33.000  
G24  21867556.565   114914836.294       -3068.599          36.000    21867567.573    89544193.414       -2391.081          37.000  
G10  21388471.004   112397301.983        2631.283          40.000    21388478.031    87582639.757        2049.996          38.000  
G15  23682834.636   124454112.790       -1949.720          33.000    23682853.138    96977291.076       -1519.502          34.000  
G25  22001765.138   115620017.187        2713.927          34.000    22001776.126    90093527.704        2114.282          36.000  
G28  22192258.964   116621088.544        3150.354          34.000    22192269.528    90873586.001        2454.446          39.000  
G18  21136383.168   111072642.392       -2699.607          37.000    21136388.289    86550237.763       -2104.112          40.000  
G23  19786078.580   103976830.366         557.031          40.000    19786082.580    81021113.959         434.258          42.000  
> 2025 04 20 15 08 54.9980000  0  9                     
G32  22017462.266   115702648.524         929.167          38.000    22017471.728    90157977.244         724.241          38.000  
G12  22713551.684   119360476.244        1467.139          34.000    22713561.820    93008137.283        1143.299          33.000  
G24  21868140.573   114917904.979       -3069.183          36.000    21868151.481    89546584.594       -2391.547          37.000  
G10  21387970.386   112394670.896        2630.708          40.000    21387977.330    87580589.552        2049.815          38.000  
G15  23683205.628   124456062.168       -1949.343          33.000    23683224.108    96978810.064       -1519.355          33.000  
G25  22001248.857   115617303.779        2713.174          34.000    22001259.777    90091413.375        2113.392          36.000  
G28  22191659.505   116617938.628        3149.308          34.000    22191670.042    90871131.488        2454.237          39.000  
G18  21136897.007   111075342.578       -2701.031          37.000    21136902.047    86552341.772       -2104.358          40.000  
G23  19785972.711   103976273.552         556.218          40.000    19785976.571    81020680.081         433.522          42.000  
> 2025 04 20 15 08 55.9980000  0  9                     
G32  22017285.387   115701719.087         929.538          38.000    22017294.902    90157253.026         724.164          38.000  
G12  22713272.460   119359008.989        1467.026          35.000    22713282.654    93006993.989        1142.844          33.000  
G24  21868724.547   114920973.992       -3069.448          36.000    21868735.532    89548976.020       -2391.401          37.000  
G10  21387469.725   112392039.964        2631.082          40.000    21387476.675    87578539.494        2050.009          38.000  
G15  23683576.698   124458011.607       -1949.307          33.000    23683595.024    96980329.118       -1519.622          33.000  
G25  22000732.355   115614590.614        2713.350          34.000    22000743.440    90089299.180        2113.965          36.000  
G28  22191060.142   116614789.066        3149.649          34.000    22191070.673    90868677.340        2453.553          39.000  
G18  21137410.802   111078043.146       -2700.323          37.000    21137415.891    86554446.138       -2104.295          40.000  
G23  19785866.753   103975717.218         556.192          40.000    19785870.695    81020246.594         433.136          42.000  
> 2025 04 20 15 08 56.9980000  0  9                     
G32  22017108.352   115700789.891         929.305          38.000    22017118.093    90156528.993         723.766          38.000  
G12  22712993.428   119357542.263        1466.479          35.000    22713003.567    93005851.086        1143.027          33.000  
G24  21869308.711   114924043.350       -3069.323          36.000    21869319.620    89551367.772       -2392.233          37.000  
G10  21386969.225   112389409.298        2630.382          40.000    21386976.233    87576489.616        2049.757          38.000  
G15  23683947.747   124459961.151       -1949.780          33.000    23683966.113    96981848.217       -1519.442          34.000  
G25  22000216.041   115611877.710        2712.887          34.000    22000227.222    90087185.238        2113.881          36.000  
G28  22190461.020   116611640.009        3149.167          34.000    22190471.464    90866223.520        2453.730          39.000  
G18  21137924.837   111080744.260       -2700.992          37.000    21137929.925    86556550.895       -2105.157          40.000  
G23  19785760.949   103975161.440         555.349          40.000    19785764.925    81019813.519         432.752          42.000  
> 2025 04 20 15 08 57.9980000  0  9                     
G32  22016931.532   115699860.783         928.798          38.000    22016941.293    90155804.975         724.156          38.000  
G12  22712714.346   119356075.900        1466.887          35.000    22712724.636    93004708.495        1142.308          33.000  
G24  21869892.739   114927113.006       -3069.811          36.000    21869903.763    89553759.690       -2391.950          37.000  
G10  21386468.555   112386778.712        2630.239          40.000    21386475.635    87574439.818        2049.744          38.000  
G15  23684318.945   124461910.691       -1949.852          33.000    23684337.204    96983367.284       -1518.192          34.000  
G25  21999699.767   115609165.012        2712.578          34.000    21999711.066    90085071.441        2113.465          36.000  
G28  22189861.890   116608491.331        3148.520          34.000    22189872.354    90863769.997        2453.544          39.000  
G18  21138438.898   111083445.777       -2702.112          37.000    21138444.016    86558655.951       -2105.419          40.000  
G23  19785655.116   103974606.097         554.952          40.000    19785659.297    81019380.778         432.531          42.000  
> 2025 04 20 15 08 58.9980000  0  9                     
G32  22016754.903   115698931.719         929.070          38.000    22016764.433    90155081.061         723.875          38.000  
G12  22712435.381   119354609.938        1465.742          35.000    22712445.734    93003566.184        1142.239          33.000  
G24  21870476.839   114930182.895       -3070.090          36.000    21870487.864    89556151.797       -2392.000          37.000  
G10  21385967.920   112384148.204        2630.172          40.000    21385974.964    87572390.065        2049.694          38.000  
G15  23684689.878   124463860.134       -1949.700          33.000    23684708.187    96984886.390       -1519.403          34.000  
G25  21999183.513   115606452.441        2712.662          34.000    21999194.859    90082957.730        2113.821          36.000  
G28  22189262.793   116605342.995        3147.537          34.000    22189273.200    90861316.737        2452.807          39.000  
G18  21138952.996   111086147.608       -2702.369          37.000    21138958.123    86560761.251       -2105.079          39.000  
G23  19785549.376   103974051.137         554.474          40.000    19785553.808    81018948.345         432.175          42.000  
> 2025 04 20 15 08 59.9980000  0  9                     
G32  22016578.030   115698002.705         929.297          38.000    22016587.643    90154357.156         724.157          38.000  
G12  22712156.416   119353144.287        1465.925          34.000    22712166.891    93002424.094        1142.669          33.000  
G24  21871061.002   114933252.996       -3070.549          36.000    21871072.142    89558544.078       -2392.619          37.000  
G10  21385467.400   112381517.742        2630.784          40.000    21385474.372    87570340.382        2049.682          38.000  
G15  23685060.951   124465809.513       -1948.789          33.000    23685079.186    96986405.361       -1518.584          34.000  
G25  21998667.362   115603739.983        2712.561          34.000    21998678.736    90080844.136        2113.548          36.000  
G28  22188663.556   116602194.883        3147.934          34.000    22188674.136    90858863.698        2453.030          39.000  
G18  21139467.216   111088849.731       -2701.759          37.000    21139472.359    86562866.847       -2105.770          39.000  
G23  19785443.803   103973496.545         554.721          40.000    19785448.311    81018516.200         432.191          42.000  
> 2025 04 20 15 09 00.9980000  0  9                     
G32  22016401.197   115697073.735         929.011          38.000    22016410.772    90153633.280         723.896          38.000  
G12  22711877.495   119351679.004        1464.827          35.000    22711887.975    93001282.354        1141.232          33.000  
G24  21871645.270   114936323.243       -3070.397          36.000    21871656.301    89560936.500       -2392.367          37.000  
G10  21384966.876   112378887.348        2630.392          40.000    21384973.795    87568290.704        2049.757          38.000  
G15  23685431.929   124467758.848       -1949.322          33.000    23685450.155    96987924.314       -1518.904          34.000  
G25  21998151.191   115601027.653        2712.088          34.000    21998162.711    90078730.657        2113.213          36.000  
G28  22188064.473   116599047.091        3147.603          34.000    22188075.047    90856410.887        2452.662          39.000  
G18  21139981.512   111091552.217       -2702.794          37.000    21139986.678    86564972.648       -2105.791          39.000  
G23  19785338.381   103972942.335         554.059          41.000    19785342.913    81018084.349         431.730          42.000  
> 2025 04 20 15 09 01.9980000  0  9                     
G32  22016224.543   115696144.832         928.843          38.000    22016233.969    90152909.469         723.671          38.000  
G12  22711598.738   119350214.047        1464.706          34.000    22711609.153    93000140.812        1141.552          33.000  
G24  21872229.532   114939393.759       -3070.363          35.000    21872240.606    89563329.114       -2392.983          37.000  
G10  21384466.312   112376257.026        2630.142          40.000    21384473.308    87566241.138        2049.131          38.000  
G15  23685802.749   124469708.109       -1949.001          33.000    23685821.134    96989443.217       -1518.977          34.000  
G25  21997635.084   115598315.445        2711.874          34.000    21997646.613    90076617.218        2113.423          36.000  
G28  22187465.485   116595899.650        3147.067          34.000    22187476.078    90853958.337        2451.782          39.000  
G18  21140495.819   111094255.026       -2703.168          37.000    21140501.096    86567078.738       -2105.993          39.000  
G23  19785232.963   103972388.515         553.555          40.000    19785237.432    81017652.806         431.301          42.000  
