     3.04           OBSERVATION DATA    G: GPS              RINEX VERSION / TYPE
RTKCONV demo5 b34i                      20250516 060559 UTC PGM / RUN BY / DATE 
format: u-blox UBX                                          COMMENT             
log: D:\20242\NGUYENDS\GNSS_DOA_Spoofing\hai\ngoc\2025-04-20COMMENT             
                                                            MARKER NAME         
                                                            MARKER NUMBER       
                                                            MARKER TYPE         
                                                            OBSERVER / AGENCY   
                                                            REC # / TYPE / VERS 
                                                            ANT # / TYPE        
 -1626589.1475  5730542.1456  2271877.0149                  APPROX POSITION XYZ 
        0.0000        0.0000        0.0000                  ANTENNA: DELTA H/E/N
G    8 C1C L1C D1C S1C C2X L2X D2X S2X                      SYS / # / OBS TYPES 
  2025    04    20    15    07   33.9990000     GPS         TIME OF FIRST OBS   
  2025    04    20    15    09   01.9990000     GPS         TIME OF LAST OBS    
G L1C                                                       SYS / PHASE SHIFT   
G L2X  0.00000                                              SYS / PHASE SHIFT   
  0                                                         GLONASS SLOT / FRQ #
                                                            GLONASS COD/PHS/BIS 
                                                            END OF HEADER       
> 2025 04 20 15 07 33.9990000  0  9                     
G32  22291811.922   117144378.0001        819.772          44.000    22291820.246    91281413.6511        638.372          41.000  
G10  21688551.064   113974264.7851       2521.886          46.000    21688557.591    88811155.4471       1965.077          42.000  
G12  22996374.276   120846657.3951       1381.070          38.000    22996383.926    94166307.4101       1075.762          37.000  
G25  22303136.777   117203713.7131       2609.194          38.000    22303147.146    91327721.6211       2033.114          37.000  
G28  22500393.896   118240323.1001       3060.291          40.000    22500400.618    92135325.4061       2384.811          40.000  
G23  20054776.544   105388854.9481        473.230          46.000    20054781.152    82121373.0681        368.837          48.000  
G24  22080962.377   116036303.4571      -3165.307          39.000    22080971.457    90418055.7611      -2466.502          39.000  
G15  23913105.019   125664231.6951      -2068.947          34.000    23913122.277    97920260.6601      -1611.453          33.000  
G18  21355472.641   112223964.4851      -2787.024          43.000    21355478.317    87447396.5631      -2171.648          44.000  
> 2025 04 20 15 07 34.9990000  0  9                     
G32  22291655.995   117143558.478         819.219          44.000    22291664.270    91280775.052         638.563          41.000  
G10  21688071.198   113971743.117        2521.495          46.000    21688077.847    88809190.498        1964.945          42.000  
G12  22996111.476   120845276.551        1380.912          38.000    22996121.130    94165231.462        1075.368          37.000  
G25  22302640.299   117201104.818        2608.797          38.000    22302650.657    91325688.731        2032.615          37.000  
G28  22499811.545   118237262.913        3059.838          40.000    22499818.300    92132940.858        2384.278          40.000  
G23  20054686.544   105388382.010         472.560          46.000    20054691.134    82121004.537         368.362          48.000  
G24  22081564.771   116039468.772       -3165.856          39.000    22081573.750    90420522.224       -2466.618          39.000  
G15  23913498.660   125666300.556       -2068.908          34.000    23913515.699    97921872.746       -1611.799          32.000  
G18  21356003.137   112226751.892       -2787.711          43.000    21356008.695    87449568.563       -2172.045          44.000  
> 2025 04 20 15 07 35.9990000  0  9                     
G32  22291500.068   117142739.041         819.450          44.000    22291508.369    91280136.538         638.371          41.000  
G10  21687591.354   113969221.534        2521.519          46.000    21687597.993    88807225.628        1965.005          42.000  
G12  22995848.825   120843896.102        1380.314          38.000    22995858.489    94164155.773        1075.218          37.000  
G25  22302143.815   117198496.087        2608.584          38.000    22302154.268    91323655.947        2032.790          37.000  
G28  22499229.214   118234203.088        3059.558          40.000    22499235.986    92130556.571        2384.247          40.000  
G23  20054596.507   105387909.474         472.364          46.000    20054601.215    82120636.342         367.954          48.000  
G24  22082167.249   116042634.342       -3166.049          39.000    22082176.174    90422988.890       -2466.592          39.000  
G15  23913892.091   125668369.372       -2068.676          34.000    23913909.081    97923484.842       -1611.984          33.000  
G18  21356533.483   112229539.689       -2787.925          43.000    21356539.204    87451740.875       -2172.516          44.000  
> 2025 04 20 15 07 36.9990000  0  9                     
G32  22291344.182   117141919.729         819.228          44.000    22291352.485    91279498.120         638.188          41.000  
G10  21687111.558   113966700.088        2521.173          46.000    21687118.189    88805260.857        1964.954          42.000  
G12  22995586.235   120842516.051        1380.049          38.000    22995595.777    94163080.409        1075.099          37.000  
G25  22301647.361   117195887.527        2608.406          38.000    22301657.730    91321623.318        2032.217          37.000  
G28  22498647.012   118231143.613        3059.432          40.000    22498653.828    92128172.574        2383.816          40.000  
G23  20054506.632   105387437.387         471.821          46.000    20054511.407    82120268.478         367.734          48.000  
G24  22082769.639   116045800.193       -3166.193          39.000    22082778.650    90425455.803       -2467.120          39.000  
G15  23914285.514   125670438.185       -2068.248          34.000    23914302.631    97925096.908       -1612.157          33.000  
G18  21357064.060   112232327.889       -2788.520          43.000    21357069.904    87453913.490       -2172.735          44.000  
> 2025 04 20 15 07 37.9990000  0  9                     
G32  22291188.137   117141100.544         818.993          44.000    22291196.689    91278859.799         638.167          41.000  
G10  21686631.769   113964178.738        2521.187          46.000    21686638.340    88803296.204        1964.387          42.000  
G12  22995323.624   120841136.409        1379.455          38.000    22995333.205    94162005.361        1074.661          37.000  
G25  22301150.971   117193279.165        2608.116          39.000    22301161.432    91319590.821        2032.283          37.000  
G28  22498064.855   118228084.487        3059.161          40.000    22498071.733    92125788.870        2383.476          41.000  
G23  20054416.992   105386965.751         471.289          46.000    20054421.732    82119900.977         367.201          48.000  
G24  22083372.094   116048966.294       -3166.001          39.000    22083381.059    90427922.934       -2467.450          39.000  
G15  23914679.015   125672507.022       -2068.277          34.000    23914696.402    97926708.971       -1612.062          33.000  
G18  21357594.830   112235116.491       -2788.763          43.000    21357600.555    87456086.430       -2173.100          44.000  
> 2025 04 20 15 07 38.9990000  0  9                     
G32  22291032.278   117140281.514         818.675          44.000    22291040.730    91278221.593         637.852          41.000  
G10  21686152.023   113961657.579        2520.915          46.000    21686158.630    88801331.668        1964.087          42.000  
G12  22995061.221   120839757.209        1378.679          38.000    22995070.784    94160930.663        1074.048          37.000  
G25  22300654.655   117190671.016        2607.730          39.000    22300665.112    91317558.508        2031.816          37.000  
G28  22497482.795   118225025.832        3058.164          40.000    22497489.646    92123405.484        2383.064          41.000  
G23  20054327.382   105386494.593         470.823          46.000    20054332.072    82119533.838         366.848          48.000  
G24  22083974.689   116052132.841       -3167.020          39.000    22083983.684    90430390.304       -2467.541          39.000  
G15  23915072.761   125674575.913       -2069.280          34.000    23915090.192    97928321.094       -1612.481          33.000  
G18  21358125.550   112237905.549       -2789.306          43.000    21358131.283    87458259.729       -2173.685          44.000  
> 2025 04 20 15 07 39.9990000  0  9                     
G32  22290876.372   117139462.631         818.957          44.000    22290884.865    91277583.503         638.229          41.000  
G10  21685672.294   113959136.565        2521.271          46.000    21685678.965    88799367.238        1964.428          42.000  
G12  22994798.827   120838378.446        1378.650          38.000    22994808.517    94159856.288        1074.548          37.000  
G25  22300158.521   117188063.097        2607.938          38.000    22300168.783    91315526.331        2032.712          37.000  
G28  22496900.785   118221967.537        3058.475          40.000    22496907.621    92121022.404        2382.962          41.000  
G23  20054237.779   105386023.924         470.483          46.000    20054242.498    82119167.086         366.589          48.000  
G24  22084577.308   116055299.624       -3166.821          39.000    22084586.349    90432857.940       -2467.394          39.000  
G15  23915466.483   125676644.835       -2068.765          34.000    23915484.028    97929933.185       -1611.594          33.000  
G18  21358656.390   112240695.067       -2789.706          43.000    21358662.035    87460433.364       -2173.784          44.000  
> 2025 04 20 15 07 40.9990000  0  9                     
G32  22290720.647   117138643.900         818.447          44.000    22290729.118    91276945.538         637.918          41.000  
G10  21685192.599   113956615.721        2520.676          46.000    21685199.278    88797402.940        1964.258          42.000  
G12  22994536.598   120837000.129        1377.871          39.000    22994546.201    94158782.275        1074.047          37.000  
G25  22299662.366   117185455.372        2607.675          39.000    22299672.487    91313494.359        2031.914          37.000  
G28  22496318.840   118218909.665        3057.406          40.000    22496325.823    92118639.631        2382.831          40.000  
G23  20054148.323   105385553.710         469.927          46.000    20054153.141    82118800.684         366.236          48.000  
G24  22085179.987   116058466.765       -3167.408          38.000    22085189.007    90435325.852       -2468.220          39.000  
G15  23915860.169   125678713.781       -2068.888          34.000    23915877.893    97931545.365       -1612.160          33.000  
G18  21359187.249   112243484.993       -2790.245          43.000    21359192.957    87462607.332       -2174.173          44.000  
> 2025 04 20 15 07 41.9990000  0  9                     
G32  22290564.832   117137825.338         818.361          45.000    22290573.321    91276307.692         637.784          41.000  
G10  21684713.037   113954095.033        2520.536          46.000    21684719.633    88795438.767        1964.093          42.000  
G12  22994274.328   120835622.241        1377.561          38.000    22994284.000    94157708.613        1073.260          37.000  
G25  22299166.218   117182847.903        2607.162          39.000    22299176.340    91311462.561        2031.489          37.000  
G28  22495737.092   118215852.187        3057.169          40.000    22495744.024    92116257.200        2382.449          40.000  
G23  20054058.928   105385083.986         469.462          46.000    20054063.720    82118434.669         365.888          48.000  
G24  22085782.733   116061634.204       -3167.619          38.000    22085791.741    90437793.983       -2468.166          39.000  
G15  23916254.020   125680782.763       -2068.931          34.000    23916271.591    97933157.557       -1612.465          33.000  
G18  21359718.140   112246275.380       -2790.752          43.000    21359723.967    87464781.661       -2174.514          44.000  
> 2025 04 20 15 07 42.9990000  0  9                     
G32  22290409.029   117137006.960         818.405          45.000    22290417.527    91275670.009         637.662          41.000  
G10  21684233.385   113951574.542        2520.533          46.000    21684239.927    88793474.755        1963.953          42.000  
G12  22994012.221   120834244.839        1377.253          38.000    22994021.922    94156635.310        1073.005          37.000  
G25  22298670.099   117180240.668        2606.937          39.000    22298680.186    91309430.958        2031.229          37.000  
G28  22495155.330   118212795.166        3056.906          40.000    22495162.279    92113875.110        2382.007          41.000  
G23  20053969.631   105384614.790         469.113          46.000    20053974.392    82118069.060         365.547          48.000  
G24  22086385.511   116064802.039       -3167.686          38.000    22086394.533    90440262.417       -2468.604          39.000  
G15  23916647.720   125682851.823       -2068.484          34.000    23916665.386    97934769.824       -1612.549          33.000  
G18  21360249.189   112249066.241       -2790.860          43.000    21360255.041    87466956.359       -2174.804          44.000  
> 2025 04 20 15 07 43.9990000  0  9                     
G32  22290253.320   117136188.809         817.996          45.000    22290261.906    91275032.495         637.266          41.000  
G10  21683753.726   113949054.262        2520.264          46.000    21683760.410    88791510.895        1963.951          42.000  
G12  22993750.184   120832867.915        1376.921          38.000    22993759.879    94155562.400        1072.523          37.000  
G25  22298174.024   117177633.684        2606.836          39.000    22298184.157    91307399.541        2031.620          37.000  
G28  22494573.680   118209738.588        3056.290          40.000    22494580.536    92111493.358        2381.886          41.000  
G23  20053880.534   105384146.113         468.562          46.000    20053885.206    82117703.857         365.113          48.000  
G24  22086988.411   116067970.228       -3168.135          38.000    22086997.340    90442731.133       -2468.793          39.000  
G15  23917041.577   125684920.985       -2068.977          35.000    23917058.984    97936382.117       -1612.141          33.000  
G18  21360780.343   112251857.606       -2791.548          43.000    21360786.230    87469131.449       -2175.215          44.000  
> 2025 04 20 15 07 44.9990000  0  9                     
G32  22290097.638   117135370.678         817.951          45.000    22290106.313    91274394.993         637.170          41.000  
G10  21683274.121   113946534.031        2520.079          46.000    21683280.792    88789547.092        1963.585          42.000  
G12  22993488.062   120831491.346        1376.199          38.000    22993497.898    94154489.708        1072.798          37.000  
G25  22297677.906   117175026.841        2606.603          39.000    22297688.042    91305368.252        2030.945          37.000  
G28  22493992.083   118206682.299        3056.248          40.000    22493998.939    92109111.870        2381.219          41.000  
G23  20053791.415   105383677.805         468.058          46.000    20053796.008    82117338.948         364.658          48.000  
G24  22087591.312   116071138.672       -3168.654          39.000    22087600.235    90445200.029       -2468.807          39.000  
G15  23917435.515   125686990.047       -2069.168          35.000    23917452.551    97937994.382       -1612.584          33.000  
G18  21361311.617   112254649.300       -2791.973          43.000    21361317.475    87471306.784       -2175.569          44.000  
> 2025 04 20 15 07 45.9990000  0  9                     
G32  22289941.996   117134552.586         817.996          45.000    22289950.600    91273757.516         637.394          41.000  
G10  21682794.510   113944013.818        2520.357          46.000    21682801.039    88787583.291        1963.629          42.000  
G12  22993226.132   120830115.074        1375.972          38.000    22993236.013    94153417.309        1072.432          37.000  
G25  22297181.875   117172420.075        2606.475          39.000    22297192.001    91303336.972        2031.406          37.000  
G28  22493410.502   118203626.293        3056.100          40.000    22493417.503    92106730.569        2381.213          41.000  
G23  20053702.436   105383209.856         467.785          46.000    20053706.997    82116974.306         364.533          48.000  
G24  22088194.291   116074307.273       -3168.918          39.000    22088203.186    90447669.080       -2469.307          39.000  
G15  23917829.177   125689059.032       -2069.081          35.000    23917846.106    97939606.565       -1612.213          33.000  
G18  21361842.920   112257441.297       -2792.025          43.000    21361848.748    87473482.371       -2175.699          44.000  
> 2025 04 20 15 07 46.9990000  0  9                     
G32  22289786.376   117133734.558         817.831          45.000    22289794.904    91273120.098         637.259          41.000  
G10  21682314.893   113941493.703        2519.897          46.000    21682321.571    88785619.554        1963.646          42.000  
G12  22992964.293   120828739.167        1375.623          38.000    22992974.163    94152345.179        1071.938          37.000  
G25  22296685.872   117169813.446        2606.282          39.000    22296695.918    91301305.863        2030.690          37.000  
G28  22492828.991   118200570.641        3055.091          40.000    22492836.055    92104349.536        2380.608          41.000  
G23  20053613.497   105382742.305         467.131          46.000    20053617.880    82116609.984         363.997          48.000  
G24  22088797.305   116077476.131       -3168.983          38.000    22088806.168    90450138.313       -2469.619          39.000  
G15  23918222.833   125691127.968       -2069.222          35.000    23918239.861    97941218.737       -1612.881          33.000  
G18  21362374.297   112260233.674       -2792.690          43.000    21362380.107    87475658.236       -2176.120          44.000  
> 2025 04 20 15 07 47.9990000  0  9                     
G32  22289630.770   117132916.637         818.042          45.000    22289639.267    91272482.772         637.345          41.000  
G10  21681835.297   113938973.684        2520.135          46.000    21681841.948    88783655.904        1963.885          42.000  
G12  22992702.555   120827363.640        1375.648          38.000    22992712.371    94151273.359        1072.124          37.000  
G25  22296189.836   117167206.985        2606.668          39.000    22296199.984    91299274.849        2030.970          37.000  
G28  22492247.567   118197515.326        3055.070          40.000    22492254.587    92101968.765        2380.709          41.000  
G23  20053524.665   105382275.169         467.152          46.000    20053529.034    82116245.981         363.952          48.000  
G24  22089400.393   116080645.267       -3169.289          39.000    22089409.191    90452607.740       -2469.003          38.000  
G15  23918616.547   125693196.872       -2068.734          35.000    23918633.693    97942830.888       -1612.397          33.000  
G18  21362905.683   112263026.430       -2792.855          43.000    21362911.458    87477834.419       -2176.289          44.000  
> 2025 04 20 15 07 48.9990000  0  9                     
G32  22289475.045   117132098.678         817.844          44.000    22289483.611    91271845.400         637.225          41.000  
G10  21681355.770   113936453.624        2519.863          46.000    21681362.476    88781692.229        1963.677          43.000  
G12  22992440.837   120825988.379        1375.065          38.000    22992450.747    94150201.718        1071.434          37.000  
G25  22295693.969   117164600.544        2606.548          39.000    22295704.000    91297243.848        2031.143          37.000  
G28  22491666.184   118194460.190        3055.076          40.000    22491673.219    92099588.176        2380.124          41.000  
G23  20053435.907   105381808.330         466.500          46.000    20053440.165    82115882.202         363.622          48.000  
G24  22090003.462   116083814.506       -3169.420          38.000    22090012.404    90455077.326       -2469.949          38.000  
G15  23919010.309   125695265.631       -2068.620          34.000    23919027.445    97944442.835       -1611.839          33.000  
G18  21363437.181   112265819.430       -2793.170          43.000    21363443.004    87480010.774       -2176.498          44.000  
> 2025 04 20 15 07 49.9990000  0  9                     
G32  22289319.413   117131280.838         817.704          44.000    22289328.124    91271208.121         637.120          41.000  
G10  21680876.271   113933933.702        2519.942          46.000    21680882.959    88779728.662        1963.565          43.000  
G12  22992179.235   120824613.520        1374.574          38.000    22992189.082    94149130.391        1071.090          37.000  
G25  22295198.010   117161994.307        2606.080          38.000    22295208.066    91295213.022        2030.791          37.000  
G28  22491084.805   118191405.465        3054.309          40.000    22491091.907    92097207.854        2380.092          41.000  
G23  20053347.146   105381341.932         466.146          46.000    20053351.492    82115518.781         363.216          48.000  
G24  22090606.640   116086984.080       -3170.007          38.000    22090615.576    90457547.082       -2469.834          38.000  
G15  23919403.754   125697334.397       -2068.678          34.000    23919421.377    97946054.872       -1612.405          33.000  
G18  21363968.805   112268612.849       -2793.655          43.000    21363974.654    87482187.455       -2176.820          44.000  
> 2025 04 20 15 07 50.9990000  0  9                     
G32  22289163.867   117130463.115         817.637          44.000    22289172.508    91270570.929         637.295          41.000  
G10  21680396.728   113931413.903        2519.774          46.000    21680403.355    88777765.176        1963.560          43.000  
G12  22991917.779   120823239.060        1374.324          38.000    22991927.542    94148059.382        1070.817          37.000  
G25  22294702.046   117159388.235        2606.071          39.000    22294712.172    91293182.330        2030.630          37.000  
G28  22490503.576   118188351.063        3054.513          40.000    22490510.731    92094827.823        2379.892          41.000  
G23  20053258.428   105380875.976         465.759          46.000    20053262.896    82115155.700         362.875          48.000  
G24  22091209.915   116090153.906       -3170.048          38.000    22091218.795    90460017.100       -2470.506          38.000  
G15  23919797.371   125699403.189       -2069.084          35.000    23919815.237    97947666.889       -1611.729          33.000  
G18  21364500.480   112271406.668       -2794.159          43.000    21364506.378    87484364.456       -2177.085          44.000  
> 2025 04 20 15 07 51.9990000  0  9                     
G32  22289008.287   117129645.636         817.261          44.000    22289016.936    91269933.953         636.662          41.000  
G10  21679917.265   113928894.341        2519.506          46.000    21679923.816    88775801.883        1963.492          43.000  
G12  22991656.301   120821865.128        1373.732          38.000    22991666.041    94146988.790        1070.441          37.000  
G25  22294206.229   117156782.492        2605.573          39.000    22294216.394    91291151.870        2030.427          37.000  
G28  22489922.489   118185297.194        3053.532          40.000    22489929.568    92092448.175        2379.679          41.000  
G23  20053169.981   105380410.582         465.204          46.000    20053174.333    82114793.059         362.355          48.000  
G24  22091813.159   116093324.139       -3170.152          38.000    22091822.141    90462487.401       -2470.445          38.000  
G15  23920190.997   125701472.055       -2069.136          35.000    23920209.215    97949278.985       -1612.012          33.000  
G18  21365032.180   112274201.001       -2794.509          43.000    21365038.039    87486541.865       -2177.538          44.000  
> 2025 04 20 15 07 52.9990000  0  9                     
G32  22288852.671   117128828.111         817.806          44.000    22288861.305    91269296.928         637.195          41.000  
G10  21679437.883   113926374.746        2519.757          46.000    21679444.332    88773838.571        1963.462          43.000  
G12  22991394.809   120820491.433        1373.715          38.000    22991404.628    94145918.392        1070.242          37.000  
G25  22293710.379   117154176.756        2605.997          39.000    22293720.574    91289121.432        2030.654          37.000  
G28  22489341.406   118182243.540        3053.568          40.000    22489348.498    92090068.695        2379.667          41.000  
G23  20053081.453   105379945.470         465.169          46.000    20053085.791    82114430.639         362.360          48.000  
G24  22092416.477   116096494.496       -3170.187          38.000    22092425.417    90464957.822       -2470.492          39.000  
G15  23920584.665   125703540.775       -2068.795          35.000    23920603.073    97950890.982       -1611.837          33.000  
G18  21365563.915   112276995.593       -2794.635          43.000    21365569.827    87488719.463       -2177.507          44.000  
> 2025 04 20 15 07 53.9990000  0  9                     
G32  22288697.115   117128010.593         817.399          44.000    22288705.655    91268659.899         636.973          41.000  
G10  21678958.442   113923855.152        2519.495          46.000    21678964.891    88771875.259        1963.155          43.000  
G12  22991133.428   120819118.027        1373.066          38.000    22991143.282    94144848.189        1070.324          37.000  
G25  22293214.576   117151571.086        2605.547          39.000    22293224.651    91287091.031        2030.502          37.000  
G28  22488760.308   118179190.087        3053.776          40.000    22488767.396    92087689.423        2379.043          41.000  
G23  20052993.034   105379480.683         464.580          46.000    20052997.317    82114068.463         361.892          48.000  
G24  22093019.899   116099665.045       -3170.881          39.000    22093028.796    90467428.350       -2470.614          39.000  
G15  23920978.322   125705609.368       -2068.450          35.000    23920996.505    97952502.860       -1611.681          33.000  
G18  21366095.740   112279790.463       -2795.139          43.000    21366101.678    87490897.298       -2178.227          44.000  
> 2025 04 20 15 07 54.9990000  0  9                     
G32  22288541.554   117127193.161         817.238          45.000    22288550.047    91268022.947         636.905          41.000  
G10  21678479.002   113921335.681        2519.366          46.000    21678485.427    88769912.029        1963.291          42.000  
G12  22990872.236   120817744.981        1372.987          39.000    22990882.054    94143778.299        1069.993          37.000  
G25  22292718.840   117148965.594        2605.376          39.000    22292728.822    91285060.794        2029.866          37.000  
G28  22488179.275   118176137.047        3052.758          40.000    22488186.359    92085310.408        2379.102          41.000  
G23  20052904.653   105379016.321         464.265          46.000    20052908.996    82113706.630         361.695          48.000  
G24  22093623.285   116102835.860       -3170.882          39.000    22093632.125    90469899.120       -2470.940          39.000  
G15  23921371.895   125707677.966       -2068.720          35.000    23921390.114    97954114.738       -1611.800          34.000  
G18  21366627.652   112282585.712       -2795.211          43.000    21366633.605    87493075.402       -2178.056          44.000  
> 2025 04 20 15 07 55.9990000  0  9                     
G32  22288385.979   117126375.823         817.698          45.000    22288394.422    91267386.074         636.868          41.000  
G10  21677999.574   113918816.292        2519.616          46.000    21678005.979    88767948.879        1963.270          42.000  
G12  22990610.963   120816372.343        1372.465          39.000    22990620.895    94142708.697        1069.949          36.000  
G25  22292223.101   117146360.255        2605.394          39.000    22292232.979    91283030.664        2029.946          37.000  
G28  22487598.432   118173084.327        3052.526          40.000    22487605.475    92082931.669        2378.908          41.000  
G23  20052816.310   105378552.390         464.000          46.000    20052820.820    82113345.122         361.432          48.000  
G24  22094226.733   116106006.953       -3171.349          39.000    22094235.569    90472370.075       -2470.933          39.000  
G15  23921765.532   125709746.519       -2068.248          35.000    23921783.633    97955726.605       -1611.644          34.000  
G18  21367159.600   112285381.361       -2795.538          43.000    21367165.619    87495253.837       -2178.439          44.000  
> 2025 04 20 15 07 56.9990000  0  9                     
G32  22288230.457   117125558.658         817.263          45.000    22288238.862    91266749.333         636.681          40.000  
G10  21677520.170   113916297.074        2519.389          46.000    21677526.500    88765985.856        1963.149          42.000  
G12  22990349.892   120815000.138        1372.104          39.000    22990359.801    94141639.445        1069.635          36.000  
G25  22291727.383   117143755.135        2604.921          39.000    22291737.183    91281000.686        2030.262          37.000  
G28  22487017.551   118170031.995        3052.498          40.000    22487024.690    92080553.267        2378.284          41.000  
G23  20052728.124   105378088.941         463.286          46.000    20052732.608    82112983.989         361.096          48.000  
G24  22094830.136   116109178.349       -3171.917          39.000    22094839.082    90474841.293       -2471.077          39.000  
G15  23922159.375   125711815.109       -2068.472          35.000    23922177.344    97957338.512       -1612.102          34.000  
G18  21367691.724   112288177.447       -2795.998          43.000    21367697.636    87497432.612       -2178.892          44.000  
> 2025 04 20 15 07 57.9990000  0  9                     
G32  22288074.957   117124741.530         817.161          45.000    22288083.335    91266112.611         636.311          41.000  
G10  21677040.797   113913777.893        2519.276          46.000    21677047.130    88764022.854        1962.983          42.000  
G12  22990088.759   120813628.238        1371.702          39.000    22990098.673    94140570.453        1068.986          37.000  
G25  22291231.514   117141150.111        2604.941          39.000    22291241.497    91278970.806        2029.717          37.000  
G28  22486436.744   118166979.980        3051.828          40.000    22486443.865    92078175.057        2378.119          41.000  
G23  20052640.078   105377625.833         463.024          46.000    20052644.473    82112623.135         360.747          48.000  
G24  22095433.756   116112349.936       -3171.677          39.000    22095442.657    90477312.662       -2471.183          39.000  
G15  23922553.045   125713883.623       -2068.397          35.000    23922570.869    97958950.312       -1611.417          34.000  
G18  21368223.878   112290973.854       -2796.360          43.000    21368229.794    87499611.614       -2179.055          44.000  
> 2025 04 20 15 07 58.9990000  0  9                     
G32  22287919.435   117123924.511         817.119          45.000    22287927.897    91265475.975         636.361          41.000  
G10  21676561.403   113911258.844        2518.953          46.000    21676567.853    88762059.964        1962.757          42.000  
G12  22989827.860   120812256.763        1370.803          39.000    22989837.653    94139501.765        1068.922          37.000  
G25  22290735.897   117138545.293        2604.509          39.000    22290745.843    91276941.065        2029.899          37.000  
G28  22485856.084   118163928.336        3050.964          40.000    22485863.121    92075797.145        2377.976          41.000  
G23  20052551.972   105377163.203         462.376          46.000    20052556.429    82112262.627         360.499          48.000  
G24  22096037.261   116115521.816       -3172.044          39.000    22096046.246    90479784.281       -2471.798          39.000  
G15  23922946.920   125715952.140       -2068.300          35.000    23922964.324    97960562.159       -1611.526          34.000  
G18  21368755.938   112293770.686       -2797.052          43.000    21368762.011    87501790.950       -2179.358          44.000  
> 2025 04 20 15 07 59.9990000  0  9                     
G32  22287763.900   117123107.466         817.181          44.000    22287772.417    91264839.327         636.785          41.000  
G10  21676081.987   113908739.775        2519.023          46.000    21676088.375    88760097.048        1962.971          42.000  
G12  22989566.936   120810885.543        1371.180          39.000    22989576.740    94138433.294        1068.738          36.000  
G25  22290240.295   117135940.487        2604.910          39.000    22290250.130    91274911.391        2029.391          37.000  
G28  22485275.459   118160876.920        3050.828          40.000    22485282.574    92073419.424        2377.673          41.000  
G23  20052464.039   105376700.844         462.329          46.000    20052468.453    82111902.363         360.230          48.000  
G24  22096640.833   116118693.854       -3172.027          39.000    22096649.921    90482255.979       -2471.522          38.000  
G15  23923340.791   125718020.529       -2068.017          35.000    23923357.868    97962173.859       -1611.488          33.000  
G18  21369288.211   112296567.758       -2797.122          43.000    21369294.328    87503970.492       -2179.545          44.000  
> 2025 04 20 15 08 00.9990000  0  9                     
G32  22287608.369   117122290.442         817.219          45.000    22287616.968    91264202.687         636.542          41.000  
G10  21675602.623   113906220.733        2519.006          46.000    21675609.038    88758134.182        1962.430          42.000  
G12  22989306.111   120809514.649        1370.753          38.000    22989315.825    94137365.074        1068.174          37.000  
G25  22289744.624   117133335.802        2604.778          39.000    22289754.505    91272881.736        2029.691          37.000  
G28  22484694.769   118157825.721        3051.289          40.000    22484701.847    92071041.901        2377.331          41.000  
G23  20052376.045   105376238.843         461.855          46.000    20052380.499    82111542.364         359.796          48.000  
G24  22097244.343   116121866.099       -3172.637          39.000    22097253.462    90484727.863       -2471.931          38.000  
G15  23923734.328   125720088.810       -2068.072          35.000    23923751.377    97963785.490       -1611.581          33.000  
G18  21369820.492   112299365.138       -2797.463          43.000    21369826.613    87506150.267       -2179.966          44.000  
> 2025 04 20 15 08 01.9990000  0  9                     
G32  22287452.978   117121473.602         816.894          44.000    22287461.492    91263566.193         636.464          41.000  
G10  21675123.295   113903701.863        2518.761          46.000    21675129.780    88756171.421        1962.395          42.000  
G12  22989045.332   120808144.190        1370.496          38.000    22989054.990    94136297.216        1067.436          36.000  
G25  22289249.003   117130731.325        2604.536          39.000    22289258.900    91270852.275        2029.406          37.000  
G28  22484114.169   118154775.002        3050.459          40.000    22484121.280    92068664.706        2377.200          41.000  
G23  20052288.204   105375777.344         461.135          46.000    20052292.614    82111182.753         359.449          48.000  
G24  22097848.074   116125038.644       -3172.581          39.000    22097857.229    90487199.989       -2472.237          38.000  
G15  23924128.057   125722157.157       -2068.552          35.000    23924144.947    97965397.162       -1611.151          33.000  
G18  21370352.926   112302162.979       -2798.083          43.000    21370359.065    87508330.398       -2180.121          44.000  
> 2025 04 20 15 08 02.9990000  0  9                     
G32  22287297.508   117120656.859         816.731          45.000    22287305.995    91262929.764         636.340          41.000  
G10  21674643.953   113901183.101        2518.765          46.000    21674650.446    88754208.746        1962.492          43.000  
G12  22988784.562   120806774.157        1369.904          38.000    22988794.329    94135229.633        1067.595          36.000  
G25  22288753.417   117128127.024        2604.340          39.000    22288763.303    91268822.974        2028.881          37.000  
G28  22483533.681   118151724.612        3050.271          40.000    22483540.865    92066287.806        2376.531          41.000  
G23  20052200.424   105375316.260         460.850          46.000    20052204.836    82110823.466         359.104          48.000  
G24  22098451.862   116128211.478       -3172.868          39.000    22098461.005    90489672.320       -2472.519          38.000  
G15  23924521.660   125724225.474       -2068.862          35.000    23924538.716    97967008.854       -1612.012          34.000  
G18  21370885.466   112304961.204       -2798.433          43.000    21370891.496    87510510.840       -2180.583          44.000  
> 2025 04 20 15 08 03.9990000  0  9                     
G32  22287142.138   117119840.113         816.912          45.000    22287150.622    91262293.355         636.288          41.000  
G10  21674164.643   113898664.374        2518.665          46.000    21674171.172    88752246.107        1962.411          42.000  
G12  22988523.804   120805404.428        1369.605          38.000    22988533.682    94134162.306        1067.226          37.000  
G25  22288257.796   117125522.826        2604.323          39.000    22288267.728    91266793.715        2029.219          37.000  
G28  22482953.278   118148674.510        3049.928          40.000    22482960.402    92063911.103        2376.521          41.000  
G23  20052112.715   105374855.529         460.547          46.000    20052117.083    82110464.453         358.911          48.000  
G24  22099055.702   116131384.503       -3173.058          39.000    22099064.814    90492144.804       -2472.566          39.000  
G15  23924915.290   125726293.684       -2068.251          35.000    23924932.329    97968620.450       -1611.382          34.000  
G18  21371417.994   112307759.729       -2798.496          43.000    21371424.111    87512691.516       -2180.838          44.000  
> 2025 04 20 15 08 04.9990000  0  9                     
G32  22286986.799   117119023.465         816.712          45.000    22286995.245    91261657.007         636.156          40.000  
G10  21673685.286   113896145.725        2518.415          46.000    21673691.850    88750283.526        1962.387          42.000  
G12  22988263.221   120804035.034        1369.215          38.000    22988273.080    94133095.256        1066.891          36.000  
G25  22287762.339   117122918.762        2603.774          39.000    22287772.100    91264764.550        2029.130          37.000  
G28  22482372.888   118145624.735        3049.429          40.000    22482380.049    92061534.659        2376.099          40.000  
G23  20052025.012   105374395.193         460.057          46.000    20052029.434    82110105.756         358.563          48.000  
G24  22099659.653   116134557.761       -3173.181          39.000    22099668.698    90494617.484       -2472.986          39.000  
G15  23925308.887   125728361.857       -2068.334          35.000    23925325.982    97970231.998       -1611.373          34.000  
G18  21371950.595   112310558.618       -2798.912          43.000    21371956.674    87514872.456       -2180.990          44.000  
> 2025 04 20 15 08 05.9990000  0  9                     
G32  22286831.432   117118206.981         816.539          45.000    22286839.840    91261020.786         635.982          41.000  
G10  21673206.097   113893627.232        2518.549          46.000    21673212.606    88748321.066        1962.404          42.000  
G12  22988002.768   120802666.130        1368.678          38.000    22988012.546    94132028.571        1066.369          36.000  
G25  22287266.910   117120314.939        2603.668          39.000    22287276.649    91262735.605        2028.933          37.000  
G28  22481792.566   118142575.367        3049.043          40.000    22481799.742    92059158.529        2375.915          41.000  
G23  20051937.421   105373935.350         459.667          46.000    20051941.926    82109747.436         358.158          48.000  
G24  22100263.636   116137731.385       -3173.731          39.000    22100272.638    90497090.416       -2473.222          39.000  
G15  23925702.408   125730430.067       -2068.245          35.000    23925719.758    97971843.597       -1612.167          34.000  
G18  21372483.291   112313357.976       -2799.708          43.000    21372489.375    87517053.757       -2181.409          44.000  
> 2025 04 20 15 08 06.9990000  0  9                     
G32  22286676.117   117117390.654         816.469          45.000    22286684.458    91260384.695         635.948          41.000  
G10  21672726.903   113891108.920        2518.330          46.000    21672733.376    88746358.736        1962.569          42.000  
G12  22987742.324   120801297.661        1368.249          38.000    22987752.216    94130962.232        1066.101          36.000  
G25  22286771.462   117117711.345        2603.230          39.000    22286781.259    91260706.828        2028.677          37.000  
G28  22481212.316   118139526.405        3049.189          40.000    22481219.460    92056782.741        2375.468          40.000  
G23  20051849.970   105373476.009         458.948          46.000    20051854.565    82109389.506         357.837          48.000  
G24  22100867.606   116140905.339       -3174.670          39.000    22100876.690    90499563.600       -2473.230          39.000  
G15  23926096.147   125732498.326       -2068.408          35.000    23926113.248    97973455.184       -1611.117          34.000  
G18  21373016.007   112316157.758       -2799.883          43.000    21373022.158    87519235.426       -2181.788          44.000  
> 2025 04 20 15 08 07.9990000  0  9                     
G32  22286520.832   117116574.490         816.016          45.000    22286529.123    91259748.722         635.820          41.000  
G10  21672247.636   113888590.786        2517.924          46.000    21672254.239    88744396.559        1962.028          42.000  
G12  22987482.001   120799929.630        1367.671          38.000    22987491.772    94129896.244        1065.685          36.000  
G25  22286276.167   117115107.976        2603.008          39.000    22286285.746    91258678.234        2028.340          37.000  
G28  22480632.127   118136477.886        3048.511          40.000    22480639.319    92054407.253        2375.295          41.000  
G23  20051762.648   105373017.139         458.642          46.000    20051767.230    82109031.955         357.253          48.000  
G24  22101471.717   116144079.584       -3174.692          39.000    22101480.671    90502037.054       -2473.875          39.000  
G15  23926489.423   125734566.622       -2068.394          35.000    23926507.042    97975066.845       -1611.806          34.000  
G18  21373548.861   112318958.008       -2800.444          43.000    21373555.012    87521417.420       -2182.150          44.000  
> 2025 04 20 15 08 08.9990000  0  9                     
G32  22286365.511   117115758.401         815.762          45.000    22286373.846    91259112.814         635.761          41.000  
G10  21671768.588   113886072.718        2518.026          46.000    21671775.046    88742434.436        1962.051          42.000  
G12  22987221.745   120798561.968        1367.710          38.000    22987231.543    94128830.536        1065.307          36.000  
G25  22285780.824   117112504.749        2603.099          39.000    22285790.381    91256649.763        2028.176          37.000  
G28  22480051.990   118133429.676        3048.163          40.000    22480059.314    92052032.038        2374.992          41.000  
G23  20051675.504   105372558.685         458.088          46.000    20051679.925    82108674.718         356.823          48.000  
G24  22102075.760   116147254.083       -3174.646          39.000    22102084.866    90504510.668       -2473.726          39.000  
G15  23926882.846   125736634.863       -2068.102          35.000    23926900.801    97976678.469       -1611.631          34.000  
G18  21374081.798   112321758.610       -2800.967          43.000    21374088.033    87523599.706       -2182.556          44.000  
> 2025 04 20 15 08 09.9990000  0  9                     
G32  22286210.232   117114942.391         815.926          45.000    22286218.596    91258476.976         635.585          41.000  
G10  21671289.435   113883554.749        2517.824          46.000    21671295.891    88740472.378        1962.051          42.000  
G12  22986961.480   120797194.704        1366.912          39.000    22986971.389    94127765.110        1065.454          36.000  
G25  22285285.530   117109901.683        2602.909          39.000    22285294.975    91254621.389        2028.057          37.000  
G28  22479472.007   118130381.839        3047.208          40.000    22479479.354    92049657.084        2374.785          41.000  
G23  20051588.437   105372100.628         457.796          46.000    20051592.831    82108317.790         356.679          48.000  
G24  22102679.915   116150428.845       -3175.023          38.000    22102689.008    90506984.522       -2474.349          39.000  
G15  23927276.440   125738703.077       -2067.616          35.000    23927294.452    97978290.069       -1611.518          34.000  
G18  21374614.935   112324559.567       -2801.105          43.000    21374621.039    87525782.276       -2182.658          44.000  
> 2025 04 20 15 08 10.9990000  0  9                     
G32  22286054.980   117114126.405         816.027          45.000    22286063.440    91257841.143         635.834          41.000  
G10  21670810.331   113881036.812        2517.877          46.000    21670816.811    88738510.352        1962.067          42.000  
G12  22986701.354   120795827.737        1366.651          39.000    22986711.285    94126699.971        1064.744          36.000  
G25  22284790.203   117107298.698        2602.930          39.000    22284799.644    91252593.094        2028.544          37.000  
G28  22478892.089   118127334.240        3047.089          40.000    22478899.357    92047282.323        2374.916          41.000  
G23  20051501.304   105371642.920         457.624          46.000    20051505.728    82107961.137         356.566          48.000  
G24  22103284.161   116153603.801       -3175.320          38.000    22103293.177    90509458.509       -2474.512          39.000  
G15  23927670.000   125740771.221       -2068.126          35.000    23927687.950    97979901.600       -1611.550          34.000  
G18  21375147.922   112327360.851       -2801.557          43.000    21375153.955    87527965.100       -2183.096          44.000  
> 2025 04 20 15 08 11.9990000  0  9                     
G32  22285899.739   117113310.455         816.049          45.000    22285908.116    91257205.333         636.046          41.000  
G10  21670331.142   113878518.904        2517.944          46.000    21670337.570    88736548.353        1961.964          42.000  
G12  22986441.295   120794461.090        1366.530          39.000    22986451.184    94125635.056        1064.554          36.000  
G25  22284294.946   117104695.837        2602.550          39.000    22284304.341    91250564.884        2028.120          37.000  
G28  22478312.263   118124286.930        3047.128          40.000    22478319.545    92044907.832        2374.328          41.000  
G23  20051414.284   105371185.582         457.161          46.000    20051418.659    82107604.774         356.232          48.000  
G24  22103888.361   116156778.938       -3175.236          38.000    22103897.366    90511932.630       -2474.234          39.000  
G15  23928063.651   125742839.281       -2068.236          35.000    23928081.694    97981513.072       -1612.002          34.000  
G18  21375681.050   112330162.454       -2801.862          43.000    21375687.115    87530148.151       -2183.113          44.000  
> 2025 04 20 15 08 12.9990000  0  9                     
G32  22285744.414   117112494.652         815.514          45.000    22285752.842    91256569.645         635.655          41.000  
G10  21669851.995   113876001.128        2517.707          46.000    21669858.478    88734586.454        1961.902          42.000  
G12  22986181.318   120793094.863        1365.897          39.000    22986191.072    94124570.448        1064.313          36.000  
G25  22283799.631   117102093.129        2602.581          39.000    22283809.076    91248536.792        2028.152          37.000  
G28  22477732.323   118121240.001        3046.569          40.000    22477739.824    92042533.615        2373.928          41.000  
G23  20051327.395   105370728.699         456.452          46.000    20051331.794    82107248.755         355.740          48.000  
G24  22104492.629   116159954.396       -3175.724          38.000    22104501.615    90514407.011       -2474.763          39.000  
G15  23928457.225   125744907.324       -2068.190          35.000    23928475.344    97983124.494       -1610.982          34.000  
G18  21376214.286   112332964.457       -2802.514          43.000    21376220.330    87532331.530       -2183.522          44.000  
> 2025 04 20 15 08 13.9990000  0  9                     
G32  22285589.214   117111678.863         815.954          45.000    22285597.565    91255933.980         635.690          41.000  
G10  21669372.866   113873483.431        2517.808          46.000    21669379.519    88732624.629        1961.639          42.000  
G12  22985921.528   120791728.974        1365.808          38.000    22985931.090    94123506.142        1063.946          36.000  
G25  22283304.444   117099490.552        2602.570          39.000    22283313.867    91246508.807        2028.396          37.000  
G28  22477152.467   118118193.363        3046.897          40.000    22477160.017    92040159.618        2373.991          41.000  
G23  20051240.425   105370272.184         456.283          46.000    20051244.893    82106893.036         355.571          48.000  
G24  22105096.898   116163130.037       -3175.757          39.000    22105105.837    90516881.536       -2474.555          38.000  
G15  23928850.764   125746975.294       -2067.430          34.000    23928869.069    97984735.903       -1611.117          34.000  
G18  21376747.488   112335766.802       -2802.423          43.000    21376753.729    87534515.181       -2183.790          44.000  
> 2025 04 20 15 08 14.9990000  0  9                     
G32  22285433.969   117110863.119         815.512          45.000    22285442.400    91255298.327         635.785          41.000  
G10  21668893.801   113870965.765        2517.420          46.000    21668900.391    88730662.793        1961.783          43.000  
G12  22985661.708   120790363.411        1365.356          38.000    22985671.249    94122442.053        1063.512          36.000  
G25  22282809.256   117096888.083        2602.329          39.000    22282818.595    91244480.910        2027.975          37.000  
G28  22476572.804   118115147.039        3046.033          40.000    22476580.326    92037785.848        2373.628          41.000  
G23  20051153.649   105369816.020         455.831          46.000    20051157.975    82106537.581         355.241          48.000  
G24  22105701.217   116166305.901       -3175.923          38.000    22105710.104    90519356.217       -2474.726          38.000  
G15  23929244.282   125749043.200       -2067.570          34.000    23929262.534    97986347.237       -1611.535          34.000  
G18  21377280.903   112338569.462       -2803.135          43.000    21377286.988    87536699.062       -2184.287          44.000  
> 2025 04 20 15 08 15.9990000  0  9                     
G32  22285278.809   117110047.392         815.784          45.000    22285287.175    91254662.709         635.774          41.000  
G10  21668414.723   113868448.137        2517.472          46.000    21668421.214    88728701.023        1961.492          43.000  
G12  22985401.970   120788998.169        1364.886          39.000    22985411.390    94121378.237        1063.162          36.000  
G25  22282314.099   117094285.720        2602.159          39.000    22282323.347    91242453.112        2027.713          37.000  
G28  22475993.117   118112100.991        3045.582          40.000    22476000.745    92035412.311        2373.580          41.000  
G23  20051066.891   105369360.222         455.551          46.000    20051071.192    82106182.417         355.022          48.000  
G24  22106305.575   116169481.956       -3176.085          39.000    22106314.514    90521831.078       -2475.187          38.000  
G15  23929637.639   125751111.033       -2067.590          35.000    23929656.121    97987958.511       -1610.767          34.000  
G18  21377814.299   112341372.434       -2803.207          43.000    21377820.361    87538883.203       -2184.380          44.000  
> 2025 04 20 15 08 16.9990000  0  9                     
G32  22285123.594   117109231.826         815.330          45.000    22285131.948    91254027.217         635.215          41.000  
G10  21667935.551   113865930.658        2517.218          46.000    21667942.230    88726739.361        1961.341          43.000  
G12  22985142.270   120787633.348        1364.691          39.000    22985151.556    94120314.735        1063.258          36.000  
G25  22281818.875   117091683.553        2601.970          39.000    22281828.189    91240425.449        2027.546          37.000  
G28  22475413.649   118109055.335        3045.417          40.000    22475421.158    92033039.081        2372.919          41.000  
G23  20050980.258   105368904.898         454.907          46.000    20050984.596    82105827.620         354.513          48.000  
G24  22106910.101   116172658.341       -3176.780          39.000    22106919.049    90524306.178       -2475.645          38.000  
G15  23930031.198   125753178.869       -2068.032          35.000    23930049.661    97989569.813       -1611.074          33.000  
G18  21378347.829   112344175.835       -2803.694          43.000    21378353.741    87541067.667       -2184.743          44.000  
> 2025 04 20 15 08 17.9990000  0  9                     
G32  22284968.366   117108416.233         815.619          45.000    22284976.776    91253391.666         635.974          41.000  
G10  21667456.504   113863413.159        2517.525          46.000    21667463.059    88724777.672        1961.548          43.000  
G12  22984882.598   120786268.792        1364.567          39.000    22984891.851    94119251.455        1063.274          36.000  
G25  22281323.701   117089081.441        2601.931          39.000    22281333.046    91238397.836        2027.801          37.000  
G28  22474834.126   118106009.924        3045.024          40.000    22474841.604    92030666.024        2372.798          41.000  
G23  20050893.673   105368449.866         454.799          46.000    20050897.984    82105473.052         354.453          48.000  
G24  22107514.575   116175834.840       -3176.587          39.000    22107523.514    90526781.370       -2475.378          38.000  
G15  23930424.772   125755246.548       -2067.419          35.000    23930443.096    97991180.989       -1610.916          33.000  
G18  21378881.376   112346979.498       -2803.866          43.000    21378887.289    87543252.325       -2184.633          44.000  
> 2025 04 20 15 08 18.9990000  0  9                     
G32  22284813.199   117107600.627         815.441          44.000    22284821.550    91252756.146         635.674          41.000  
G10  21666977.401   113860895.669        2517.471          46.000    21666983.954    88722815.995        1961.402          42.000  
G12  22984623.012   120784904.533        1364.333          39.000    22984632.225    94118188.409        1062.627          36.000  
G25  22280828.539   117086479.382        2601.930          39.000    22280837.897    91236370.251        2027.764          37.000  
G28  22474254.548   118102964.717        3044.892          40.000    22474262.040    92028293.144        2372.990          41.000  
G23  20050807.035   105367995.156         454.609          46.000    20050811.445    82105118.732         354.255          48.000  
G24  22108119.065   116179011.492       -3176.315          39.000    22108128.062    90529256.693       -2475.470          38.000  
G15  23930818.408   125757314.115       -2066.810          35.000    23930836.369    97992792.089       -1610.992          33.000  
G18  21379414.983   112349783.421       -2803.966          43.000    21379420.829    87545437.213       -2184.911          44.000  
> 2025 04 20 15 08 19.9990000  0  9                     
G32  22284658.026   117106785.038         815.643          44.000    22284666.360    91252120.635         635.627          41.000  
G10  21666498.357   113858378.199        2517.457          46.000    21666504.978    88720854.334        1961.463          42.000  
G12  22984363.519   120783540.598        1363.679          39.000    22984372.624    94117125.560        1063.072          36.000  
G25  22280333.523   117083877.432        2601.698          39.000    22280342.728    91234342.780        2027.187          37.000  
G28  22473675.177   118099919.809        3044.844          40.000    22473682.622    92025920.508        2372.723          41.000  
G23  20050720.575   105367540.811         454.254          46.000    20050725.002    82104764.704         353.810          48.000  
G24  22108723.614   116182188.378       -3176.924          39.000    22108732.603    90531732.170       -2475.433          38.000  
G15  23931211.981   125759381.602       -2067.344          35.000    23931229.976    97994403.099       -1610.953          34.000  
G18  21379948.619   112352587.682       -2804.337          43.000    21379954.406    87547622.335       -2185.058          44.000  
> 2025 04 20 15 08 20.9990000  0  9                     
G32  22284502.850   117105969.488         815.460          44.000    22284511.119    91251485.155         635.376          41.000  
G10  21666019.264   113855860.773        2517.313          46.000    21666025.992    88718892.706        1961.459          42.000  
G12  22984103.992   120782176.972        1363.315          39.000    22984113.191    94116063.033        1062.252          36.000  
G25  22279838.439   117081275.571        2601.886          39.000    22279847.596    91232315.359        2027.272          37.000  
G28  22473095.858   118096875.221        3044.202          40.000    22473103.224    92023548.091        2372.322          41.000  
G23  20050634.188   105367086.817         453.870          46.000    20050638.559    82104410.939         353.668          48.000  
G24  22109328.199   116185365.429       -3177.050          39.000    22109337.160    90534207.819       -2476.183          38.000  
G15  23931605.490   125761448.996       -2067.460          35.000    23931623.494    97996014.042       -1610.959          34.000  
G18  21380482.253   112355392.249       -2804.819          43.000    21380488.160    87549807.719       -2185.495          44.000  
> 2025 04 20 15 08 21.9990000  0  9                     
G32  22284347.645   117105154.082         815.271          45.000    22284355.884    91250849.764         635.286          41.000  
G10  21665540.208   113853343.487        2517.253          46.000    21665547.033    88716931.184        1961.378          42.000  
G12  22983844.584   120780813.772        1362.946          39.000    22983853.833    94115000.788        1061.651          36.000  
G25  22279343.253   117078673.918        2601.510          39.000    22279352.600    91230288.089        2027.250          37.000  
G28  22472516.601   118093830.974        3043.972          40.000    22472523.983    92021175.971        2371.932          41.000  
G23  20050547.982   105366633.286         453.238          46.000    20050552.178    82104057.543         353.102          48.000  
G24  22109932.845   116188542.807       -3177.630          39.000    22109941.730    90536683.669       -2476.117          39.000  
G15  23931998.914   125763516.378       -2067.190          35.000    23932016.985    97997625.018       -1611.789          34.000  
G18  21381016.043   112358197.224       -2805.184          43.000    21381022.020    87551993.419       -2185.894          44.000  
> 2025 04 20 15 08 22.9990000  0  9                     
G32  22284192.544   117104338.852         815.387          45.000    22284200.772    91250214.543         635.004          41.000  
G10  21665061.280   113850826.418        2517.133          46.000    21665067.989    88714969.841        1961.331          42.000  
G12  22983585.325   120779451.056        1362.753          39.000    22983594.576    94113938.952        1061.668          36.000  
G25  22278848.310   117076072.542        2601.254          39.000    22278857.540    91228261.030        2027.112          37.000  
G28  22471937.378   118090787.182        3043.970          40.000    22471944.785    92018804.191        2371.793          41.000  
G23  20050461.849   105366180.284         452.875          46.000    20050465.967    82103704.554         352.942          48.000  
G24  22110537.561   116191720.536       -3177.952          39.000    22110546.416    90539159.817       -2476.268          38.000  
G15  23932392.312   125765583.878       -2067.817          35.000    23932410.590    97999236.009       -1610.862          33.000  
G18  21381549.941   112361002.692       -2805.513          43.000    21381555.864    87554179.492       -2186.107          44.000  
> 2025 04 20 15 08 23.9990000  0  9                     
G32  22284037.438   117103523.643         815.066          45.000    22284045.597    91249579.319         635.032          41.000  
G10  21664582.354   113848309.372        2516.916          46.000    21664588.952    88713008.499        1961.242          42.000  
G12  22983326.123   120778088.664        1362.065          39.000    22983335.319    94112877.335        1061.229          36.000  
G25  22278353.360   117073471.229        2601.172          39.000    22278362.525    91226234.059        2026.954          37.000  
G28  22471358.213   118087743.668        3043.474          40.000    22471365.567    92016432.639        2371.222          41.000  
G23  20050375.672   105365727.611         452.466          46.000    20050379.859    82103351.829         352.539          48.000  
G24  22111142.286   116194898.437       -3177.977          39.000    22111151.198    90541636.087       -2476.099          38.000  
G15  23932785.812   125767651.258       -2067.496          35.000    23932803.992    98000846.979       -1611.845          33.000  
G18  21382083.851   112363808.457       -2806.030          43.000    21382089.804    87556365.793       -2186.508          44.000  
> 2025 04 20 15 08 24.9990000  0  9                     
G32  22283882.267   117102708.540         814.926          45.000    22283890.629    91248944.175         634.917          41.000  
G10  21664103.449   113845792.410        2516.810          46.000    21664109.978    88711047.236        1961.064          42.000  
G12  22983066.925   120776726.637        1361.647          39.000    22983076.207    94111816.018        1061.051          36.000  
G25  22277858.463   117070870.092        2601.065          39.000    22277867.570    91224207.204        2026.594          37.000  
G28  22470779.116   118084700.509        3042.924          40.000    22470786.531    92014061.347        2371.056          41.000  
G23  20050289.630   105365275.364         451.939          46.000    20050293.826    82102999.428         352.114          48.000  
G24  22111747.087   116198076.595       -3178.344          39.000    22111755.947    90544112.589       -2476.796          38.000  
G15  23933179.315   125769718.606       -2067.817          35.000    23933197.048    98002457.874       -1611.162          33.000  
G18  21382617.825   112366614.593       -2806.660          43.000    21382623.863    87558552.397       -2186.819          44.000  
> 2025 04 20 15 08 25.9990000  0  9                     
G32  22283727.257   117101893.475         814.896          44.000    22283735.466    91248309.069         634.874          41.000  
G10  21663624.546   113843275.525        2516.767          46.000    21663630.914    88709086.027        1961.226          42.000  
G12  22982807.667   120775364.956        1361.518          39.000    22982817.142    94110754.965        1060.811          36.000  
G25  22277363.543   117068269.077        2600.952          39.000    22277372.670    91222180.427        2026.624          37.000  
G28  22470200.090   118081657.670        3042.195          40.000    22470207.534    92011690.280        2370.969          41.000  
G23  20050203.633   105364823.504         451.573          46.000    20050207.771    82102647.333         351.765          48.000  
G24  22112351.802   116201255.001       -3178.931          39.000    22112360.800    90546589.251       -2476.823          38.000  
G15  23933572.829   125771785.896       -2067.374          35.000    23933590.096    98004068.721       -1610.466          33.000  
G18  21383151.824   112369421.061       -2806.650          43.000    21383157.977    87560739.259       -2187.207          44.000  
> 2025 04 20 15 08 26.9990000  0  9                     
G32  22283572.123   117101078.587         814.821          44.000    22283580.420    91247674.085         634.987          41.000  
G10  21663145.555   113840758.816        2516.554          46.000    21663152.062    88707124.949        1961.007          42.000  
G12  22982548.646   120774003.760        1360.567          39.000    22982558.207    94109694.295        1060.448          37.000  
G25  22276868.654   117065668.315        2600.602          39.000    22276877.700    91220153.841        2026.481          37.000  
G28  22469621.038   118078615.228        3042.249          40.000    22469628.523    92009319.580        2370.320          41.000  
G23  20050117.678   105364372.144         450.998          46.000    20050121.959    82102295.627         351.370          48.000  
G24  22112956.676   116204433.722       -3179.125          39.000    22112965.642    90549066.189       -2477.277          38.000  
G15  23933966.300   125773853.260       -2067.893          35.000    23933983.437    98005679.630       -1610.641          34.000  
G18  21383686.011   112372227.994       -2807.254          43.000    21383692.202    87562926.468       -2187.280          44.000  
> 2025 04 20 15 08 27.9990000  0  9                     
G32  22283417.063   117100263.807         814.541          44.000    22283425.363    91247039.181         634.906          41.000  
G10  21662666.662   113838242.214        2516.415          46.000    21662673.175    88705163.974        1960.924          42.000  
G12  22982289.741   120772642.937        1360.306          39.000    22982299.310    94108633.904        1060.140          36.000  
G25  22276373.820   117063067.703        2600.583          39.000    22276382.819    91218127.388        2026.662          37.000  
G28  22469042.134   118075573.136        3042.228          40.000    22469049.652    92006949.125        2370.419          41.000  
G23  20050031.835   105363921.200         450.799          46.000    20050036.163    82101944.243         351.243          48.000  
G24  22113561.636   116207612.684       -3179.034          39.000    22113570.609    90551543.302       -2476.818          39.000  
G15  23934359.739   125775920.533       -2066.810          35.000    23934376.659    98007290.535       -1610.860          33.000  
G18  21384220.215   112375035.310       -2807.519          43.000    21384226.372    87565113.992       -2187.771          44.000  
> 2025 04 20 15 08 28.9990000  0  9                     
G32  22283262.130   117099449.131         814.661          44.000    22283270.401    91246404.378         635.096          41.000  
G10  21662187.712   113835725.731        2516.711          46.000    21662194.310    88703203.089        1960.645          42.000  
G12  22982030.776   120771282.530        1360.325          39.000    22982040.434    94107573.866        1059.817          36.000  
G25  22275878.970   117060467.300        2600.467          39.000    22275888.051    91216101.120        2026.396          37.000  
G28  22468463.229   118072531.449        3041.615          40.000    22468470.934    92004578.983        2370.109          41.000  
G23  20049946.113   105363470.721         450.488          46.000    20049950.352    82101593.216         351.030          48.000  
G24  22114166.684   116210791.976       -3179.363          39.000    22114175.646    90554020.657       -2477.357          39.000  
G15  23934753.085   125777987.886       -2066.949          35.000    23934769.931    98008901.442       -1610.766          34.000  
G18  21384754.461   112377843.023       -2807.673          43.000    21384760.624    87567301.813       -2187.791          44.000  
> 2025 04 20 15 08 29.9990000  0  9                     
G32  22283107.155   117098634.434         814.351          44.000    22283115.309    91245769.566         634.739          41.000  
G10  21661708.847   113833209.242        2516.274          46.000    21661715.498    88701242.189        1960.534          43.000  
G12  22981771.939   120769922.387        1359.819          39.000    22981781.632    94106514.007        1060.136          36.000  
G25  22275384.141   117057866.942        2600.144          39.000    22275393.240    91214074.883        2026.049          37.000  
G28  22467884.405   118069489.973        3041.244          40.000    22467892.181    92002208.999        2369.814          41.000  
G23  20049860.532   105363020.533         449.919          46.000    20049864.729    82101242.428         350.523          48.000  
G24  22114771.723   116213971.395       -3180.054          39.000    22114780.577    90556498.119       -2477.690          39.000  
G15  23935146.429   125780055.092       -2067.254          35.000    23935163.270    98010512.232       -1611.227          34.000  
G18  21385288.865   112380651.007       -2808.477          43.000    21385295.094    87569489.855       -2188.374          44.000  
> 2025 04 20 15 08 30.9990000  0  9                     
G32  22282952.164   117097819.929         814.220          44.000    22282960.192    91245134.882         634.471          41.000  
G10  21661230.026   113830692.951        2516.143          46.000    21661236.664    88699281.427        1960.690          43.000  
G12  22981513.173   120768562.734        1359.218          38.000    22981522.885    94105454.539        1059.117          36.000  
G25  22274889.361   117055266.839        2599.836          39.000    22274898.442    91212048.821        2025.656          37.000  
G28  22467305.816   118066448.944        3040.518          40.000    22467313.563    91999839.374        2369.442          41.000  
G23  20049774.909   105362570.861         449.318          46.000    20049779.189    82100892.034         350.087          48.000  
G24  22115376.758   116217151.140       -3180.131          39.000    22115385.676    90558975.857       -2478.024          39.000  
G15  23935539.765   125782122.355       -2067.334          35.000    23935556.514    98012123.058       -1610.719          34.000  
G18  21385823.340   112383459.438       -2808.675          43.000    21385829.551    87571678.252       -2188.935          44.000  
> 2025 04 20 15 08 31.9990000  0  9                     
G32  22282797.139   117097005.526         814.126          44.000    22282805.115    91244500.295         634.424          41.000  
G10  21660751.227   113828176.782        2516.080          46.000    21660757.881    88697320.797        1960.537          43.000  
G12  22981254.542   120767203.461        1359.069          38.000    22981264.218    94104395.390        1058.956          36.000  
G25  22274394.627   117052666.917        2599.733          39.000    22274403.629    91210022.898        2026.119          37.000  
G28  22466727.224   118063408.277        3040.640          40.000    22466734.952    91997470.032        2369.113          41.000  
G23  20049689.420   105362121.634         449.091          46.000    20049693.708    82100541.995         349.840          48.000  
G24  22115981.948   116220331.178       -3180.094          38.000    22115990.883    90561453.808       -2477.942          39.000  
G15  23935933.076   125784189.612       -2067.661          35.000    23935949.909    98013733.900       -1610.661          34.000  
G18  21386357.754   112386268.295       -2809.265          43.000    21386363.978    87573866.944       -2188.765          44.000  
> 2025 04 20 15 08 32.9990000  0  9                     
G32  22282642.233   117096191.178         814.351          44.000    22282650.186    91243865.738         634.541          41.000  
G10  21660272.459   113825660.687        2515.930          46.000    21660279.037    88695360.196        1960.478          43.000  
G12  22980995.869   120765844.564        1358.616          38.000    22981005.685    94103336.489        1058.756          36.000  
G25  22273899.848   117050067.130        2599.468          39.000    22273908.932    91207997.101        2025.282          37.000  
G28  22466148.613   118060367.935        3040.109          40.000    22466156.454    91995100.947        2368.867          41.000  
G23  20049604.011   105361672.805         448.458          46.000    20049608.286    82100192.249         349.560          48.000  
G24  22116587.139   116223511.492       -3180.779          38.000    22116595.916    90563931.928       -2477.928          39.000  
G15  23936326.435   125786256.812       -2067.637          35.000    23936343.376    98015344.680       -1610.152          33.000  
G18  21386892.301   112389077.468       -2809.541          43.000    21386898.596    87576055.927       -2189.204          44.000  
> 2025 04 20 15 08 33.9990000  0  9                     
G32  22282487.225   117095377.020         813.801          45.000    22282495.328    91243231.338         634.272          41.000  
G10  21659793.810   113823144.762        2515.939          46.000    21659800.090    88693399.740        1960.333          42.000  
G12  22980737.343   120764486.118        1358.270          38.000    22980747.086    94102277.950        1058.590          36.000  
G25  22273405.099   117047467.563        2599.559          39.000    22273414.171    91205971.455        2025.801          37.000  
G28  22465570.125   118057328.033        3039.295          40.000    22465577.981    91992732.163        2368.834          41.000  
G23  20049518.673   105361224.465         447.943          46.000    20049522.957    82099842.896         349.180          48.000  
G24  22117192.334   116226692.075       -3180.771          38.000    22117201.250    90566410.336       -2478.657          39.000  
G15  23936719.645   125788324.062       -2067.194          35.000    23936736.855    98016955.548       -1611.368          33.000  
G18  21387427.005   112391887.116       -2810.091          43.000    21387433.189    87578245.253       -2189.540          44.000  
> 2025 04 20 15 08 34.9990000  0  9                     
G32  22282332.189   117094562.945         813.978          45.000    22282340.481    91242597.002         634.398          41.000  
G10  21659314.975   113820628.959        2515.882          46.000    21659321.317    88691439.379        1960.397          43.000  
G12  22980478.964   120763128.058        1357.670          38.000    22980488.688    94101219.739        1058.272          36.000  
G25  22272910.474   117044868.185        2599.529          39.000    22272919.494    91203945.969        2025.573          37.000  
G28  22464991.762   118054288.446        3039.464          40.000    22464999.522    91990363.694        2368.334          41.000  
G23  20049433.449   105360776.552         447.816          46.000    20049437.778    82099493.877         348.988          48.000  
G24  22117797.624   116229872.943       -3180.302          38.000    22117806.527    90568888.944       -2478.862          39.000  
G15  23937113.021   125790391.309       -2067.668          35.000    23937130.344    98018566.391       -1611.294          33.000  
G18  21387961.637   112394697.124       -2810.087          43.000    21387967.895    87580434.885       -2189.780          44.000  
> 2025 04 20 15 08 35.9990000  0  9                     
G32  22282177.270   117093748.881         814.069          45.000    22282185.481    91241962.667         634.249          41.000  
G10  21658836.197   113818113.159        2515.802          46.000    21658842.633    88689479.018        1960.469          43.000  
G12  22980220.656   120761770.297        1357.499          38.000    22980230.277    94100161.746        1057.923          36.000  
G25  22272415.895   117042268.873        2599.360          39.000    22272424.901    91201920.543        2025.377          37.000  
G28  22464413.439   118051249.161        3039.016          40.000    22464421.132    91987995.402        2368.194          41.000  
G23  20049348.410   105360328.972         447.405          46.000    20049352.660    82099145.111         348.775          48.000  
G24  22118402.979   116233054.017       -3181.071          38.000    22118411.904    90571367.669       -2478.755          39.000  
G15  23937506.442   125792458.437       -2067.385          35.000    23937523.678    98020177.102       -1610.700          33.000  
G18  21388496.440   112397507.446       -2810.548          43.000    21388502.800    87582624.731       -2189.835          44.000  
> 2025 04 20 15 08 36.9990000  0  9                     
G32  22282022.400   117092934.989         813.627          45.000    22282030.666    91241328.466         634.167          41.000  
G10  21658357.551   113815597.539        2515.627          46.000    21658363.997    88687518.808        1960.187          42.000  
G12  22979962.386   120760412.985        1357.070          38.000    22979971.996    94099104.132        1057.073          36.000  
G25  22271921.328   117039669.833        2598.901          39.000    22271930.270    91199895.294        2025.486          37.000  
G28  22463835.151   118048210.262        3038.447          40.000    22463842.801    91985627.460        2367.548          41.000  
G23  20049263.284   105359881.902         446.682          46.000    20049267.577    82098796.748         348.200          48.000  
G24  22119008.490   116236235.384       -3181.202          39.000    22119017.417    90573846.677       -2479.105          39.000  
G15  23937899.812   125794525.609       -2067.327          35.000    23937917.154    98021787.884       -1610.655          33.000  
G18  21389031.409   112400318.214       -2810.966          43.000    21389037.677    87584814.938       -2190.472          44.000  
> 2025 04 20 15 08 37.9990000  0  9                     
G32  22281867.551   117092121.180         813.634          44.000    22281875.714    91240694.338         634.113          41.000  
G10  21657878.813   113813082.036        2515.438          46.000    21657885.341    88685558.677        1959.882          42.000  
G12  22979704.239   120759056.075        1356.524          39.000    22979713.669    94098046.772        1057.269          36.000  
G25  22271426.858   117037070.929        2598.801          39.000    22271435.706    91197870.206        2025.066          37.000  
G28  22463256.942   118045171.728        3038.329          40.000    22463264.498    91983259.777        2367.342          41.000  
G23  20049178.241   105359435.242         446.415          46.000    20049182.631    82098448.710         347.855          48.000  
G24  22119613.958   116239417.047       -3181.703          39.000    22119622.885    90576325.890       -2479.587          39.000  
G15  23938293.269   125796592.752       -2067.267          35.000    23938310.459    98023398.615       -1610.232          33.000  
G18  21389566.344   112403129.351       -2811.271          43.000    21389572.571    87587005.439       -2190.736          44.000  
> 2025 04 20 15 08 38.9990000  0  9                     
G32  22281712.816   117091307.570         813.273          44.000    22281720.951    91240060.350         633.838          41.000  
G10  21657400.207   113810566.734        2514.900          46.000    21657406.668    88683598.704        1959.524          42.000  
G12  22979446.110   120757699.645        1356.027          38.000    22979455.504    94096989.810        1056.706          36.000  
G25  22270932.460   117034472.283        2598.549          39.000    22270941.165    91195845.287        2024.832          37.000  
G28  22462678.759   118042133.655        3037.403          40.000    22462686.363    91980892.436        2366.871          41.000  
G23  20049093.314   105358989.112         445.674          46.000    20049097.722    82098101.066         347.447          48.000  
G24  22120219.496   116242599.050       -3181.832          39.000    22120228.361    90578805.349       -2479.498          38.000  
G15  23938686.697   125798659.960       -2067.230          35.000    23938704.028    98025009.433       -1610.586          33.000  
G18  21390101.340   112405940.976       -2812.178          43.000    21390107.609    87589196.302       -2191.177          44.000  
> 2025 04 20 15 08 39.9990000  0  9                     
G32  22281558.030   117090494.097         813.508          44.000    22281566.195    91239426.508         633.683          41.000  
G10  21656921.555   113808051.580        2515.010          46.000    21656927.986    88681638.845        1959.702          42.000  
G12  22979188.029   120756343.655        1355.776          39.000    22979197.407    94095933.185        1056.729          36.000  
G25  22270437.932   117031873.888        2598.347          39.000    22270446.746    91193820.560        2024.699          37.000  
G28  22462100.682   118039095.957        3037.627          40.000    22462108.296    91978525.421        2366.789          41.000  
G23  20049008.462   105358543.456         445.483          46.000    20049012.967    82097753.809         347.086          48.000  
G24  22120825.103   116245781.374       -3182.659          39.000    22120834.076    90581285.099       -2480.086          38.000  
G15  23939080.015   125800727.249       -2067.951          35.000    23939097.554    98026620.303       -1610.768          33.000  
G18  21390636.538   112408753.006       -2812.067          43.000    21390642.752    87591387.505       -2191.265          44.000  
> 2025 04 20 15 08 40.9990000  0  9                     
G32  22281403.356   117089680.799         813.072          44.000    22281411.400    91238792.747         633.758          41.000  
G10  21656442.955   113805536.602        2514.894          46.000    21656449.398    88679679.123        1959.585          42.000  
G12  22978930.078   120754988.114        1355.515          39.000    22978939.524    94094876.940        1055.784          36.000  
G25  22269943.677   117029275.726        2597.906          39.000    22269952.327    91191796.004        2024.725          37.000  
G28  22461522.787   118036058.691        3037.140          40.000    22461530.325    91976158.729        2366.489          41.000  
G23  20048923.807   105358098.292         444.797          46.000    20048928.229    82097406.929         346.616          48.000  
G24  22121430.716   116248963.999       -3182.025          39.000    22121439.639    90583765.057       -2479.994          38.000  
G15  23939473.460   125802794.546       -2067.734          35.000    23939491.030    98028231.203       -1611.292          33.000  
G18  21391171.682   112411565.502       -2812.613          43.000    21391177.914    87593579.059       -2191.807          44.000  
> 2025 04 20 15 08 41.9990000  0  9                     
G32  22281248.602   117088867.638         813.196          45.000    22281256.713    91238159.130         633.630          41.000  
G10  21655964.410   113803021.782        2514.690          46.000    21655970.853    88677719.517        1959.673          42.000  
G12  22978672.342   120753633.037        1354.699          39.000    22978681.594    94093821.006        1056.048          36.000  
G25  22269449.286   117026677.760        2597.930          39.000    22269457.869    91189771.616        2024.386          37.000  
G28  22460944.799   118033021.828        3036.738          40.000    22460952.393    91973792.337        2366.478          41.000  
G23  20048839.091   105357653.596         444.500          46.000    20048843.583    82097060.416         346.354          48.000  
G24  22122036.483   116252146.988       -3183.436          39.000    22122045.295    90586245.295       -2480.325          38.000  
G15  23939866.831   125804861.856       -2067.221          35.000    23939884.578    98029842.070       -1610.529          33.000  
G18  21391706.944   112414378.424       -2813.103          43.000    21391713.205    87595770.929       -2191.831          44.000  
> 2025 04 20 15 08 42.9990000  0  9                     
G32  22281093.873   117088054.568         812.747          45.000    22281101.876    91237525.578         633.379          41.000  
G10  21655485.904   113800507.053        2514.694          46.000    21655492.313    88675759.994        1959.491          42.000  
G12  22978414.589   120752278.313        1354.664          39.000    22978423.739    94092765.386        1055.752          36.000  
G25  22268954.946   117024079.972        2597.744          39.000    22268963.572    91187747.379        2024.179          37.000  
G28  22460366.939   118029985.329        3036.249          40.000    22460374.549    91971426.226        2365.999          41.000  
G23  20048754.508   105357209.320         444.040          46.000    20048759.059    82096714.231         346.031          48.000  
G24  22122642.223   116255330.160       -3183.110          38.000    22122651.077    90588725.683       -2480.223          38.000  
G15  23940260.224   125806929.155       -2067.438          35.000    23940277.743    98031452.934       -1610.461          33.000  
G18  21392242.318   112417191.723       -2813.689          43.000    21392248.515    87597963.122       -2192.496          44.000  
> 2025 04 20 15 08 43.9990000  0  9                     
G32  22280939.119   117087241.568         813.093          45.000    22280947.221    91236892.091         633.334          41.000  
G10  21655007.370   113797992.427        2514.656          46.000    21655013.866    88673800.544        1959.485          42.000  
G12  22978156.864   120750923.974        1354.069          39.000    22978166.147    94091710.086        1055.025          36.000  
G25  22268460.509   117021482.333        2597.603          39.000    22268469.166    91185723.226        2024.136          37.000  
G28  22459789.263   118026949.161        3035.583          40.000    22459796.765    91969060.393        2365.568          41.000  
G23  20048670.042   105356765.462         443.632          46.000    20048674.613    82096368.367         345.739          48.000  
G24  22123248.001   116258513.634       -3183.520          39.000    22123256.984    90591206.303       -2480.584          38.000  
G15  23940653.705   125808996.396       -2067.484          35.000    23940671.193    98033063.804       -1610.935          33.000  
G18  21392777.766   112420005.363       -2813.950          43.000    21392783.959    87600155.575       -2192.670          44.000  
> 2025 04 20 15 08 44.9990000  0  9                     
G32  22280784.463   117086428.652         812.786          45.000    22280792.507    91236258.631         633.352          41.000  
G10  21654528.943   113795477.872        2514.635          46.000    21654535.274    88671841.153        1959.352          42.000  
G12  22977899.196   120749570.002        1353.805          39.000    22977908.550    94090655.041        1054.616          36.000  
G25  22267966.321   117018884.844        2597.083          39.000    22267974.827    91183699.220        2023.668          37.000  
G28  22459211.551   118023913.312        3035.635          40.000    22459219.055    91966694.796        2365.465          41.000  
G23  20048585.699   105356322.009         443.226          46.000    20048590.272    82096022.819         345.317          48.000  
G24  22123853.755   116261697.329       -3183.651          39.000    22123862.624    90593687.110       -2480.787          38.000  
G15  23941047.024   125811063.631       -2067.451          35.000    23941064.222    98034674.616       -1611.039          33.000  
G18  21393313.385   112422819.378       -2814.188          43.000    21393319.350    87602348.299       -2192.789          44.000  
> 2025 04 20 15 08 45.9990000  0  9                     
G32  22280629.722   117085615.934         812.691          44.000    22280637.889    91235625.356         633.440          41.000  
G10  21654050.471   113792963.551        2514.194          46.000    21654056.825    88669881.959        1959.104          42.000  
G12  22977641.701   120748216.533        1353.448          39.000    22977650.975    94089600.403        1054.236          36.000  
G25  22267472.014   117016287.619        2597.345          39.000    22267480.610    91181675.445        2023.405          37.000  
G28  22458634.087   118020877.942        3034.935          40.000    22458641.472    91964329.573        2365.077          41.000  
G23  20048501.382   105355879.082         442.712          46.000    20048506.056    82095677.689         344.952          48.000  
G24  22124459.710   116264881.399       -3184.416          39.000    22124468.558    90596168.177       -2480.923          38.000  
G15  23941440.356   125813130.968       -2067.890          35.000    23941457.725    98036285.453       -1610.022          33.000  
G18  21393848.997   112425633.880       -2814.719          43.000    21393854.904    87604541.426       -2193.347          44.000  
> 2025 04 20 15 08 46.9990000  0  9                     
G32  22280475.120   117084803.338         812.446          45.000    22280483.209    91234992.154         633.297          41.000  
G10  21653572.018   113790449.345        2514.094          46.000    21653578.436    88667922.833        1959.059          42.000  
G12  22977384.230   120746863.460        1352.817          39.000    22977393.445    94088546.069        1054.069          36.000  
G25  22266977.799   117013690.601        2596.974          39.000    22266986.491    91179651.752        2024.027          37.000  
G28  22458056.586   118017842.890        3035.243          40.000    22458063.959    91961964.635        2364.694          41.000  
G23  20048417.193   105355436.600         442.227          46.000    20048421.817    82095332.893         344.640          48.000  
G24  22125065.639   116268065.742       -3184.287          39.000    22125074.567    90598649.498       -2481.378          38.000  
G15  23941833.641   125815198.248       -2067.566          35.000    23941851.190    98037896.377       -1611.012          33.000  
G18  21394384.528   112428448.764       -2815.054          43.000    21394390.595    87606734.830       -2193.488          44.000  
> 2025 04 20 15 08 47.9990000  0  9                     
G32  22280320.430   117083990.869         812.117          45.000    22280328.634    91234359.072         633.013          41.000  
G10  21653093.657   113787935.284        2513.835          46.000    21653100.048    88665963.824        1958.877          42.000  
G12  22977126.832   120745510.821        1352.518          39.000    22977136.062    94087492.061        1053.971          37.000  
G25  22266483.707   117011093.780        2596.550          39.000    22266492.299    91177628.247        2023.705          37.000  
G28  22457479.175   118014808.264        3034.367          40.000    22457486.485    91959599.987        2364.317          41.000  
G23  20048333.029   105354994.576         441.671          46.000    20048337.773    82094988.464         344.206          48.000  
G24  22125671.611   116271250.373       -3184.969          39.000    22125680.604    90601131.043       -2481.941          38.000  
G15  23942226.997   125817265.569       -2067.594          35.000    23942244.491    98039507.293       -1611.427          32.000  
G18  21394920.298   112431264.075       -2815.711          43.000    21394926.310    87608928.572       -2193.915          44.000  
> 2025 04 20 15 08 48.9990000  0  9                     
G32  22280165.854   117083178.402         812.672          44.000    22280173.997    91233726.003         633.069          41.000  
G10  21652615.272   113785421.231        2514.305          46.000    21652621.541    88664004.830        1959.024          42.000  
G12  22976869.407   120744158.471        1352.405          39.000    22976878.741    94086438.304        1053.499          36.000  
G25  22265989.560   117008497.015        2596.884          39.000    22265998.218    91175604.825        2023.431          37.000  
G28  22456901.781   118011773.901        3034.288          40.000    22456908.999    91957235.542        2364.601          41.000  
G23  20048249.008   105354552.885         441.812          46.000    20048253.698    82094644.290         344.265          48.000  
G24  22126277.565   116274435.155       -3184.640          39.000    22126286.540    90603612.709       -2481.868          38.000  
G15  23942620.468   125819332.774       -2067.054          35.000    23942637.874    98041118.058       -1610.258          32.000  
G18  21395456.140   112434079.658       -2815.496          43.000    21395462.051    87611122.545       -2193.934          44.000  
> 2025 04 20 15 08 49.9990000  0  9                     
G32  22280011.226   117082366.041         812.250          45.000    22280019.326    91233092.989         633.096          41.000  
G10  21652136.881   113782907.317        2513.798          46.000    21652143.244    88662045.933        1958.710          42.000  
G12  22976612.172   120742806.524        1351.974          39.000    22976621.435    94085384.832        1053.338          36.000  
G25  22265495.418   117005900.461        2596.300          39.000    22265504.146    91173581.541        2023.131          37.000  
G28  22456324.479   118008739.915        3033.357          40.000    22456331.668    91954871.402        2363.837          41.000  
G23  20048165.104   105354111.644         441.006          46.000    20048169.721    82094300.469         343.594          48.000  
G24  22126883.624   116277620.258       -3185.336          39.000    22126892.709    90606094.592       -2482.173          38.000  
G15  23943013.900   125821399.978       -2067.297          35.000    23943031.135    98042728.866       -1611.083          32.000  
G18  21395992.078   112436895.651       -2816.239          43.000    21395997.852    87613316.814       -2194.469          44.000  
> 2025 04 20 15 08 50.9990000  0  9                     
G32  22279856.682   117081553.816         812.220          44.000    22279864.726    91232460.090         632.957          41.000  
G10  21651658.529   113780393.527        2513.818          46.000    21651664.974    88660087.143        1958.691          42.000  
G12  22976354.938   120741454.999        1351.492          39.000    22976364.261    94084331.705        1052.590          36.000  
G25  22265001.314   117003304.108        2596.241          39.000    22265010.092    91171558.406        2022.982          37.000  
G28  22455747.186   118005706.269        3033.710          40.000    22455754.389    91952507.555        2363.460          41.000  
G23  20048081.148   105353670.858         440.625          46.000    20048085.887    82093957.004         343.203          48.000  
G24  22127489.720   116280805.653       -3185.894          39.000    22127498.761    90608576.677       -2481.893          38.000  
G15  23943407.376   125823467.184       -2067.200          35.000    23943424.285    98044339.664       -1610.756          32.000  
G18  21396527.994   112439712.043       -2816.657          43.000    21396533.727    87615511.410       -2194.745          44.000  
> 2025 04 20 15 08 51.9990000  0  9                     
G32  22279702.064   117080741.513         812.356          44.000    22279710.133    91231827.142         632.920          41.000  
G10  21651180.163   113777879.696        2513.974          46.000    21651186.603    88658128.315        1958.933          42.000  
G12  22976097.746   120740103.720        1350.932          39.000    22976107.097    94083278.736        1052.855          36.000  
G25  22264507.235   117000707.759        2596.387          39.000    22264516.137    91169535.273        2023.257          37.000  
G28  22455170.031   118002672.864        3033.228          40.000    22455177.178    91950143.837        2363.875          41.000  
G23  20047997.363   105353230.343         440.471          46.000    20048002.023    82093613.742         343.212          48.000  
G24  22128095.917   116283991.149       -3186.062          39.000    22128104.957    90611058.889       -2482.093          38.000  
G15  23943800.729   125825534.197       -2066.456          35.000    23943817.385    98045950.327       -1609.803          32.000  
G18  21397063.972   112442528.665       -2816.676          43.000    21397069.760    87617706.176       -2194.859          44.000  
> 2025 04 20 15 08 52.9990000  0  9                     
G32  22279547.536   117079929.256         812.250          44.000    22279555.620    91231194.218         632.875          41.000  
G10  21650701.811   113775365.898        2513.814          46.000    21650708.208    88656169.530        1958.509          42.000  
G12  22975840.700   120738752.738        1350.922          39.000    22975850.027    94082226.040        1052.797          36.000  
G25  22264013.144   116998111.508        2596.299          39.000    22264022.107    91167512.249        2022.551          37.000  
G28  22454592.821   117999639.744        3032.768          40.000    22454599.950    91947780.370        2363.404          41.000  
G23  20047913.593   105352790.190         439.933          46.000    20047918.283    82093270.763         342.753          48.000  
G24  22128702.135   116287176.802       -3185.902          39.000    22128711.068    90613541.230       -2482.602          38.000  
G15  23944194.081   125827601.167       -2067.065          35.000    23944210.624    98047560.957       -1610.405          32.000  
G18  21397600.108   112445345.594       -2817.210          43.000    21397605.783    87619901.184       -2195.222          44.000  
> 2025 04 20 15 08 53.9990000  0  9                     
G32  22279392.918   117079117.124         812.146          44.000    22279401.048    91230561.392         632.632          41.000  
G10  21650223.455   113772852.260        2513.717          46.000    21650229.853    88654210.829        1958.948          42.000  
G12  22975583.661   120737402.223        1350.398          39.000    22975593.028    94081173.677        1052.144          36.000  
G25  22263519.076   116995515.459        2596.183          39.000    22263528.202    91165489.335        2022.911          37.000  
G28  22454015.718   117996606.993        3032.691          40.000    22454022.783    91945417.201        2362.990          41.000  
G23  20047830.017   105352350.499         439.539          46.000    20047834.595    82092928.142         342.579          48.000  
G24  22129308.410   116290362.758       -3186.000          39.000    22129317.322    90616023.796       -2482.529          38.000  
G15  23944587.336   125829668.111       -2066.565          35.000    23944603.881    98049171.575       -1610.856          32.000  
G18  21398136.211   112448162.930       -2817.584          43.000    21398141.884    87622096.497       -2195.276          44.000  
> 2025 04 20 15 08 54.9990000  0  9                     
G32  22279238.388   117078305.104         811.877          44.000    22279246.489    91229928.665         632.295          41.000  
G10  21649745.207   113770338.741        2513.346          46.000    21649751.512    88652252.269        1958.311          42.000  
G12  22975326.602   120736052.102        1349.938          38.000    22975336.134    94080121.662        1051.432          36.000  
G25  22263025.159   116992919.631        2595.609          39.000    22263034.201    91163466.605        2022.734          37.000  
G28  22453438.661   117993574.614        3032.299          40.000    22453445.707    91943054.320        2362.588          41.000  
G23  20047746.383   105351911.248         438.918          46.000    20047750.941    82092585.880         341.882          48.000  
G24  22129914.797   116293549.024       -3186.643          39.000    22129923.635    90618506.601       -2483.200          38.000  
G15  23944980.698   125831735.067       -2066.399          34.000    23944996.861    98050782.172       -1610.616          32.000  
G18  21398672.426   112450980.666       -2818.027          43.000    21398678.184    87624292.152       -2195.955          44.000  
> 2025 04 20 15 08 55.9990000  0  9                     
G32  22279083.883   117077493.193         811.750          44.000    22279092.105    91229296.009         632.267          41.000  
G10  21649266.938   113767825.347        2513.104          46.000    21649273.345    88650293.771        1958.388          42.000  
G12  22975069.767   120734702.383        1349.368          39.000    22975079.228    94079069.910        1051.310          36.000  
G25  22262531.210   116990323.975        2595.366          39.000    22262540.269    91161444.019        2022.360          37.000  
G28  22452861.715   117990542.624        3031.804          40.000    22452868.702    91940691.714        2362.606          41.000  
G23  20047662.894   105351472.435         438.628          46.000    20047667.409    82092243.944         341.734          48.000  
G24  22130521.202   116296735.567       -3186.854          39.000    22130530.161    90620989.591       -2482.837          38.000  
G15  23945374.014   125833802.040       -2066.518          35.000    23945390.276    98052392.766       -1610.906          32.000  
G18  21399208.547   112453798.792       -2818.351          43.000    21399214.497    87626488.088       -2196.059          44.000  
> 2025 04 20 15 08 56.9990000  0  9                     
G32  22278929.485   117076681.394         811.789          44.000    22278937.593    91228663.424         632.588          41.000  
G10  21648788.650   113765312.050        2513.268          46.000    21648795.075    88648335.368        1958.239          42.000  
G12  22974813.054   120733353.054        1349.088          39.000    22974822.524    94078018.489        1051.326          36.000  
G25  22262037.144   116987728.465        2595.735          39.000    22262046.243    91159421.555        2022.576          37.000  
G28  22452284.736   117987510.941        3031.597          40.000    22452291.739    91938329.400        2362.124          41.000  
G23  20047579.551   105351034.056         438.245          46.000    20047584.057    82091902.350         341.422          48.000  
G24  22131127.602   116299922.318       -3186.803          39.000    22131136.542    90623472.801       -2483.443          38.000  
G15  23945767.324   125835868.996       -2066.592          34.000    23945783.481    98054003.377       -1610.673          32.000  
G18  21399744.877   112456617.295       -2818.884          43.000    21399750.862    87628684.322       -2196.287          44.000  
> 2025 04 20 15 08 57.9990000  0  9                     
G32  22278775.023   117075869.503         811.843          44.000    22278783.105    91228030.790         632.687          41.000  
G10  21648310.359   113762798.713        2513.203          46.000    21648316.765    88646376.934        1958.094          42.000  
G12  22974556.315   120732003.955        1348.789          39.000    22974565.729    94076967.232        1051.333          36.000  
G25  22261543.221   116985133.011        2595.131          39.000    22261552.359    91157399.104        2022.637          37.000  
G28  22451707.812   117984479.497        3031.344          40.000    22451714.837    91935967.239        2361.699          41.000  
G23  20047496.220   105350595.941         437.945          46.000    20047500.691    82091560.965         341.217          48.000  
G24  22131733.919   116303109.214       -3186.969          39.000    22131743.074    90625956.086       -2483.598          38.000  
G15  23946160.555   125837935.716       -2065.847          34.000    23946176.636    98055613.811       -1610.752          32.000  
G18  21400281.328   112459436.018       -2818.977          43.000    21400287.363    87630880.736       -2196.662          44.000  
> 2025 04 20 15 08 58.9990000  0  9                     
G32  22278620.580   117075057.715         811.634          44.000    22278628.650    91227398.234         632.489          41.000  
G10  21647832.103   113760285.461        2513.233          46.000    21647838.599    88644418.545        1958.420          42.000  
G12  22974299.781   120730655.228        1348.622          39.000    22974309.058    94075916.313        1050.658          36.000  
G25  22261049.513   116982537.683        2595.394          39.000    22261058.465    91155376.785        2022.132          37.000  
G28  22451130.960   117981448.385        3030.868          40.000    22451138.060    91933605.333        2361.567          41.000  
G23  20047412.947   105350158.252         437.388          46.000    20047417.468    82091219.905         340.875          48.000  
G24  22132340.426   116306296.347       -3187.417          39.000    22132349.605    90628439.566       -2483.701          38.000  
G15  23946553.845   125840002.472       -2066.583          34.000    23946569.923    98057224.266       -1610.930          32.000  
G18  21400817.823   112462255.111       -2819.447          43.000    21400823.789    87633077.422       -2196.898          44.000  
> 2025 04 20 15 08 59.9990000  0  9                     
G32  22278466.050   117074246.014         811.639          44.000    22278474.183    91226765.741         632.590          41.000  
G10  21647353.848   113757772.322        2512.957          46.000    21647360.323    88642460.256        1958.333          43.000  
G12  22974043.148   120729306.892        1348.092          39.000    22974052.420    94074865.660        1050.319          36.000  
G25  22260555.584   116979942.532        2595.213          39.000    22260564.596    91153354.589        2022.114          37.000  
G28  22450554.193   117978417.616        3030.469          40.000    22450561.364    91931243.696        2361.394          41.000  
G23  20047329.828   105349720.978         437.022          46.000    20047334.258    82090879.174         340.532          48.000  
G24  22132947.075   116309483.728       -3187.458          38.000    22132956.180    90630923.256       -2484.004          38.000  
G15  23946947.110   125842069.180       -2066.286          34.000    23946963.263    98058834.667       -1610.732          32.000  
G18  21401354.284   112465074.565       -2819.661          43.000    21401360.300    87635274.397       -2197.029          44.000  
> 2025 04 20 15 09 00.9990000  0  9                     
G32  22278311.603   117073434.456         811.311          44.000    22278319.731    91226133.365         632.200          41.000  
G10  21646875.714   113755259.334        2512.941          46.000    21646882.219    88640502.092        1958.273          43.000  
G12  22973786.681   120727958.998        1347.692          39.000    22973795.985    94073815.342        1050.363          36.000  
G25  22260061.825   116977347.627        2594.644          39.000    22260070.810    91151332.595        2022.119          37.000  
G28  22449977.531   117975387.248        3030.094          40.000    22449984.664    91928882.392        2360.860          41.000  
G23  20047246.687   105349284.186         436.417          46.000    20047251.114    82090538.815         340.192          48.000  
G24  22133553.738   116312671.471       -3188.221          39.000    22133562.799    90633407.182       -2484.380          38.000  
G15  23947340.316   125844135.918       -2066.560          35.000    23947356.586    98060445.108       -1610.666          32.000  
G18  21401890.947   112467894.458       -2820.138          43.000    21401896.917    87637471.714       -2197.472          44.000  
> 2025 04 20 15 09 01.9990000  0  9                     
G32  22278157.150   117072623.061         811.195          44.000    22278165.274    91225501.115         632.035          41.000  
G10  21646397.467   113752746.543        2512.540          46.000    21646404.055    88638544.083        1957.836          42.000  
G12  22973530.188   120726611.562        1347.363          39.000    22973539.554    94072765.408        1049.551          36.000  
G25  22259568.032   116974752.915        2594.542          39.000    22259577.031    91149310.739        2021.713          38.000  
G28  22449400.896   117972357.314        3029.720          40.000    22449408.142    91926521.391        2360.820          41.000  
G23  20047163.681   105348847.885         435.988          46.000    20047168.044    82090198.850         339.624          48.000  
G24  22134160.483   116315859.489       -3188.659          38.000    22134169.482    90635891.339       -2484.084          38.000  
G15  23947733.620   125846202.708       -2066.856          35.000    23947749.914    98062055.563       -1610.413          32.000  
G18  21402427.655   112470714.796       -2820.715          43.000    21402433.557    87639669.388       -2198.002          44.000  
