     3.04           OBSERVATION DATA    G: GPS              RINEX VERSION / TYPE
RTKCONV demo5 b34i                      20250514 081244 UTC PGM / RUN BY / DATE 
format: u-blox UBX                                          COMMENT             
log: D:\20242\NGUYENDS\GNSS_DOA_Spoofing\hai\spoof\SP-2025-0COMMENT             
                                                            MARKER NAME         
                                                            MARKER NUMBER       
                                                            MARKER TYPE         
                                                            OBSERVER / AGENCY   
                                                            REC # / TYPE / VERS 
                                                            ANT # / TYPE        
 -1626589.5179  5730541.5951  2271880.7118                  APPROX POSITION XYZ 
        0.0000        0.0000        0.0000                  ANTENNA: DELTA H/E/N
G    8 C1C L1C D1C S1C C2X L2X D2X S2X                      SYS / # / OBS TYPES 
  2025    05    14    07    44   52.0030000     GPS         TIME OF FIRST OBS   
  2025    05    14    07    51   57.0030000     GPS         TIME OF LAST OBS    
G L1C                                                       SYS / PHASE SHIFT   
G L2X  0.00000                                              SYS / PHASE SHIFT   
  0                                                         GLONASS SLOT / FRQ #
                                                            GLONASS COD/PHS/BIS 
                                                            END OF HEADER       
> 2025 05 14 07 44 52.0030000  0 10                     
G05  21705192.797   114061562.8401       -289.191          40.000    21705195.965    88879155.6751       -225.476          40.000  
G06  24704585.199   129823431.8421      -1363.946          34.000    24704602.667   101161163.1031      -1062.695          35.000  
G11  22938993.339   120545207.4221       -491.396          39.000    22938997.986    93931349.7551       -382.525          40.000  
G12  23886056.602   125522051.7921      -2222.297          35.000    23886067.264    97809423.5271      -1731.693          36.000  
G13  21975840.807   115483832.9541       2428.913          40.000                                                                  
G19  24872449.447   130705605.4581      -3646.906          32.000                                                                  
G20  22348988.598   117444721.1741      -1625.187          40.000                                                                  
G15  23717824.073   124638018.5461       3489.743          35.000    23717834.966    97120599.9081       2719.726          37.000  
G25  24329530.191   127852504.1651      -1032.682          33.000    24329549.588    99625391.5241       -805.011          35.000  
G29  24474903.817   128616499.2011       3257.217          34.000    24474912.740   100220689.5821       2538.233          37.000  
> 2025 05 14 07 44 53.0030000  0 10                     
G05  21705247.885   114061851.693        -288.861          40.000    21705251.029    88879380.751        -225.098          40.000  
G06  24704844.816   129824795.924       -1363.965          33.000    24704862.196   101162226.003       -1062.354          34.000  
G11  22939086.692   120545698.494        -490.892          39.000    22939091.389    93931732.444        -382.724          40.000  
G12  23886479.518   125524273.910       -2221.994          34.000    23886490.049    97811155.021       -1731.017          36.000  
G13  21975378.668   115481403.882        2429.056          40.000                                                                  
G19  24873143.514   130709252.595       -3647.089          32.000                                                                  
G20  22349297.698   117446345.864       -1624.376          40.000                                                                  
G15  23717160.029   124634528.477        3489.867          35.000    23717170.864    97117880.406        2719.213          37.000  
G25  24329726.706   127853536.744       -1032.853          33.000    24329746.109    99626196.101        -804.535          36.000  
G29  24474283.903   128613241.827        3257.095          33.000    24474292.923   100218151.366        2537.837          37.000  
> 2025 05 14 07 44 54.0030000  0 10                     
G05  21705302.894   114062140.776        -289.343          40.000    21705306.123    88879606.010        -225.397          40.000  
G06  24705104.095   129826160.007       -1364.233          33.000    24705121.742   101163288.924       -1063.208          35.000  
G11  22939180.061   120546189.584        -491.096          39.000    22939184.801    93932115.107        -383.014          40.000  
G12  23886902.358   125526496.145       -2222.448          34.000    23886912.944    97812886.624       -1731.987          36.000  
G13  21974916.456   115478975.148        2428.470          40.000                                                                  
G19  24873837.437   130712899.837       -3647.815          31.000                                                                  
G20  22349606.764   117447970.561       -1624.792          39.000                                                                  
G15  23716495.796   124631038.459        3489.453          35.000    23716506.758    97115160.883        2719.694          36.000  
G25  24329923.307   127854569.605       -1032.837          33.000    24329942.577    99627000.881        -804.737          36.000  
G29  24473663.865   128609984.471        3256.917          33.000    24473673.049   100215613.178        2537.920          37.000  
> 2025 05 14 07 44 55.0030000  0 10                     
G05  21705358.014   114062430.266        -289.563          40.000    21705361.171    88879831.598        -225.836          40.000  
G06  24705363.687   129827524.278       -1364.722          33.000    24705381.370   101164351.956       -1063.116          35.000  
G11  22939273.494   120546680.853        -491.314          39.000    22939278.277    93932497.892        -382.818          40.000  
G12  23887325.169   125528718.625       -2222.185          34.000    23887335.880    97814618.440       -1731.973          36.000  
G13  21974454.312   115476546.902        2427.839          40.000                                                                  
G19  24874531.485   130716547.279       -3647.638          31.000                                                                  
G20  22349915.901   117449595.393       -1624.801          39.000                                                                  
G15  23715831.757   124627548.691        3489.712          35.000    23715842.721    97112441.611        2719.118          36.000  
G25  24330120.098   127855602.853       -1032.494          34.000    24330139.240    99627806.080        -805.345          36.000  
G29  24473044.013   128606727.372        3256.997          33.000    24473053.230   100213075.180        2537.780          37.000  
> 2025 05 14 07 44 56.0030000  0 10                     
G05  21705413.088   114062720.038        -290.045          40.000    21705416.276    88880057.392        -225.989          40.000  
G06  24705623.187   129828888.584       -1364.380          33.000    24705640.962   101165415.089       -1063.788          35.000  
G11  22939367.039   120547172.186        -491.306          39.000    22939371.800    93932880.748        -382.813          40.000  
G12  23887748.100   125530941.330       -2223.177          34.000    23887758.891    97816350.382       -1731.865          36.000  
G13  21973992.227   115474119.023        2427.766          40.000                                                                  
G19  24875225.707   130720194.931       -3647.821          31.000                                                                  
G20  22350225.079   117451220.259       -1624.966          39.000                                                                  
G15  23715167.891   124624059.066        3489.582          35.000    23715178.651    97109722.400        2719.329          36.000  
G25  24330316.786   127856636.503       -1032.876          34.000    24330335.803    99628611.482        -805.135          36.000  
G29  24472424.285   128603470.362        3256.956          34.000    24472433.519   100210537.256        2537.779          37.000  
> 2025 05 14 07 44 57.0030000  0 10                     
G05  21705468.290   114063010.165        -290.149          40.000    21705471.474    88880283.480        -226.386          40.000  
G06  24705882.959   129830253.095       -1364.477          33.000    24705900.563   101166478.293       -1063.037          35.000  
G11  22939460.591   120547663.674        -491.724          39.000    22939465.472    93933263.731        -383.192          40.000  
G12  23888171.217   125533164.289       -2223.181          34.000    23888181.924    97818082.574       -1732.540          36.000  
G13  21973530.270   115471691.625        2427.086          40.000                                                                  
G19  24875920.074   130723842.788       -3648.505          31.000                                                                  
G20  22350534.311   117452845.219       -1625.177          39.000                                                                  
G15  23714503.792   124620569.661        3489.175          35.000    23714514.602    97107003.391        2719.132          36.000  
G25  24330513.584   127857670.577       -1034.084          34.000    24330532.524    99629417.237        -805.506          36.000  
G29  24471804.531   128600213.592        3256.488          34.000    24471813.723   100207999.513        2537.733          36.000  
> 2025 05 14 07 44 58.0030000  0 10                     
G05  21705523.551   114063300.513        -290.564          40.000    21705526.765    88880509.730        -226.624          40.000  
G06  24706142.643   129831617.575       -1364.160          33.000    24706160.260   101167541.520       -1063.037          34.000  
G11  22939554.127   120548155.140        -491.545          39.000    22939558.953    93933646.676        -382.963          40.000  
G12  23888594.272   125535387.278       -2222.470          34.000    23888604.940    97819814.794       -1732.278          36.000  
G13  21973068.502   115469264.523        2426.975          40.000                                                                  
G19  24876614.260   130727490.690       -3648.285          31.000                                                                  
G20  22350843.595   117454470.148       -1625.002          40.000                                                                  
G15  23713839.601   124617080.271        3489.852          35.000    23713850.513    97104284.444        2718.481          36.000  
G25  24330710.423   127858704.935       -1034.877          34.000    24330729.385    99630223.213        -805.982          36.000  
G29  24471184.807   128596956.829        3256.675          34.000    24471194.037   100205461.780        2537.415          36.000  
> 2025 05 14 07 44 59.0030000  0 10                     
G05  21705578.837   114063591.205        -290.778          40.000    21705582.152    88880736.216        -226.508          40.000  
G06  24706402.306   129832982.219       -1364.832          33.000    24706419.907   101168604.858       -1063.403          34.000  
G11  22939647.692   120548646.728        -491.650          39.000    22939652.489    93934029.733        -383.144          40.000  
G12  23889017.375   125537610.589       -2223.460          34.000    23889028.075    97821547.204       -1732.324          36.000  
G13  21972606.540   115466837.866        2426.505          40.000                                                                  
G19  24877308.386   130731138.846       -3648.334          31.000                                                                  
G20  22351152.794   117456095.160       -1625.195          40.000                                                                  
G15  23713175.533   124613591.130        3488.834          35.000    23713186.509    97101565.579        2718.949          36.000  
G25  24330907.395   127859739.656       -1034.875          34.000    24330926.235    99631029.476        -806.576          36.000  
G29  24470565.243   128593700.292        3256.198          35.000    24470574.334   100202924.199        2537.464          36.000  
> 2025 05 14 07 45 00.0030000  0 10                     
G05  21705634.265   114063882.336        -291.010          40.000    21705637.568    88880963.074        -226.715          40.000  
G06  24706661.782   129834347.069       -1364.728          33.000    24706679.682   101169668.377       -1063.635          35.000  
G11  22939741.276   120549138.532        -491.633          38.000    22939746.088    93934412.957        -383.029          40.000  
G12  23889440.441   125539834.200       -2223.313          34.000    23889451.190    97823279.893       -1732.712          36.000  
G13  21972144.844   115464411.746        2426.268          40.000                                                                  
G19  24878002.740   130734787.251       -3647.998          31.000                                                                  
G20  22351462.100   117457720.343       -1624.904          40.000                                                                  
G15  23712511.726   124610102.249        3488.989          35.000    23712522.630    97098846.985        2718.774          36.000  
G25  24331104.443   127860774.851       -1034.676          33.000    24331123.284    99631836.110        -806.277          36.000  
G29  24469945.421   128590443.987        3256.304          35.000    24469954.587   100200386.811        2537.858          36.000  
> 2025 05 14 07 45 01.0030000  0 10                     
G05  21705689.753   114064173.694        -291.473          40.000    21705693.111    88881190.112        -227.313          40.000  
G06  24706921.475   129835711.957       -1365.204          33.000    24706939.384   101170731.899       -1063.568          35.000  
G11  22939834.820   120549630.360        -491.683          39.000    22939839.580    93934796.185        -383.026          40.000  
G12  23889863.541   125542057.931       -2224.187          34.000    23889874.391    97825012.676       -1733.080          36.000  
G13  21971683.242   115461985.954        2425.706          40.000                                                                  
G19  24878697.343   130738435.784       -3648.560          31.000                                                                  
G20  22351771.389   117459345.517       -1625.091          40.000                                                                  
G15  23711847.840   124606613.407        3489.030          35.000    23711858.671    97096128.450        2717.917          36.000  
G25  24331301.566   127861810.358       -1035.441          33.000    24331320.372    99632643.036        -807.769          36.000  
G29  24469325.990   128587187.764        3255.901          35.000    24469334.911   100197849.504        2537.120          36.000  
> 2025 05 14 07 45 02.0030000  0 10                     
G05  21705745.322   114064465.536        -291.943          40.000    21705748.622    88881417.517        -227.618          40.000  
G06  24707181.173   129837077.111       -1365.387          33.000    24707199.247   101171795.648       -1064.032          34.000  
G11  22939928.424   120550122.440        -491.766          38.000    22939933.260    93935179.625        -383.283          40.000  
G12  23890286.920   125544282.051       -2224.640          34.000    23890297.607    97826745.743       -1733.434          36.000  
G13  21971221.858   115459560.755        2424.936          40.000                                                                  
G19  24879391.637   130742084.658       -3648.657          31.000                                                                  
G20  22352080.679   117460970.926       -1625.622          40.000                                                                  
G15  23711184.069   124603124.927        3488.259          35.000    23711194.760    97093410.117        2718.795          36.000  
G25  24331498.555   127862846.442       -1036.781          33.000    24331517.555    99633450.315        -807.812          35.000  
G29  24468706.546   128583931.829        3256.255          35.000    24468715.365   100195312.440        2537.037          36.000  
> 2025 05 14 07 45 03.0030000  0 10                     
G05  21705800.841   114064757.793        -292.480          40.000    21705804.306    88881645.258        -227.966          40.000  
G06  24707441.041   129838442.458       -1366.016          33.000    24707459.013   101172859.556       -1064.185          34.000  
G11  22940022.147   120550614.752        -492.779          39.000    22940026.953    93935563.234        -383.978          40.000  
G12  23890710.310   125546506.432       -2224.388          34.000    23890720.838    97828479.030       -1733.886          36.000  
G13  21970760.424   115457136.064        2424.208          40.000                                                                  
G19  24880086.084   130745733.878       -3650.189          31.000                                                                  
G20  22352390.064   117462596.471       -1625.698          40.000                                                                  
G15  23710520.223   124599636.700        3488.013          35.000    23710531.000    97090692.046        2717.720          36.000  
G25  24331695.763   127863882.922       -1036.565          33.000    24331714.770    99634257.957        -807.961          35.000  
G29  24468087.084   128580676.153        3255.542          35.000    24468095.752   100192775.547        2536.527          36.000  
> 2025 05 14 07 45 04.0030000  0 10                     
G05  21705856.463   114065050.510        -292.786          40.000    21705859.943    88881873.345        -228.345          40.000  
G06  24707701.047   129839808.038       -1365.418          33.000    24707718.902   101173923.645       -1064.203          35.000  
G11  22940115.828   120551107.231        -492.557          38.000    22940120.601    93935946.989        -383.837          40.000  
G12  23891133.601   125548731.169       -2224.946          34.000    23891144.191    97830212.590       -1733.912          36.000  
G13  21970299.022   115454711.902        2423.818          40.000                                                                  
G19  24880780.586   130749383.281       -3648.920          31.000                                                                  
G20  22352699.390   117464222.210       -1625.849          40.000                                                                  
G15  23709856.550   124596148.750        3488.065          35.000    23709867.127    97087974.171        2717.694          36.000  
G25  24331892.833   127864919.955       -1037.314          34.000    24331912.121    99635065.999        -808.095          35.000  
G29  24467467.553   128577420.756        3255.455          35.000    24467476.263   100190238.870        2536.608          36.000  
> 2025 05 14 07 45 05.0030000  0 10                     
G05  21705912.293   114065343.604        -293.561          40.000    21705915.654    88882101.713        -228.363          40.000  
G06  24707960.899   129841173.807       -1365.716          33.000    24707978.883   101174987.862       -1064.465          35.000  
G11  22940209.653   120551599.916        -492.631          38.000    22940214.422    93936330.891        -384.140          40.000  
G12  23891557.016   125550956.183       -2225.138          34.000    23891567.624    97831946.334       -1733.589          36.000  
G13  21969837.737   115452288.240        2423.306          40.000                                                                  
G19  24881475.046   130753033.004       -3649.847          32.000                                                                  
G20  22353008.885   117465848.096       -1625.671          40.000                                                                  
G15  23709192.762   124592661.065        3487.271          35.000    23709203.412    97085256.477        2717.587          36.000  
G25  24332090.093   127865957.407       -1038.019          34.000    24332109.608    99635874.403        -808.374          35.000  
G29  24466848.282   128574165.590        3255.244          35.000    24466856.730   100187702.369        2536.486          36.000  
> 2025 05 14 07 45 06.0030000  0 10                     
G05  21705968.155   114065636.976        -293.561          40.000    21705971.400    88882330.328        -228.534          40.000  
G06  24708220.857   129842539.627       -1365.521          33.000    24708238.830   101176052.122       -1064.197          35.000  
G11  22940303.515   120552092.668        -493.063          38.000    22940308.227    93936714.861        -384.313          40.000  
G12  23891980.496   125553181.387       -2225.518          34.000    23891991.077    97833680.282       -1734.562          36.000  
G13  21969376.617   115449864.944        2423.062          40.000                                                                  
G19  24882169.499   130756682.868       -3649.994          31.000                                                                  
G20  22353318.362   117467474.017       -1626.025          40.000                                                                  
G15  23708529.035   124589173.496        3487.505          35.000    23708539.871    97082538.917        2717.310          36.000  
G25  24332287.656   127866995.192       -1037.873          33.000    24332307.031    99636683.062        -808.661          35.000  
G29  24466228.995   128570910.526        3255.047          35.000    24466237.289   100185165.985        2536.008          36.000  
> 2025 05 14 07 45 07.0030000  0 10                     
G05  21706024.166   114065930.721        -293.781          40.000    21706027.231    88882559.235        -229.163          40.000  
G06  24708480.749   129843905.626       -1365.771          33.000    24708498.756   101177116.558       -1064.447          34.000  
G11  22940397.307   120552585.578        -493.222          38.000    22940402.074    93937098.935        -384.197          40.000  
G12  23892403.940   125555406.847       -2225.940          34.000    23892414.548    97835414.394       -1734.323          36.000  
G13  21968915.559   115447442.136        2422.675          40.000                                                                  
G19  24882864.032   130760332.955       -3649.878          32.000                                                                  
G20  22353627.779   117469100.072       -1626.113          39.000                                                                  
G15  23707865.328   124585686.168        3487.462          35.000    23707876.339    97079821.505        2717.038          36.000  
G25  24332485.074   127868033.427       -1037.945          34.000    24332504.610    99637492.085        -809.062          35.000  
G29  24465609.450   128567655.738        3254.200          35.000    24465617.825   100182629.740        2536.176          36.000  
> 2025 05 14 07 45 08.0030000  0 10                     
G05  21706080.095   114066224.715        -294.080          40.000    21706083.116    88882788.328        -229.407          40.000  
G06  24708740.741   129845271.704       -1366.272          33.000    24708758.751   101178180.987       -1064.410          34.000  
G11  22940491.078   120553078.505        -492.926          38.000    22940495.874    93937483.016        -383.791          40.000  
G12  23892827.404   125557632.394       -2225.586          34.000    23892838.063    97837148.587       -1734.330          36.000  
G13  21968454.664   115445019.664        2422.323          40.000                                                                  
G19  24883558.754   130763983.173       -3650.703          31.000                                                                  
G20  22353937.249   117470726.110       -1626.230          40.000                                                                  
G15  23707201.846   124582198.928        3486.983          35.000    23707212.678    97077104.165        2716.879          36.000  
G25  24332682.703   127869071.953       -1038.380          33.000    24332702.179    99638301.314        -809.677          35.000  
G29  24464990.239   128564400.961        3254.384          35.000    24464998.474   100180093.559        2536.443          36.000  
> 2025 05 14 07 45 09.0030000  0 10                     
G05  21706136.035   114066518.994        -294.495          40.000    21706139.078    88883017.625        -229.224          40.000  
G06  24709000.649   129846637.772       -1365.600          33.000    24709018.746   101179245.467       -1064.459          34.000  
G11  22940584.876   120553571.482        -492.741          38.000    22940589.741    93937867.164        -384.088          40.000  
G12  23893250.855   125559858.145       -2225.588          34.000    23893261.617    97838882.932       -1734.408          36.000  
G13  21967993.773   115442597.581        2421.854          40.000                                                                  
G19  24884253.300   130767633.525       -3650.554          31.000                                                                  
G20  22354246.679   117472352.172       -1625.994          40.000                                                                  
G15  23706538.248   124578711.784        3487.400          35.000    23706549.137    97074386.933        2717.344          37.000  
G25  24332880.367   127870110.820       -1039.008          33.000    24332899.750    99639110.792        -809.404          35.000  
G29  24464370.913   128561146.315        3254.344          35.000    24464379.148   100177557.443        2536.341          36.000  
> 2025 05 14 07 45 10.0030000  0 10                     
G05  21706192.098   114066813.650        -295.044          40.000    21706195.200    88883247.227        -229.852          40.000  
G06  24709260.705   129848004.050       -1366.309          33.000    24709278.751   101180310.102       -1064.716          34.000  
G11  22940678.753   120554064.623        -493.156          38.000    22940683.595    93938251.408        -383.990          41.000  
G12  23893674.409   125562084.159       -2226.265          34.000    23893685.275    97840617.458       -1734.616          37.000  
G13  21967532.930   115440175.945        2421.439          40.000                                                                  
G19  24884948.003   130771284.094       -3650.516          31.000                                                                  
G20  22354556.208   117473978.331       -1626.086          40.000                                                                  
G15  23705874.590   124575224.900        3486.663          35.000    23705885.588    97071669.875        2716.885          36.000  
G25  24333078.237   127871150.126       -1039.940          33.000    24333097.505    99639920.628        -810.386          35.000  
G29  24463751.761   128557891.846        3254.575          35.000    24463759.827   100175021.526        2535.710          36.000  
> 2025 05 14 07 45 11.0030000  0 10                     
G05  21706248.202   114067108.589        -294.952          40.000    21706251.352    88883477.049        -229.865          40.000  
G06  24709520.655   129849370.422       -1365.869          33.000    24709538.637   101181374.747       -1064.374          34.000  
G11  22940772.648   120554557.845        -493.425          39.000    22940777.357    93938635.750        -384.246          40.000  
G12  23894098.032   125564310.346       -2226.182          34.000    23894108.911    97842352.147       -1734.427          37.000  
G13  21967072.190   115437754.716        2421.308          40.000                                                                  
G19  24885642.824   130774934.852       -3651.268          32.000                                                                  
G20  22354865.578   117475604.547       -1626.230          40.000                                                                  
G15  23705211.025   124571738.144        3486.130          35.000    23705222.090    97068952.912        2717.349          36.000  
G25  24333276.296   127872189.706       -1039.237          34.000    24333295.311    99640730.697        -809.979          35.000  
G29  24463132.488   128554637.514        3254.580          35.000    24463140.617   100172485.694        2535.741          36.000  
> 2025 05 14 07 45 12.0030000  0 10                     
G05  21706304.377   114067403.992        -295.746          40.000    21706307.555    88883707.238        -230.481          40.000  
G06  24709780.647   129850737.029       -1366.870          33.000    24709798.728   101182439.658       -1065.363          34.000  
G11  22940866.584   120555051.292        -493.412          38.000    22940871.240    93939020.258        -384.718          41.000  
G12  23894521.660   125566536.874       -2226.757          34.000    23894532.593    97844087.107       -1734.935          36.000  
G13  21966611.559   115435334.051        2420.248          40.000                                                                  
G19  24886337.515   130778585.923       -3651.041          32.000                                                                  
G20  22355175.138   117477230.965       -1626.516          40.000                                                                  
G15  23704547.416   124568251.668        3486.301          35.000    23704558.566    97066236.208        2716.579          37.000  
G25  24333474.435   127873229.874       -1040.071          34.000    24333493.185    99641541.216        -810.539          35.000  
G29  24462513.400   128551383.503        3253.717          35.000    24462521.492   100169950.078        2535.867          37.000  
> 2025 05 14 07 45 13.0030000  0 10                     
G05  21706360.684   114067699.921        -296.429          40.000    21706363.828    88883937.827        -230.872          40.000  
G06  24710040.672   129852103.957       -1366.998          33.000    24710058.869   101183504.765       -1065.613          34.000  
G11  22940960.487   120555545.052        -493.756          38.000    22940965.201    93939404.992        -384.653          40.000  
G12  23894945.411   125568763.779       -2226.468          34.000    23894956.345    97845822.383       -1735.385          36.000  
G13  21966151.096   115432914.004        2419.387          40.000                                                                  
G19  24887032.385   130782237.366       -3651.901          31.000                                                                  
G20  22355484.658   117478857.636       -1626.716          40.000                                                                  
G15  23703884.026   124564765.572        3486.262          35.000    23703895.186    97063519.777        2716.353          36.000  
G25  24333672.563   127874270.585       -1041.008          34.000    24333691.215    99642352.168        -811.685          35.000  
G29  24461894.462   128548129.813        3253.550          35.000    24461902.291   100167414.775        2535.057          37.000  
> 2025 05 14 07 45 14.0030000  0 10                     
G05  21706417.089   114067996.114        -296.344          40.000    21706420.224    88884168.639        -231.085          40.000  
G06  24710300.548   129853470.963       -1367.303          33.000    24710319.071   101184569.937       -1064.807          34.000  
G11  22941054.460   120556038.874        -493.780          38.000    22941059.139    93939789.782        -384.814          41.000  
G12  23895369.288   125570990.928       -2227.085          34.000    23895380.193    97847557.799       -1735.442          36.000  
G13  21965690.609   115430494.314        2419.445          40.000                                                                  
G19  24887727.283   130785888.965       -3652.352          31.000                                                                  
G20  22355794.215   117480484.345       -1626.767          40.000                                                                  
G15  23703220.653   124561279.617        3485.902          35.000    23703231.846    97060803.449        2716.286          36.000  
G25  24333870.601   127875311.658       -1041.081          34.000    24333889.345    99643163.352        -811.324          35.000  
G29  24461275.445   128544876.263        3253.622          34.000    24461283.120   100164879.503        2535.624          37.000  
> 2025 05 14 07 45 15.0030000  0 10                     
G05  21706473.480   114068292.660        -296.509          40.000    21706476.592    88884399.706        -231.152          40.000  
G06  24710560.657   129854838.025       -1366.217          33.000    24710579.267   101185635.205       -1064.978          34.000  
G11  22941148.549   120556532.818        -493.823          39.000    22941153.199    93940174.681        -385.019          41.000  
G12  23895793.193   125573218.275       -2227.285          34.000    23895804.135    97849293.381       -1735.697          36.000  
G13  21965230.330   115428075.109        2418.610          40.000                                                                  
G19  24888422.215   130789540.719       -3651.576          32.000                                                                  
G20  22356103.720   117482111.144       -1626.650          40.000                                                                  
G15  23702557.454   124557793.892        3485.352          35.000    23702568.652    97058087.292        2715.734          36.000  
G25  24334068.909   127876353.142       -1042.219          34.000    24334087.637    99643974.851        -811.218          36.000  
G29  24460656.444   128541622.899        3252.999          35.000    24460663.916   100162344.453        2534.706          37.000  
> 2025 05 14 07 45 16.0030000  0 10                     
G05  21706529.971   114068589.612        -297.345          40.000    21706533.041    88884631.082        -231.445          41.000  
G06  24710820.811   129856205.390       -1367.603          33.000    24710839.572   101186700.651       -1065.961          34.000  
G11  22941242.555   120557026.932        -494.111          39.000    22941247.210    93940559.693        -385.076          40.000  
G12  23896217.270   125575445.911       -2227.270          34.000    23896228.004    97851029.168       -1735.250          36.000  
G13  21964770.073   115425656.349        2418.855          40.000                                                                  
G19  24889117.236   130793192.777       -3651.679          32.000                                                                  
G20  22356413.277   117483738.073       -1626.982          40.000                                                                  
G15  23701894.083   124554308.328        3485.622          35.000    23701905.359    97055371.252        2716.357          36.000  
G25  24334267.212   127877395.034       -1042.029          34.000    24334286.052    99644786.721        -811.703          36.000  
G29  24460037.373   128538369.729        3253.074          34.000    24460044.932   100159809.499        2535.190          37.000  
> 2025 05 14 07 45 17.0030000  0 10                     
G05  21706586.634   114068886.881        -297.723          40.000    21706589.595    88884862.731        -231.879          40.000  
G06  24711081.037   129857572.821       -1367.352          33.000    24711099.864   101187766.177       -1066.125          34.000  
G11  22941336.601   120557521.197        -494.590          39.000    22941341.371    93940944.804        -385.064          40.000  
G12  23896641.131   125577673.758       -2227.806          34.000    23896651.905    97852765.203       -1736.533          36.000  
G13  21964309.899   115423238.089        2417.981          40.000                                                                  
G19  24889812.165   130796845.064       -3652.186          32.000                                                                  
G20  22356722.847   117485365.098       -1627.273          40.000                                                                  
G15  23701230.829   124550822.993        3485.602          35.000    23701242.114    97052655.429        2715.880          36.000  
G25  24334465.676   127878437.344       -1043.124          34.000    24334484.387    99645598.909        -812.409          36.000  
G29  24459418.527   128535116.734        3253.201          34.000    24459425.863   100157274.717        2534.563          37.000  
> 2025 05 14 07 45 18.0030000  0 10                     
G05  21706643.174   114069184.450        -297.284          40.000    21706646.164    88885094.614        -232.019          40.000  
G06  24711341.477   129858940.365       -1367.352          33.000    24711360.117   101188831.784       -1065.179          35.000  
G11  22941430.623   120558015.506        -493.897          39.000    22941435.513    93941330.003        -384.878          40.000  
G12  23897065.152   125579901.820       -2228.107          34.000    23897075.877    97854501.339       -1736.135          36.000  
G13  21963849.809   115420820.186        2417.825          40.000                                                                  
G19  24890507.139   130800497.519       -3652.790          31.000                                                                  
G20  22357032.384   117486992.167       -1626.873          40.000                                                                  
G15  23700567.522   124547337.844        3484.698          34.000    23700578.907    97049939.725        2715.459          36.000  
G25  24334664.055   127879479.967       -1042.588          34.000    24334682.798    99646411.363        -812.472          36.000  
G29  24458799.607   128531863.920        3252.807          34.000    24458806.863   100154740.048        2534.798          36.000  
> 2025 05 14 07 45 19.0030000  0 10                     
G05  21706699.798   114069482.404        -298.285          40.000    21706703.015    88885326.771        -232.239          40.000  
G06  24711601.819   129860308.034       -1367.395          33.000    24711620.418   101189897.497       -1065.521          34.000  
G11  22941524.735   120558510.001        -494.658          39.000    22941529.724    93941715.308        -385.506          40.000  
G12  23897489.136   125582130.107       -2228.369          34.000    23897499.877    97856237.682       -1736.493          36.000  
G13  21963389.714   115418402.768        2417.003          40.000                                                                  
G19  24891202.201   130804150.154       -3653.346          31.000                                                                  
G20  22357341.945   117488619.346       -1627.364          40.000                                                                  
G15  23699904.374   124543852.839        3484.768          35.000    23699915.711    97047224.147        2715.506          36.000  
G25  24334862.677   127880523.063       -1043.779          34.000    24334881.161    99647224.119        -813.070          36.000  
G29  24458180.653   128528611.235        3253.044          34.000    24458187.897   100152205.527        2534.418          36.000  
> 2025 05 14 07 45 20.0030000  0 10                     
G05  21706756.655   114069780.745        -298.499          40.000    21706759.966    88885559.250        -232.636          40.000  
G06  24711862.233   129861675.943       -1367.847          33.000    24711880.780   101190963.397       -1065.918          34.000  
G11  22941618.889   120559004.640        -494.286          39.000    22941623.855    93942100.745        -385.254          40.000  
G12  23897913.203   125584358.693       -2228.691          34.000    23897923.960    97857974.225       -1736.772          36.000  
G13  21962929.698   115415985.815        2417.166          40.000                                                                  
G19  24891897.263   130807803.060       -3652.739          31.000                                                                  
G20  22357651.595   117490246.665       -1627.065          40.000                                                                  
G15  23699241.295   124540368.132        3484.404          35.000    23699252.620    97044508.763        2715.612          37.000  
G25  24335061.240   127881566.581       -1044.036          34.000    24335079.682    99648037.245        -813.362          36.000  
G29  24457561.686   128525358.847        3252.373          34.000    24457569.002   100149671.177        2534.314          37.000  
> 2025 05 14 07 45 21.0030000  0 10                     
G05  21706813.456   114070079.534        -299.188          40.000    21706816.834    88885792.073        -233.014          40.000  
G06  24712122.456   129863044.063       -1368.524          33.000    24712141.171   101192029.422       -1065.967          34.000  
G11  22941713.034   120559499.524        -495.365          38.000    22941718.060    93942486.351        -385.609          40.000  
G12  23898337.239   125586587.586       -2228.991          34.000    23898348.093    97859711.024       -1737.126          36.000  
G13  21962469.795   115413569.433        2416.035          40.000                                                                  
G19  24892592.537   130811456.282       -3653.242          31.000                                                                  
G20  22357961.383   117491874.159       -1627.634          40.000                                                                  
G15  23698578.158   124536883.655        3484.556          35.000    23698589.574    97041793.630        2714.920          37.000  
G25  24335259.874   127882610.554       -1043.899          34.000    24335278.393    99648850.719        -813.302          35.000  
G29  24456942.813   128522106.697        3252.153          34.000    24456950.167   100147137.036        2533.951          37.000  
> 2025 05 14 07 45 22.0030000  0 10                     
G05  21706870.399   114070378.583        -299.207          40.000    21706873.826    88886025.107        -233.136          40.000  
G06  24712382.825   129864412.203       -1367.755          33.000    24712401.599   101193095.507       -1065.411          34.000  
G11  22941807.231   120559994.423        -494.854          38.000    22941812.298    93942871.995        -385.406          40.000  
G12  23898761.299   125588816.652       -2228.880          34.000    23898772.285    97861447.932       -1736.900          36.000  
G13  21962010.155   115411153.382        2415.981          40.000                                                                  
G19  24893287.711   130815109.636       -3653.616          31.000                                                                  
G20  22358271.092   117493501.668       -1627.406          40.000                                                                  
G15  23697915.138   124533399.343        3484.115          35.000    23697926.500    97039078.583        2714.699          37.000  
G25  24335458.398   127883654.916       -1044.705          33.000    24335477.058    99649664.492        -813.732          36.000  
G29  24456324.003   128518854.668        3252.056          34.000    24456331.305   100144602.997        2534.256          37.000  
> 2025 05 14 07 45 23.0030000  0 10                     
G05  21706927.387   114070678.029        -299.493          40.000    21706930.732    88886258.438        -233.447          40.000  
G06  24712643.182   129865780.565       -1368.481          33.000    24712662.072   101194161.751       -1066.058          35.000  
G11  22941901.359   120560489.526        -495.023          39.000    22941906.441    93943257.795        -385.978          40.000  
G12  23899185.666   125591045.998       -2229.389          34.000    23899196.493    97863185.097       -1737.535          36.000  
G13  21961550.455   115408737.857        2415.364          40.000                                                                  
G19  24893982.734   130818763.208       -3653.461          31.000                                                                  
G20  22358580.808   117495129.342       -1627.567          39.000                                                                  
G15  23697252.112   124529915.278        3483.838          35.000    23697263.532    97036363.721        2714.982          36.000  
G25  24335657.045   127884699.717       -1045.147          33.000    24335675.916    99650478.605        -814.505          36.000  
G29  24455705.259   128515602.842        3252.114          34.000    24455712.525   100142069.132        2533.677          37.000  
> 2025 05 14 07 45 24.0030000  0 10                     
G05  21706984.422   114070977.817        -299.884          40.000    21706987.840    88886492.040        -233.716          40.000  
G06  24712903.754   129867149.080       -1368.744          33.000    24712922.460   101195228.109       -1066.150          35.000  
G11  22941995.544   120560984.754        -495.302          38.000    22942000.712    93943643.672        -385.955          40.000  
G12  23899609.886   125593275.565       -2229.515          34.000    23899620.804    97864922.420       -1737.398          36.000  
G13  21961090.861   115406322.779        2414.868          40.000                                                                  
G19  24894678.117   130822417.014       -3653.200          31.000                                                                  
G20  22358890.578   117496757.079       -1627.726          40.000                                                                  
G15  23696589.199   124526431.396        3483.647          35.000    23696600.648    97033649.012        2714.529          36.000  
G25  24335856.056   127885744.841       -1045.174          33.000    24335874.727    99651293.019        -814.885          36.000  
G29  24455086.447   128512351.222        3252.198          35.000    24455093.780   100139535.397        2533.858          37.000  
> 2025 05 14 07 45 25.0030000  0 10                     
G05  21707041.553   114071277.898        -300.031          40.000    21707044.846    88886725.872        -234.021          40.000  
G06  24713164.178   129868517.649       -1368.359          33.000    24713182.825   101196294.548       -1066.785          34.000  
G11  22942089.898   120561480.067        -494.838          38.000    22942095.047    93944029.640        -386.191          40.000  
G12  23900034.062   125595505.365       -2230.035          34.000    23900045.124    97866659.906       -1737.580          36.000  
G13  21960631.420   115403908.089        2414.463          40.000                                                                  
G19  24895373.382   130826071.042       -3654.715          31.000                                                                  
G20  22359200.420   117498384.890       -1627.836          40.000                                                                  
G15  23695926.200   124522947.661        3483.865          35.000    23695937.791    97030934.427        2714.515          37.000  
G25  24336055.130   127886790.429       -1046.272          33.000    24336073.711    99652107.727        -814.911          35.000  
G29  24454467.787   128509099.784        3251.169          34.000    24454475.106   100137001.786        2533.644          37.000  
> 2025 05 14 07 45 26.0030000  0 10                     
G05  21707098.677   114071578.355        -300.305          40.000    21707101.897    88886959.983        -233.990          40.000  
G06  24713424.741   129869886.410       -1369.501          33.000    24713443.409   101197361.070       -1066.614          35.000  
G11  22942184.167   120561975.531        -495.501          38.000    22942189.367    93944415.704        -385.979          40.000  
G12  23900458.479   125597735.348       -2229.860          34.000    23900469.415    97868397.560       -1737.623          36.000  
G13  21960172.168   115401493.880        2413.950          40.000                                                                  
G19  24896068.888   130829725.218       -3653.807          31.000                                                                  
G20  22359510.278   117500012.783       -1627.593          40.000                                                                  
G15  23695263.329   124519464.188        3482.903          34.000    23695274.922    97028220.027        2714.168          37.000  
G25  24336254.018   127887836.383       -1046.371          33.000    24336272.837    99652922.743        -815.434          35.000  
G29  24453849.029   128505848.477        3251.332          35.000    24453856.452   100134468.339        2533.064          37.000  
> 2025 05 14 07 45 27.0030000  0 10                     
G05  21707155.985   114071879.195        -301.257          40.000    21707159.132    88887194.418        -235.046          40.000  
G06  24713685.149   129871255.302       -1369.061          33.000    24713703.884   101198427.755       -1066.846          35.000  
G11  22942278.544   120562471.165        -495.823          38.000    22942283.672    93944801.901        -386.415          40.000  
G12  23900882.785   125599965.628       -2230.087          34.000    23900893.847    97870135.437       -1737.994          37.000  
G13  21959712.739   115399080.146        2413.367          40.000                                                                  
G19  24896764.311   130833379.669       -3654.956          31.000                                                                  
G20  22359820.100   117501640.805       -1627.997          40.000                                                                  
G15  23694600.466   124515980.887        3482.663          34.000    23694612.107    97025505.748        2714.536          37.000  
G25  24336453.144   127888882.760       -1047.036          33.000    24336471.955    99653738.104        -815.502          35.000  
G29  24453230.449   128502597.414        3250.636          35.000    24453237.788   100131935.033        2533.017          37.000  
> 2025 05 14 07 45 28.0030000  0 10                     
G05  21707213.334   114072180.392        -301.288          40.000    21707216.567    88887429.112        -234.735          40.000  
G06  24713945.512   129872624.407       -1369.312          33.000    24713964.410   101199494.552       -1066.321          35.000  
G11  22942372.886   120562966.948        -496.039          38.000    22942378.072    93945188.210        -385.910          40.000  
G12  23901307.102   125602196.185       -2230.118          34.000    23901318.251    97871873.507       -1737.841          37.000  
G13  21959253.580   115396666.908        2413.193          40.000                                                                  
G19  24897459.844   130837034.379       -3655.172          32.000                                                                  
G20  22360129.909   117503268.968       -1627.990          40.000                                                                  
G15  23693937.635   124512497.810        3483.624          34.000    23693949.317    97022791.700        2714.132          36.000  
G25  24336652.676   127889929.570       -1046.339          33.000    24336671.109    99654553.785        -815.997          35.000  
G29  24452611.845   128499346.568        3251.046          35.000    24452619.227   100129401.900        2533.279          37.000  
> 2025 05 14 07 45 29.0030000  0 10                     
G05  21707270.727   114072481.853        -301.404          40.000    21707273.935    88887664.018        -235.144          40.000  
G06  24714205.979   129873993.564       -1369.592          33.000    24714224.971   101200561.403       -1066.412          35.000  
G11  22942467.276   120563462.759        -495.626          38.000    22942472.470    93945574.556        -385.859          40.000  
G12  23901731.559   125604426.863       -2230.315          34.000    23901742.758    97873611.728       -1738.399          37.000  
G13  21958794.416   115394254.020        2412.428          40.000                                                                  
G19  24898155.285   130840689.193       -3655.325          32.000                                                                  
G20  22360439.812   117504897.134       -1628.112          40.000                                                                  
G15  23693274.795   124509014.878        3483.177          34.000    23693286.559    97020077.732        2713.867          36.000  
G25  24336852.107   127890976.739       -1047.295          33.000    24336870.421    99655369.739        -815.582          35.000  
G29  24451993.392   128496095.815        3250.424          35.000    24452000.632   100126868.841        2533.069          37.000  
> 2025 05 14 07 45 30.0030000  0 10                     
G05  21707328.098   114072783.734        -302.185          40.000    21707331.429    88887899.245        -235.382          40.000  
G06  24714466.509   129875362.865       -1369.458          33.000    24714485.566   101201628.432       -1067.047          35.000  
G11  22942561.688   120563958.782        -496.120          38.000    22942566.817    93945961.087        -386.581          40.000  
G12  23902156.146   125606657.915       -2231.719          34.000    23902167.350    97875350.151       -1738.596          37.000  
G13  21958335.429   115391841.642        2411.870          40.000                                                                  
G19  24898850.731   130844344.214       -3654.552          31.000                                                                  
G20  22360749.676   117506525.465       -1628.857          40.000                                                                  
G15  23692611.958   124505532.184        3482.490          34.000    23692623.873    97017363.962        2713.474          36.000  
G25  24337051.802   127892024.322       -1047.668          34.000    24337069.782    99656186.067        -816.658          35.000  
G29  24451374.863   128492845.309        3250.401          35.000    24451381.980   100124336.009        2532.623          36.000  
> 2025 05 14 07 45 31.0030000  0 10                     
G05  21707385.592   114073085.869        -302.264          40.000    21707388.854    88888134.671        -235.455          40.000  
G06  24714727.242   129876732.283       -1369.720          33.000    24714746.113   101202695.476       -1067.169          35.000  
G11  22942655.999   120564454.847        -496.071          38.000    22942661.170    93946347.625        -386.584          40.000  
G12  23902580.713   125608889.032       -2231.049          34.000    23902591.921    97877088.701       -1738.328          37.000  
G13  21957876.467   115389429.619        2411.611          40.000                                                                  
G19  24899546.347   130847999.453       -3654.841          32.000                                                                  
G20  22361059.489   117508153.761       -1628.190          40.000                                                                  
G15  23691949.293   124502049.620        3482.084          34.000    23691961.190    97014650.268        2713.512          36.000  
G25  24337251.306   127893072.247       -1048.029          34.000    24337269.264    99657002.604        -816.601          35.000  
G29  24450756.440   128489594.923        3250.149          35.000    24450763.464   100121803.231        2532.610          36.000  
> 2025 05 14 07 45 32.0030000  0 10                     
G05  21707443.082   114073388.348        -302.777          40.000    21707446.374    88888370.381        -235.803          40.000  
G06  24714987.745   129878101.836       -1369.922          33.000    24715006.800   101203762.628       -1067.053          35.000  
G11  22942750.522   120564951.050        -496.208          38.000    22942755.618    93946734.267        -386.717          40.000  
G12  23903005.249   125611120.399       -2230.935          34.000    23903016.557    97878827.449       -1739.268          37.000  
G13  21957417.618   115387018.054        2411.216          40.000                                                                  
G19  24900241.810   130851654.891       -3655.504          31.000                                                                  
G20  22361369.272   117509782.182       -1628.665          40.000                                                                  
G15  23691286.683   124498567.226        3482.300          34.000    23691298.497    97011936.711        2713.231          36.000  
G25  24337450.853   127894120.532       -1048.069          34.000    24337468.707    99657819.434        -816.341          35.000  
G29  24450137.883   128486344.680        3250.263          35.000    24450144.846   100119270.573        2532.586          36.000  
> 2025 05 14 07 45 33.0030000  0 10                     
G05  21707500.785   114073691.313        -303.040          40.000    21707503.939    88888606.458        -236.298          40.000  
G06  24715248.468   129879471.648       -1369.617          33.000    24715267.500   101204830.010       -1067.480          35.000  
G11  22942845.014   120565447.511        -496.181          38.000    22942850.147    93947121.128        -386.896          40.000  
G12  23903429.822   125613352.191       -2231.986          34.000    23903441.131    97880566.466       -1739.359          36.000  
G13  21956958.796   115384607.078        2410.769          40.000                                                                  
G19  24900937.636   130855310.615       -3655.129          31.000                                                                  
G20  22361679.191   117511410.828       -1628.462          40.000                                                                  
G15  23690624.118   124495085.199        3481.873          34.000    23690635.969    97009223.450        2713.109          36.000  
G25  24337650.395   127895169.419       -1048.632          34.000    24337668.273    99658636.757        -817.604          35.000  
G29  24449519.504   128483094.785        3250.026          35.000    24449526.366   100116738.203        2531.891          36.000  
> 2025 05 14 07 45 34.0030000  0 10                     
G05  21707558.504   114073994.495        -303.577          40.000    21707561.597    88888842.696        -236.566          40.000  
G06  24715509.172   129880841.488       -1370.728          33.000    24715528.188   101205897.383       -1067.487          35.000  
G11  22942939.534   120565943.993        -497.076          38.000    22942944.577    93947507.968        -386.889          40.000  
G12  23903854.594   125615584.053       -2232.345          33.000    23903865.802    97882305.591       -1739.957          36.000  
G13  21956500.040   115382196.413        2410.257          40.000                                                                  
G19  24901633.284   130858966.508       -3656.135          31.000                                                                  
G20  22361989.141   117513039.444       -1629.120          40.000                                                                  
G15  23689961.519   124491603.197        3481.561          34.000    23689973.333    97006510.213        2712.906          36.000  
G25  24337849.918   127896218.535       -1049.113          33.000    24337867.990    99659454.243        -817.805          36.000  
G29  24448901.109   128479844.953        3249.287          35.000    24448907.932   100114205.842        2532.201          36.000  
> 2025 05 14 07 45 35.0030000  0 10                     
G05  21707616.208   114074298.040        -303.961          40.000    21707619.418    88889079.220        -236.584          40.000  
G06  24715769.928   129882211.451       -1369.617          33.000    24715788.899   101206964.881       -1067.444          35.000  
G11  22943034.051   120566440.613        -497.022          38.000    22943039.042    93947894.939        -386.997          40.000  
G12  23904279.407   125617816.136       -2231.615          34.000    23904290.659    97884044.891       -1739.695          36.000  
G13  21956041.445   115379786.238        2409.631          40.000                                                                  
G19  24902329.074   130862622.597       -3656.408          31.000                                                                  
G20  22362298.980   117514668.157       -1628.685          40.000                                                                  
G15  23689298.818   124488121.460        3481.330          34.000    23689310.754    97003797.161        2712.863          36.000  
G25  24338049.517   127897268.123       -1050.122          34.000    24338067.665    99660272.047        -817.667          36.000  
G29  24448282.674   128476595.327        3249.150          35.000    24448289.538   100111673.679        2531.594          36.000  
> 2025 05 14 07 45 36.0030000  0 10                     
G05  21707674.084   114074601.904        -304.059          40.000    21707677.212    88889316.010        -236.957          40.000  
G06  24716030.766   129883581.572       -1370.441          33.000    24716049.673   101208032.518       -1067.700          35.000  
G11  22943128.590   120566937.323        -496.763          38.000    22943133.487    93948281.990        -387.284          40.000  
G12  23904704.199   125620048.486       -2232.568          34.000    23904715.551    97885784.354       -1739.506          36.000  
G13  21955582.801   115377376.463        2409.472          40.000                                                                  
G19  24903024.700   130866278.830       -3656.318          31.000                                                                  
G20  22362608.943   117516296.958       -1629.040          40.000                                                                  
G15  23688636.345   124484639.882        3481.011          34.000    23688648.147    97001084.248        2712.896          36.000  
G25  24338249.363   127898318.027       -1050.387          34.000    24338267.438    99661090.181        -818.644          36.000  
G29  24447664.321   128473345.815        3249.945          35.000    24447671.158   100109141.596        2532.292          36.000  
> 2025 05 14 07 45 37.0030000  0 10                     
G05  21707731.897   114074906.050        -304.199          40.000    21707735.073    88889553.010        -237.207          40.000  
G06  24716291.746   129884951.753       -1370.428          33.000    24716310.410   101209100.174       -1067.365          35.000  
G11  22943223.152   120567434.147        -497.112          38.000    22943228.044    93948669.116        -387.221          40.000  
G12  23905129.135   125622280.960       -2231.876          34.000    23905140.378    97887523.959       -1739.559          36.000  
G13  21955124.346   115374967.087        2409.351          40.000                                                                  
G19  24903720.659   130869935.289       -3657.184          32.000                                                                  
G20  22362918.869   117517925.795       -1628.951          40.000                                                                  
G15  23687973.819   124481158.422        3481.654          34.000    23687985.648    96998371.446        2712.576          36.000  
G25  24338449.260   127899368.298       -1050.336          34.000    24338467.323    99661908.538        -818.397          36.000  
G29  24447046.063   128470096.472        3249.364          35.000    24447052.763   100106609.637        2532.019          36.000  
> 2025 05 14 07 46 13.0030000  0 10                     
G05  21709859.775   114086088.965        -316.559          40.000    21709862.859    88898266.983        -246.393          40.000  
G06  24725698.412   129934374.650       -1375.018          34.000    24725715.643   101247611.112       -1071.381          35.000  
G11  22946643.978   120585408.756        -501.536          38.000    22946648.420    93962675.174        -390.939          40.000  
G12  23920452.464   125702808.063       -2241.638          33.000    23920464.602    97950272.109       -1746.069          36.000  
G13  21938676.133   115288532.668        2392.965          40.000                                                                  
G19  24928795.614   131001707.372       -3664.730          31.000                                                                  
G20  22374089.709   117576626.672       -1632.262          40.000                                                                  
G15  23664149.849   124355962.521        3474.265          34.000    23664161.303    96900816.323        2707.369          36.000  
G25  24345694.832   127937446.546       -1065.130          33.000    24345714.309    99691579.496        -829.405          35.000  
G29  24424810.206   128353246.113        3242.615          35.000    24424817.019   100015557.545        2526.667          36.000  
> 2025 05 14 07 46 14.0030000  0 10                     
G05  21709920.064   114086405.929        -317.365          40.000    21709923.209    88898513.958        -247.199          40.000  
G06  24725960.263   129935750.055       -1375.836          34.000    24725977.413   101248682.870       -1072.186          35.000  
G11  22946739.429   120585910.416        -501.618          38.000    22946743.838    93963066.081        -391.312          40.000  
G12  23920879.081   125705049.085       -2241.490          33.000    23920891.129    97952018.377       -1746.251          36.000  
G13  21938220.760   115286139.985        2392.704          40.000                                                                  
G19  24929493.008   131005371.434       -3664.767          31.000                                                                  
G20  22374400.279   117578258.841       -1632.329          40.000                                                                  
G15  23663488.684   124352488.519        3473.488          35.000    23663500.191    96898109.327        2706.865          36.000  
G25  24345897.558   127938511.576       -1065.531          33.000    24345916.966    99692409.405        -830.263          35.000  
G29  24424193.086   128350003.664        3242.235          35.000    24424199.904   100013030.945        2526.920          36.000  
> 2025 05 14 07 46 15.0030000  0 10                     
G05  21709980.515   114086723.258        -317.603          40.000    21709983.563    88898761.247        -247.571          40.000  
G06  24726222.148   129937125.659       -1375.995          34.000    24726239.218   101249754.740       -1071.808          34.000  
G11  22946834.841   120586412.269        -502.298          39.000    22946839.175    93963457.096        -391.111          40.000  
G12  23921305.622   125707290.425       -2241.504          33.000    23921317.726    97953764.893       -1746.852          36.000  
G13  21937765.581   115283747.849        2391.354          40.000                                                                  
G19  24930190.169   131009035.822       -3665.213          31.000                                                                  
G20  22374710.968   117579891.154       -1632.405          40.000                                                                  
G15  23662827.648   124349014.746        3473.459          35.000    23662839.082    96895402.515        2706.397          36.000  
G25  24346100.393   127939577.006       -1065.155          34.000    24346119.647    99693239.627        -830.408          35.000  
G29  24423576.064   128346761.435        3242.354          35.000    24423582.965   100010504.582        2526.005          36.000  
> 2025 05 14 07 46 16.0030000  0 10                     
G05  21710040.965   114087040.938        -317.938          40.000    21710044.098    88899008.804        -247.961          40.000  
G06  24726483.802   129938501.392       -1376.544          34.000    24726501.078   101250826.729       -1072.473          34.000  
G11  22946930.355   120586914.217        -501.972          39.000    22946934.646    93963848.244        -391.313          40.000  
G12  23921732.234   125709531.962       -2241.247          33.000    23921744.222    97955511.566       -1747.155          36.000  
G13  21937310.459   115281356.104        2391.716          40.000                                                                  
G19  24930887.546   131012700.380       -3665.521          31.000                                                                  
G20  22375021.736   117581523.565       -1632.579          40.000                                                                  
G15  23662166.675   124345541.173        3473.226          35.000    23662178.104    96892695.819        2706.506          36.000  
G25  24346303.265   127940642.886       -1066.339          34.000    24346322.487    99694070.159        -830.658          35.000  
G29  24422959.079   128343519.430        3242.049          35.000    24422966.010   100007978.332        2526.093          36.000  
> 2025 05 14 07 46 17.0030000  0 10                     
G05  21710101.503   114087358.889        -318.066          40.000    21710104.669    88899256.548        -247.827          40.000  
G06  24726745.548   129939877.134       -1375.842          34.000    24726762.943   101251898.766       -1072.711          34.000  
G11  22947025.982   120587416.268        -502.243          39.000    22947030.171    93964239.444        -391.447          40.000  
G12  23922159.019   125711773.734       -2242.352          33.000    23922170.744    97957258.383       -1747.604          36.000  
G13  21936855.399   115278964.809        2390.848          40.000                                                                  
G19  24931584.994   131016364.994       -3664.154          31.000                                                                  
G20  22375332.483   117583155.998       -1632.408          40.000                                                                  
G15  23661505.620   124342067.735        3473.395          35.000    23661517.101    96889989.255        2706.617          36.000  
G25  24346506.193   127941709.066       -1066.525          34.000    24346525.388    99694900.955        -831.333          36.000  
G29  24422342.265   128340277.528        3241.759          35.000    24422349.014   100005452.171        2525.846          36.000  
> 2025 05 14 07 46 18.0030000  0 10                     
G05  21710162.022   114087677.146        -318.610          40.000    21710165.218    88899504.546        -248.468          40.000  
G06  24727007.340   129941253.026       -1375.799          34.000    24727024.698   101252970.860       -1072.156          34.000  
G11  22947121.424   120587918.373        -502.712          39.000    22947125.718    93964630.677        -391.302          40.000  
G12  23922585.516   125714015.579       -2241.615          33.000    23922597.347    97959005.283       -1747.430          36.000  
G13  21936400.488   115276573.861        2390.479          40.000                                                                  
G19  24932282.320   131020029.912       -3665.717          31.000                                                                  
G20  22375643.002   117584788.481       -1633.112          40.000                                                                  
G15  23660844.725   124338594.452        3472.613          34.000    23660856.230    96887282.798        2706.327          36.000  
G25  24346709.273   127942775.618       -1067.513          34.000    24346728.322    99695731.987        -831.467          36.000  
G29  24421725.281   128337035.754        3241.756          35.000    24421732.027   100002926.123        2525.655          36.000  
> 2025 05 14 07 46 19.0030000  0 10                     
G05  21710222.745   114087995.751        -318.475          40.000    21710225.915    88899752.816        -248.682          40.000  
G06  24727269.179   129942629.092       -1376.398          34.000    24727286.575   101254043.103       -1072.803          34.000  
G11  22947216.933   120588420.658        -502.499          39.000    22947221.219    93965022.071        -391.672          40.000  
G12  23923012.198   125716257.781       -2242.556          34.000    23923024.136    97960752.401       -1747.457          36.000  
G13  21935945.583   115274183.422        2390.022          40.000                                                                  
G19  24932979.729   131023694.960       -3665.286          31.000                                                                  
G20  22375953.823   117586421.047       -1632.552          40.000                                                                  
G15  23660183.742   124335121.371        3473.334          34.000    23660195.321    96884576.530        2706.169          36.000  
G25  24346912.224   127943842.553       -1067.474          34.000    24346931.358    99696563.386        -831.624          36.000  
G29  24421108.405   128333794.204        3241.522          35.000    24421115.287   100000400.250        2525.763          36.000  
> 2025 05 14 07 46 20.0030000  0 10                     
G05  21710283.455   114088314.811        -319.092          40.000    21710286.647    88900001.432        -248.749          40.000  
G06  24727530.876   129944005.364       -1376.270          34.000    24727548.486   101255115.516       -1072.357          34.000  
G11  22947312.503   120588923.145        -502.386          39.000    22947316.864    93965413.624        -391.655          40.000  
G12  23923438.865   125718500.258       -2243.221          34.000    23923450.864    97962499.772       -1747.219          36.000  
G13  21935490.794   115271793.525        2389.533          40.000                                                                  
G19  24933677.332   131027360.319       -3664.788          31.000                                                                  
G20  22376264.480   117588053.825       -1632.701          40.000                                                                  
G15  23659522.795   124331648.639        3472.625          34.000    23659534.538    96881870.495        2706.052          36.000  
G25  24347115.482   127944910.020       -1067.200          34.000    24347134.506    99697395.161        -831.660          35.000  
G29  24420491.657   128330552.939        3241.174          35.000    24420498.521    99997874.580        2525.680          36.000  
> 2025 05 14 07 46 21.0030000  0 10                     
G05  21710344.364   114088634.231        -319.843          40.000    21710347.417    88900250.320        -248.938          40.000  
G06  24727793.070   129945381.852       -1377.197          34.000    24727810.393   101256188.057       -1072.363          34.000  
G11  22947408.138   120589425.807        -502.940          39.000    22947412.506    93965805.291        -391.711          40.000  
G12  23923865.490   125720742.973       -2243.563          34.000    23923877.611    97964247.367       -1747.975          36.000  
G13  21935036.031   115269404.106        2388.976          40.000                                                                  
G19  24934374.678   131031025.916       -3665.809          31.000                                                                  
G20  22376575.151   117589686.695       -1632.858          40.000                                                                  
G15  23658861.937   124328176.118        3472.137          35.000    23658873.750    96879164.632        2705.544          36.000  
G25  24347318.829   127945977.873       -1067.732          34.000    24347337.726    99698227.244        -832.259          35.000  
G29  24419875.021   128327311.872        3240.979          35.000    24419881.693    99995349.079        2525.327          36.000  
> 2025 05 14 07 46 22.0030000  0 10                     
G05  21710405.204   114088954.049        -319.794          40.000    21710408.228    88900499.520        -249.097          40.000  
G06  24728055.044   129946758.479       -1377.106          34.000    24728072.411   101257260.755       -1072.729          34.000  
G11  22947503.886   120589928.635        -502.578          39.000    22947508.261    93966197.100        -391.594          40.000  
G12  23924292.206   125722985.950       -2242.590          34.000    23924304.414    97965995.131       -1747.589          37.000  
G13  21934581.361   115267015.169        2389.188          40.000                                                                  
G19  24935072.334   131034691.792       -3665.967          31.000                                                                  
G20  22376885.947   117591319.721       -1632.864          40.000                                                                  
G15  23658201.104   124324703.825        3472.325          35.000    23658213.051    96876458.955        2705.980          36.000  
G25  24347521.923   127947046.173       -1067.930          33.000    24347541.085    99699059.689        -832.526          36.000  
G29  24419258.303   128324071.048        3241.104          35.000    24419264.877    99992823.788        2524.892          36.000  
> 2025 05 14 07 46 23.0030000  0 10                     
G05  21710466.053   114089274.134        -320.367          40.000    21710469.152    88900748.959        -249.738          40.000  
G06  24728317.007   129948135.179       -1377.038          34.000    24728334.401   101258333.497       -1072.650          34.000  
G11  22947599.541   120590431.544        -503.183          39.000    22947604.004    93966588.984        -392.093          40.000  
G12  23924718.935   125725229.119       -2243.257          34.000    23924731.250    97967743.033       -1747.825          37.000  
G13  21934126.836   115264626.640        2388.238          40.000                                                                  
G19  24935770.108   131038357.827       -3666.645          31.000                                                                  
G20  22377196.766   117592952.769       -1633.290          40.000                                                                  
G15  23657540.423   124321231.691        3472.195          35.000    23657552.301    96873753.390        2705.566          36.000  
G25  24347725.323   127948114.854       -1069.185          33.000    24347744.451    99699892.390        -833.165          36.000  
G29  24418641.672   128320830.357        3240.595          35.000    24418648.154    99990298.554        2525.005          35.000  
> 2025 05 14 07 46 24.0030000  0 10                     
G05  21710527.032   114089594.668        -320.795          40.000    21710530.107    88900998.711        -249.756          40.000  
G06  24728579.182   129949512.122       -1376.782          34.000    24728596.395   101259406.448       -1073.035          34.000  
G11  22947695.291   120590934.662        -503.122          39.000    22947699.755    93966981.029        -392.213          40.000  
G12  23925145.737   125727472.604       -2243.740          34.000    23925158.331    97969491.209       -1748.131          37.000  
G13  21933672.421   115262238.661        2387.788          40.000                                                                  
G19  24936467.835   131042024.061       -3666.673          31.000                                                                  
G20  22377507.590   117594585.989       -1633.055          40.000                                                                  
G15  23656879.822   124317759.865        3471.382          35.000    23656891.601    96871048.084        2705.126          36.000  
G25  24347928.831   127949183.963       -1069.103          33.000    24347947.929    99700725.456        -833.086          36.000  
G29  24418025.228   128317589.921        3240.818          35.000    24418031.425    99987773.541        2524.845          36.000  
> 2025 05 14 07 46 25.0030000  0 10                     
G05  21710588.106   114089915.552        -321.149          40.000    21710591.085    88901248.755        -250.031          40.000  
G06  24728841.293   129950889.202       -1376.935          34.000    24728858.405   101260479.504       -1073.199          34.000  
G11  22947791.162   120591437.919        -503.494          39.000    22947795.508    93967373.167        -392.281          40.000  
G12  23925572.752   125729716.317       -2243.979          34.000    23925585.263    97971239.560       -1748.498          37.000  
G13  21933217.998   115259851.151        2386.840          40.000                                                                  
G19  24937165.913   131045690.555       -3666.490          31.000                                                                  
G20  22377818.369   117596219.315       -1633.404          40.000                                                                  
G15  23656219.207   124314288.206        3471.663          35.000    23656230.977    96868342.909        2705.254          36.000  
G25  24348132.435   127950253.528       -1070.293          33.000    24348151.530    99701558.857        -833.662          36.000  
G29  24417408.777   128314349.718        3239.980          35.000    24417414.818    99985248.700        2524.583          36.000  
> 2025 05 14 07 46 26.0030000  0 10                     
G05  21710649.215   114090236.782        -321.051          40.000    21710652.078    88901499.077        -250.378          40.000  
G06  24729103.368   129952266.472       -1377.264          34.000    24729120.557   101261552.653       -1072.949          34.000  
G11  22947886.924   120591941.312        -503.125          39.000    22947891.354    93967765.436        -392.267          40.000  
G12  23925999.936   125731960.267       -2243.852          34.000    23926012.229    97972988.087       -1748.864          37.000  
G13  21932763.675   115257464.085        2386.799          40.000                                                                  
G19  24937863.759   131049357.315       -3666.987          31.000                                                                  
G20  22378129.089   117597852.748       -1633.551          40.000                                                                  
G15  23655558.592   124310816.774        3471.775          35.000    23655570.331    96865637.936        2704.522          36.000  
G25  24348336.025   127951323.424       -1069.922          34.000    24348355.143    99702392.537        -833.525          36.000  
G29  24416792.208   128311109.680        3240.174          35.000    24416798.218    99982724.016        2524.658          36.000  
> 2025 05 14 07 46 27.0030000  0 10                     
G05  21710710.449   114090558.252        -321.356          40.000    21710713.334    88901749.571        -250.494          40.000  
G06  24729365.516   129953643.776       -1377.063          34.000    24729382.695   101262625.917       -1073.553          34.000  
G11  22947982.719   120592444.753        -503.040          39.000    22947987.159    93968157.714        -392.090          40.000  
G12  23926427.103   125734204.366       -2244.386          34.000    23926439.255    97974736.701       -1748.074          37.000  
G13  21932309.539   115255077.368        2386.778          40.000                                                                  
G19  24938561.664   131053024.129       -3666.592          31.000                                                                  
G20  22378439.825   117599486.152       -1633.031          40.000                                                                  
G15  23654898.108   124307345.474        3471.401          34.000    23654909.683    96862932.981        2705.120          36.000  
G25  24348539.671   127952393.661       -1069.209          33.000    24348558.816    99703226.496        -834.283          36.000  
G29  24416175.597   128307869.754        3240.420          35.000    24416181.621    99980199.381        2525.038          36.000  
> 2025 05 14 07 46 28.0030000  0 10                     
G05  21710771.654   114090880.102        -322.137          40.000    21710774.560    88902000.360        -250.964          40.000  
G06  24729627.452   129955021.266       -1378.033          34.000    24729644.867   101263699.231       -1073.279          34.000  
G11  22948078.611   120592948.362        -503.777          39.000    22948083.006    93968550.124        -392.310          40.000  
G12  23926854.212   125736448.677       -2244.386          34.000    23926866.372    97976485.546       -1748.917          37.000  
G13  21931855.434   115252691.154        2385.922          40.000                                                                  
G19  24939259.458   131056691.153       -3666.327          31.000                                                                  
G20  22378750.775   117601119.687       -1633.490          40.000                                                                  
G15  23654237.550   124303874.367        3471.314          34.000    23654249.121    96860228.257        2704.727          36.000  
G25  24348743.399   127953464.334       -1070.899          33.000    24348762.600    99704060.771        -834.930          36.000  
G29  24415559.040   128304630.054        3239.438          35.000    24415565.160    99977674.954        2524.218          36.000  
> 2025 05 14 07 46 29.0030000  0 10                     
G05  21710833.038   114091202.344        -322.760          40.000    21710835.841    88902251.452        -251.117          40.000  
G06  24729889.457   129956398.888       -1377.747          34.000    24729906.946   101264772.687       -1072.906          34.000  
G11  22948174.487   120593452.156        -503.815          39.000    22948178.967    93968942.687        -392.783          40.000  
G12  23927281.398   125738693.298       -2244.979          34.000    23927293.525    97978234.580       -1749.033          37.000  
G13  21931401.539   115250305.444        2385.622          40.000                                                                  
G19  24939957.247   131060358.511       -3667.482          31.000                                                                  
G20  22379061.541   117602753.369       -1633.652          40.000                                                                  
G15  23653577.061   124300403.540        3471.084          34.000    23653588.638    96857523.707        2704.552          36.000  
G25  24348947.190   127954535.411       -1071.056          33.000    24348966.383    99704895.364        -834.654          36.000  
G29  24414942.522   128301390.592        3238.948          35.000    24414948.670    99975150.672        2524.497          36.000  
> 2025 05 14 07 46 30.0030000  0 10                     
G05  21710894.421   114091524.869        -322.662          40.000    21710897.225    88902502.782        -251.422          40.000  
G06  24730151.535   129957776.645       -1377.936          34.000    24730169.078   101265846.266       -1073.846          34.000  
G11  22948270.331   120593956.036        -504.155          39.000    22948274.766    93969335.302        -392.710          40.000  
G12  23927708.589   125740938.092       -2244.660          34.000    23927720.731    97979983.752       -1748.973          37.000  
G13  21930947.641   115247920.131        2384.960          40.000                                                                  
G19  24940655.198   131064025.958       -3667.636          31.000                                                                  
G20  22379372.434   117604387.073       -1633.959          40.000                                                                  
G15  23652916.750   124296932.880        3470.223          34.000    23652928.177    96854819.298        2703.926          36.000  
G25  24349151.170   127955606.896       -1071.776          34.000    24349170.318    99705730.273        -835.122          36.000  
G29  24414326.018   128298151.261        3238.840          35.000    24414332.333    99972626.531        2524.121          36.000  
> 2025 05 14 07 46 31.0030000  0 10                     
G05  21710955.741   114091847.812        -323.016          40.000    21710958.715    88902754.427        -251.971          40.000  
G06  24730413.655   129959154.581       -1377.887          34.000    24730431.270   101266919.970       -1073.901          34.000  
G11  22948366.309   120594460.093        -504.216          39.000    22948370.724    93969728.085        -392.866          40.000  
G12  23928135.870   125743183.186       -2245.120          33.000    23928147.877    97981733.176       -1749.463          37.000  
G13  21930493.884   115245535.357        2384.384          40.000                                                                  
G19  24941353.225   131067693.711       -3668.033          31.000                                                                  
G20  22379683.331   117606020.939       -1633.994          40.000                                                                  
G15  23652256.351   124293462.493        3469.803          34.000    23652267.810    96852115.088        2703.941          36.000  
G25  24349355.227   127956678.849       -1072.649          34.000    24349374.343    99706565.514        -835.425          36.000  
G29  24413709.641   128294912.177        3238.810          34.000    24413716.010    99970102.608        2523.743          36.000  
> 2025 05 14 07 46 32.0030000  0 10                     
G05  21711017.234   114092171.092        -323.242          40.000    21711020.255    88903006.341        -251.855          40.000  
G06  24730675.960   129960532.701       -1378.253          34.000    24730693.517   101267993.828       -1073.944          34.000  
G11  22948462.215   120594964.278        -503.966          39.000    22948466.599    93970120.964        -393.014          40.000  
G12  23928563.218   125745428.499       -2245.414          34.000    23928575.082    97983482.743       -1749.273          37.000  
G13  21930040.151   115243151.008        2384.251          40.000                                                                  
G19  24942051.154   131071361.624       -3667.046          31.000                                                                  
G20  22379994.339   117607654.887       -1634.209          40.000                                                                  
G15  23651595.898   124289992.269        3469.682          34.000    23651607.373    96849411.037        2703.915          36.000  
G25  24349559.185   127957751.094       -1072.040          34.000    24349578.404    99707401.044        -835.086          35.000  
G29  24413093.184   128291673.264        3239.105          34.000    24413099.724    99967578.769        2524.210          36.000  
> 2025 05 14 07 46 33.0030000  0 10                     
G05  21711078.730   114092494.650        -323.541          40.000    21711081.820    88903258.465        -252.307          40.000  
G06  24730938.154   129961910.862       -1378.882          33.000    24730955.746   101269067.696       -1073.920          34.000  
G11  22948558.174   120595468.526        -504.228          39.000    22948562.560    93970513.876        -392.940          40.000  
G12  23928990.470   125747673.962       -2245.701          34.000    23929002.385    97985232.455       -1749.605          37.000  
G13  21929586.440   115240767.052        2383.772          40.000                                                                  
G19  24942749.135   131075029.708       -3667.875          31.000                                                                  
G20  22380305.211   117609288.832       -1633.964          40.000                                                                  
G15  23650935.602   124286522.150        3470.411          35.000    23650947.020    96846707.071        2703.893          36.000  
G25  24349763.442   127958823.715       -1072.749          34.000    24349782.522    99708236.864        -835.813          35.000  
G29  24412476.763   128288434.514        3238.073          35.000    24412483.388    99965055.052        2523.588          36.000  
> 2025 05 14 07 46 34.0030000  0 10                     
G05  21711140.340   114092818.574        -324.182          40.000    21711143.450    88903510.869        -252.704          40.000  
G06  24731200.304   129963289.167       -1378.442          33.000    24731218.075   101270141.706       -1074.249          34.000  
G11  22948654.193   120595972.941        -504.748          39.000    22948658.556    93970906.903        -392.945          40.000  
G12  23929417.858   125749919.655       -2245.813          34.000    23929429.833    97986982.377       -1750.085          37.000  
G13  21929132.893   115238383.588        2383.066          40.000                                                                  
G19  24943447.240   131078698.036       -3668.415          31.000                                                                  
G20  22380616.178   117610922.923       -1634.432          40.000                                                                  
G15  23650275.372   124283052.313        3469.517          34.000    23650286.747    96844003.306        2703.531          36.000  
G25  24349967.718   127959896.794       -1073.698          34.000    24349986.763    99709073.004        -836.216          35.000  
G29  24411860.442   128285195.969        3238.083          34.000    24411867.125    99962531.525        2523.146          36.000  
> 2025 05 14 07 46 35.0030000  0 10                     
G05  21711201.996   114093142.906        -324.341          40.000    21711205.267    88903763.604        -252.924          40.000  
G06  24731462.437   129964667.743       -1379.187          33.000    24731480.458   101271215.898       -1074.274          34.000  
G11  22948750.304   120596477.553        -504.719          39.000    22948754.588    93971300.127        -393.370          40.000  
G12  23929845.284   125752165.709       -2246.293          34.000    23929857.278    97988732.516       -1750.321          36.000  
G13  21928679.519   115236000.651        2382.586          40.000                                                                  
G19  24944145.550   131082366.587       -3668.558          31.000                                                                  
G20  22380927.250   117612557.142       -1634.066          40.000                                                                  
G15  23649615.111   124279582.750        3469.325          35.000    23649626.495    96841299.737        2703.790          36.000  
G25  24350172.092   127960970.317       -1074.156          34.000    24350191.077    99709909.498        -836.543          35.000  
G29  24411244.330   128281957.633        3238.749          34.000    24411250.902    99960008.169        2523.438          36.000  
> 2025 05 14 07 46 36.0030000  0 10                     
G05  21711263.836   114093467.602        -324.872          40.000    21711267.016    88904016.606        -253.162          40.000  
G06  24731724.529   129966046.415       -1378.821          33.000    24731742.772   101272290.190       -1074.609          34.000  
G11  22948846.332   120596982.306        -504.863          38.000    22948850.599    93971693.432        -393.419          40.000  
G12  23930272.530   125754411.922       -2246.352          34.000    23930284.625    97990482.826       -1750.301          36.000  
G13  21928226.111   115233618.156        2382.418          40.000                                                                  
G19  24944843.771   131086035.383       -3668.828          31.000                                                                  
G20  22381238.295   117614191.475       -1633.937          40.000                                                                  
G15  23648954.957   124276113.382        3468.979          35.000    23648966.356    96838596.346        2703.538          36.000  
G25  24350376.342   127962044.209       -1073.858          34.000    24350395.446    99710746.327        -837.233          36.000  
G29  24410628.003   128278719.539        3238.399          34.000    24410634.836    99957484.983        2523.274          36.000  
> 2025 05 14 07 46 37.0030000  0 10                     
G05  21711325.705   114093792.588        -324.915          40.000    21711328.797    88904269.833        -253.210          40.000  
G06  24731986.742   129967425.213       -1378.986          33.000    24732005.070   101273364.566       -1074.237          34.000  
G11  22948942.409   120597487.145        -504.548          39.000    22948946.714    93972086.811        -393.212          40.000  
G12  23930700.146   125756658.344       -2246.187          34.000    23930712.037    97992233.295       -1750.540          36.000  
G13  21927772.809   115231236.103        2382.213          40.000                                                                  
G19  24945542.080   131089704.363       -3669.124          31.000                                                                  
G20  22381549.277   117615825.886       -1634.451          40.000                                                                  
G15  23648294.826   124272644.182        3469.285          35.000    23648306.141    96835893.112        2702.828          36.000  
G25  24350580.906   127963118.475       -1074.057          34.000    24350599.972    99711583.395        -837.259          36.000  
G29  24410011.808   128275481.604        3237.952          34.000    24410018.826    99954961.940        2522.572          36.000  
> 2025 05 14 07 46 38.0030000  0 10                     
G05  21711387.707   114094117.976        -325.610          40.000    21711390.779    88904523.402        -253.564          40.000  
G06  24732249.055   129968804.208       -1379.425          33.000    24732267.592   101274439.099       -1074.976          34.000  
G11  22949038.523   120597992.197        -505.241          39.000    22949042.827    93972480.336        -393.296          40.000  
G12  23931127.570   125758905.064       -2246.715          34.000    23931139.607    97993983.964       -1750.267          37.000  
G13  21927319.661   115228854.566        2381.164          40.000                                                                  
G19  24946240.055   131093373.545       -3668.941          31.000                                                                  
G20  22381860.361   117617460.392       -1634.042          40.000                                                                  
G15  23647634.746   124269175.245        3468.808          35.000    23647646.034    96833190.019        2702.808          36.000  
G25  24350785.284   127964193.218       -1075.000          34.000    24350804.548    99712420.823        -837.661          36.000  
G29  24409395.769   128272243.898        3237.368          34.000    24409402.718    99952439.036        2522.759          36.000  
> 2025 05 14 07 46 39.0030000  0 10                     
G05  21711449.655   114094443.781        -326.068          40.000    21711452.642    88904777.255        -253.778          40.000  
G06  24732511.432   129970183.375       -1378.949          33.000    24732529.990   101275513.758       -1074.451          34.000  
G11  22949134.722   120598497.425        -505.304          38.000    22949138.935    93972874.033        -393.854          40.000  
G12  23931555.299   125761152.057       -2246.639          34.000    23931567.172    97995734.877       -1751.007          36.000  
G13  21926866.575   115226473.528        2380.692          40.000                                                                  
G19  24946938.251   131097043.066       -3669.848          31.000                                                                  
G20  22382171.330   117619095.060       -1634.290          40.000                                                                  
G15  23646974.637   124265706.566        3468.694          34.000    23646985.870    96830487.140        2703.169          36.000  
G25  24350989.885   127965268.347       -1074.405          33.000    24351009.149    99713258.621        -838.157          36.000  
G29  24408779.619   128269006.412        3237.821          34.000    24408786.579    99949916.346        2522.606          36.000  
> 2025 05 14 07 46 40.0030000  0 10                     
G05  21711511.722   114094769.943        -326.428          40.000    21711514.727    88905031.420        -254.407          40.000  
G06  24732773.695   129971562.743       -1379.559          33.000    24732792.585   101276588.589       -1074.628          34.000  
G11  22949230.868   120599002.790        -505.126          38.000    22949235.192    93973267.826        -394.169          40.000  
G12  23931982.900   125763399.314       -2247.032          34.000    23931994.839    97997486.008       -1751.590          37.000  
G13  21926413.578   115224092.975        2380.347          40.000                                                                  
G19  24947636.288   131100712.765       -3670.072          31.000                                                                  
G20  22382482.375   117620729.867       -1634.830          40.000                                                                  
G15  23646314.466   124262238.095        3468.635          35.000    23646325.754    96827784.456        2702.630          36.000  
G25  24351194.722   127966343.950       -1074.897          34.000    24351213.779    99714096.731        -838.405          36.000  
G29  24408163.605   128265769.194        3237.085          34.000    24408170.595    99947393.818        2522.595          36.000  
> 2025 05 14 07 46 41.0030000  0 10                     
G05  21711573.809   114095096.463        -326.361          40.000    21711576.907    88905285.855        -254.535          40.000  
G06  24733035.972   129972942.258       -1379.681          33.000    24733055.078   101277663.542       -1074.982          34.000  
G11  22949327.051   120599508.345        -505.542          38.000    22949331.389    93973661.746        -393.893          40.000  
G12  23932410.598   125765646.824       -2247.427          34.000    23932422.432    97999237.300       -1751.380          37.000  
G13  21925960.593   115221712.898        2380.037          40.000                                                                  
G19  24948334.529   131104382.677       -3670.100          31.000                                                                  
G20  22382793.505   117622364.759       -1634.623          40.000                                                                  
G15  23645654.474   124258769.902        3467.932          35.000    23645665.849    96825081.970        2702.467          36.000  
G25  24351399.441   127967419.977       -1075.426          33.000    24351418.580    99714935.161        -838.403          36.000  
G29  24407547.605   128262532.187        3236.852          35.000    24407554.653    99944871.503        2521.900          36.000  
> 2025 05 14 07 46 42.0030000  0 10                     
G05  21711636.048   114095423.260        -326.953          40.000    21711639.079    88905540.497        -254.559          40.000  
G06  24733298.310   129974321.857       -1379.419          33.000    24733317.621   101278738.519       -1074.670          34.000  
G11  22949423.261   120600013.947        -505.700          38.000    22949427.632    93974055.724        -394.189          40.000  
G12  23932838.347   125767894.472       -2247.323          33.000    23932850.151    98000988.693       -1751.198          37.000  
G13  21925507.721   115219333.205        2379.669          40.000                                                                  
G19  24949033.002   131108052.687       -3669.194          31.000                                                                  
G20  22383104.555   117623999.694       -1635.065          40.000                                                                  
G15  23644994.472   124255301.826        3467.399          35.000    23645005.904    96822379.567        2702.427          36.000  
G25  24351604.342   127968496.304       -1076.374          34.000    24351623.332    99715773.827        -838.499          36.000  
G29  24406931.647   128259295.275        3236.446          35.000    24406938.689    99942349.232        2522.119          36.000  
> 2025 05 14 07 46 43.0030000  0 10                     
G05  21711698.344   114095750.458        -327.466          40.000    21711701.361    88905795.446        -255.096          40.000  
G06  24733560.750   129975701.636       -1379.987          33.000    24733580.129   101279813.675       -1075.488          34.000  
G11  22949519.525   120600519.720        -505.786          38.000    22949523.854    93974449.831        -394.316          40.000  
G12  23933266.004   125770142.393       -2248.217          33.000    23933277.892    98002740.329       -1752.052          37.000  
G13  21925055.060   115216954.025        2378.757          40.000                                                                  
G19  24949731.317   131111723.067       -3671.775          31.000                                                                  
G20  22383415.787   117625634.755       -1635.452          40.000                                                                  
G15  23644334.475   124251833.955        3467.671          35.000    23644345.952    96819677.367        2701.806          36.000  
G25  24351809.201   127969573.055       -1077.154          34.000    24351828.241    99716612.878        -838.969          36.000  
G29  24406315.871   128256058.585        3236.684          35.000    24406322.802    99939827.143        2521.976          36.000  
> 2025 05 14 07 46 44.0030000  0 10                     
G05  21711760.609   114096077.964        -327.856          40.000    21711763.691    88906050.653        -255.322          40.000  
G06  24733823.176   129977081.491       -1379.413          33.000    24733842.642   101280888.893       -1075.110          34.000  
G11  22949615.756   120601025.623        -505.853          38.000    22949620.090    93974844.045        -394.405          40.000  
G12  23933693.830   125772390.549       -2248.341          33.000    23933705.673    98004492.115       -1752.070          37.000  
G13  21924602.325   115214575.268        2378.568          40.000                                                                  
G19  24950429.648   131115393.532       -3670.541          31.000                                                                  
G20  22383726.932   117627269.871       -1635.242          40.000                                                                  
G15  23643674.595   124248366.308        3467.773          35.000    23643686.062    96816975.302        2701.799          36.000  
G25  24352014.168   127970650.212       -1077.373          34.000    24352033.264    99717452.207        -839.424          36.000  
G29  24405699.930   128252822.101        3236.474          35.000    24405706.990    99937305.224        2521.784          36.000  
> 2025 05 14 07 46 45.0030000  0 10                     
G05  21711822.916   114096405.741        -327.911          40.000    21711826.129    88906306.068        -255.554          40.000  
G06  24734085.631   129978461.482       -1380.206          33.000    24734105.229   101281964.157       -1075.293          34.000  
G11  22949711.977   120601531.584        -506.220          38.000    22949716.388    93975238.290        -394.503          40.000  
G12  23934121.588   125774638.807       -2248.294          33.000    23934133.523    98006243.988       -1751.890          37.000  
G13  21924149.689   115212196.909        2378.001          40.000                                                                  
G19  24951127.923   131119064.160       -3670.726          31.000                                                                  
G20  22384038.132   117628905.010       -1635.045          40.000                                                                  
G15  23643014.723   124244898.808        3467.568          35.000    23643026.148    96814273.323        2701.901          35.000  
G25  24352219.194   127971727.683       -1077.532          34.000    24352238.391    99718291.805        -839.727          36.000  
G29  24405084.063   128249585.742        3235.951          35.000    24405091.075    99934783.373        2521.505          36.000  
> 2025 05 14 07 46 46.0030000  0 10                     
G05  21711885.318   114096733.836        -328.052          40.000    21711888.603    88906561.743        -255.920          40.000  
G06  24734348.010   129979841.590       -1379.999          33.000    24734367.973   101283039.573       -1075.665          34.000  
G11  22949808.346   120602037.684        -506.563          38.000    22949812.678    93975632.638        -394.548          40.000  
G12  23934549.441   125776887.312       -2248.849          33.000    23934561.417    98007996.072       -1752.232          37.000  
G13  21923697.194   115209818.990        2377.935          40.000                                                                  
G19  24951826.381   131122735.004       -3671.637          31.000                                                                  
G20  22384349.156   117630540.243       -1635.520          40.000                                                                  
G15  23642354.952   124241431.470        3467.082          35.000    23642366.337    96811571.501        2702.179          36.000  
G25  24352424.321   127972805.556       -1078.181          34.000    24352443.521    99719131.670        -840.059          36.000  
G29  24404468.308   128246349.551        3235.843          35.000    24404475.248    99932261.661        2521.803          36.000  
> 2025 05 14 07 46 47.0030000  0 10                     
G05  21711947.987   114097062.331        -328.766          40.000    21711951.119    88906817.691        -256.207          40.000  
G06  24734610.642   129981221.866       -1380.249          33.000    24734630.490   101284115.105       -1075.525          34.000  
G11  22949904.572   120602543.909        -506.012          38.000    22949909.066    93976027.106        -394.658          40.000  
G12  23934977.333   125779136.070       -2248.863          33.000    23934989.256    98009748.338       -1752.198          37.000  
G13  21923244.890   115207441.570        2377.238          40.000                                                                  
G19  24952525.123   131126405.967       -3670.145          31.000                                                                  
G20  22384660.439   117632175.589       -1635.549          40.000                                                                  
G15  23641695.163   124237964.368        3467.104          35.000    23641706.624    96808869.905        2701.621          36.000  
G25  24352629.577   127973883.847       -1078.876          33.000    24352648.640    99719971.856        -840.309          36.000  
G29  24403852.629   128243113.583        3235.709          35.000    24403859.478    99929740.138        2521.422          35.000  
> 2025 05 14 07 46 48.0030000  0 10                     
G05  21712010.590   114097391.272        -329.132          40.000    21712013.758    88907074.018        -256.097          40.000  
G06  24734873.195   129982602.448       -1381.219          33.000    24734893.171   101285190.859       -1075.836          34.000  
G11  22950000.942   120603050.397        -506.131          38.000    22950005.494    93976421.784        -394.805          40.000  
G12  23935405.241   125781385.175       -2249.029          33.000    23935417.266    98011500.892       -1752.624          37.000  
G13  21922792.512   115205064.754        2376.108          40.000                                                                  
G19  24953223.601   131130077.388       -3671.516          31.000                                                                  
G20  22384971.753   117633811.136       -1635.557          40.000                                                                  
G15  23641035.576   124234497.623        3466.776          35.000    23641046.847    96806168.533        2701.424          36.000  
G25  24352834.952   127974962.602       -1078.965          33.000    24352854.018    99720812.490        -840.863          36.000  
G29  24403236.845   128239877.932        3235.826          35.000    24403243.651    99927218.817        2521.289          35.000  
> 2025 05 14 07 46 49.0030000  0 10                     
G05  21712073.172   114097720.582        -329.553          40.000    21712076.415    88907330.614        -256.348          40.000  
G06  24735135.844   129983983.154       -1380.963          33.000    24735156.019   101286266.714       -1075.549          34.000  
G11  22950097.371   120603557.065        -506.512          38.000    22950101.857    93976816.573        -394.814          40.000  
G12  23935833.358   125783634.521       -2248.824          34.000    23935845.332    98013253.615       -1752.268          37.000  
G13  21922340.201   115202688.355        2376.449          40.000                                                                  
G19  24953922.129   131133748.972       -3670.796          31.000                                                                  
G20  22385282.953   117635446.792       -1635.586          40.000                                                                  
G15  23640375.899   124231031.081        3466.847          35.000    23640387.249    96803467.370        2700.806          36.000  
G25  24353040.378   127976041.823       -1078.854          33.000    24353059.340    99721653.408        -840.572          36.000  
G29  24402621.239   128236642.465        3235.559          35.000    24402627.990    99924697.709        2521.309          35.000  
> 2025 05 14 07 46 50.0030000  0 10                     
G05  21712135.869   114098050.073        -329.333          40.000    21712139.098    88907587.380        -256.940          40.000  
G06  24735398.648   129985363.861       -1380.939          33.000    24735418.754   101287342.582       -1075.580          34.000  
G11  22950193.820   120604063.713        -506.650          38.000    22950198.280    93977211.345        -394.594          40.000  
G12  23936261.417   125785883.976       -2249.466          34.000    23936273.446    98015006.428       -1752.860          37.000  
G13  21921887.957   115200312.317        2375.920          40.000                                                                  
G19  24954621.118   131137420.659       -3672.126          31.000                                                                  
G20  22385594.268   117637082.401       -1635.525          40.000                                                                  
G15  23639716.250   124227564.608        3466.436          35.000    23639727.522    96800766.196        2701.230          36.000  
G25  24353245.768   127977121.290       -1079.468          34.000    24353264.854    99722494.520        -840.979          36.000  
G29  24402005.650   128233407.106        3234.791          35.000    24402012.352    99922176.627        2521.156          35.000  
> 2025 05 14 07 46 51.0030000  0 10                     
G05  21712198.543   114098379.862        -330.133          40.000    21712201.954    88907844.356        -257.092          40.000  
G06  24735661.411   129986744.625       -1380.572          33.000    24735681.494   101288418.528       -1076.129          34.000  
G11  22950290.241   120604570.431        -506.881          38.000    22950294.658    93977606.191        -395.034          40.000  
G12  23936689.431   125788133.567       -2249.708          34.000    23936701.637    98016759.349       -1753.142          37.000  
G13  21921435.955   115197936.669        2375.356          40.000                                                                  
G19  24955319.688   131141092.362       -3670.140          31.000                                                                  
G20  22385905.533   117638718.041       -1635.973          40.000                                                                  
G15  23639056.566   124224098.282        3465.987          35.000    23639067.878    96798065.182        2700.701          36.000  
G25  24353451.227   127978201.064       -1079.743          34.000    24353470.375    99723335.929        -841.783          36.000  
G29  24401390.068   128230171.796        3235.196          35.000    24401396.617    99919655.639        2521.052          35.000  
> 2025 05 14 07 46 52.0030000  0 10                     
G05  21712261.392   114098710.024        -330.286          40.000    21712264.713    88908101.629        -257.214          40.000  
G06  24735924.254   129988125.607       -1380.774          34.000    24735944.355   101289494.606       -1076.251          35.000  
G11  22950386.683   120605077.327        -507.030          38.000    22950391.135    93978001.175        -395.219          40.000  
G12  23937117.583   125790383.409       -2249.559          34.000    23937129.809    98018512.478       -1753.086          37.000  
G13  21920983.993   115195561.503        2374.933          40.000                                                                  
G19  24956018.623   131144764.456       -3671.879          31.000                                                                  
G20  22386216.759   117640353.799       -1636.064          40.000                                                                  
G15  23638396.985   124220632.199        3465.793          35.000    23638408.290    96795364.309        2700.940          36.000  
G25  24353656.762   127979281.329       -1080.353          34.000    24353675.961    99724177.660        -842.024          36.000  
G29  24400774.481   128226936.779        3234.636          35.000    24400780.877    99917134.817        2520.998          35.000  
> 2025 05 14 07 46 53.0030000  0 10                     
G05  21712324.325   114099040.623        -330.676          40.000    21712327.714    88908359.236        -257.611          40.000  
G06  24736187.437   129989506.827       -1381.555          33.000    24736207.269   101290570.873       -1076.898          34.000  
G11  22950483.140   120605584.422        -507.020          38.000    22950487.713    93978396.333        -395.569          40.000  
G12  23937545.730   125792633.611       -2250.633          34.000    23937558.061    98020265.837       -1752.950          37.000  
G13  21920532.075   115193186.899        2374.503          40.000                                                                  
G19  24956717.470   131148436.781       -3672.049          31.000                                                                  
G20  22386528.095   117641989.729       -1636.167          40.000                                                                  
G15  23637737.509   124217166.407        3465.558          35.000    23637748.724    96792663.714        2700.480          36.000  
G25  24353862.338   127980362.042       -1080.784          33.000    24353881.642    99725019.745        -841.905          36.000  
G29  24400158.803   128223701.992        3235.110          35.000    24400165.294    99914614.254        2520.487          35.000  
> 2025 05 14 07 46 54.0030000  0 10                     
G05  21712387.308   114099371.579        -331.354          40.000    21712390.685    88908617.128        -258.276          40.000  
G06  24736450.352   129990888.157       -1381.616          34.000    24736470.098   101291647.207       -1076.257          34.000  
G11  22950579.656   120606091.662        -507.454          38.000    22950584.255    93978791.564        -395.845          40.000  
G12  23937973.984   125794883.964       -2249.802          34.000    23937986.342    98022019.385       -1753.468          37.000  
G13  21920080.337   115190812.749        2373.629          40.000                                                                  
G19  24957416.334   131152109.276       -3672.682          31.000                                                                  
G20  22386839.414   117643625.744       -1636.391          40.000                                                                  
G15  23637077.964   124213700.818        3465.219          35.000    23637089.125    96789963.279        2699.667          36.000  
G25  24354068.093   127981443.122       -1081.628          33.000    24354087.305    99725862.152        -842.621          35.000  
G29  24399543.211   128220467.424        3234.198          35.000    24399549.727    99912093.817        2519.679          35.000  
> 2025 05 14 07 46 55.0030000  0 10                     
G05  21712450.357   114099702.905        -331.403          40.000    21712453.620    88908875.301        -258.099          40.000  
G06  24736713.252   129992269.640       -1381.195          34.000    24736733.128   101292723.724       -1077.368          34.000  
G11  22950676.247   120606599.093        -507.707          38.000    22950680.797    93979186.952        -395.594          40.000  
G12  23938402.167   125797134.636       -2250.771          34.000    23938414.653    98023773.146       -1753.883          37.000  
G13  21919628.793   115188439.103        2373.165          40.000                                                                  
G19  24958115.376   131155782.107       -3673.881          31.000                                                                  
G20  22387150.728   117645261.891       -1636.425          40.000                                                                  
G15  23636418.606   124210235.479        3465.027          35.000    23636429.632    96787262.977        2700.275          36.000  
G25  24354274.086   127982524.660       -1081.881          33.000    24354293.137    99726704.874        -842.560          35.000  
G29  24398927.688   128217233.106        3233.939          35.000    24398934.141    99909573.540        2519.887          35.000  
> 2025 05 14 07 46 56.0030000  0 10                     
G05  21712513.529   114100034.513        -331.702          40.000    21712516.816    88909133.704        -258.435          40.000  
G06  24736976.291   129993651.271       -1381.903          34.000    24736996.078   101293800.278       -1076.178          34.000  
G11  22950772.809   120607106.574        -507.526          38.000    22950777.380    93979582.371        -395.352          40.000  
G12  23938830.540   125799385.472       -2251.407          34.000    23938842.949    98025527.030       -1754.158          37.000  
G13  21919177.200   115186065.841        2373.090          40.000                                                                  
G19  24958814.208   131159455.028       -3673.867          31.000                                                                  
G20  22387461.995   117646898.065       -1636.249          40.000                                                                  
G15  23635759.166   124206770.256        3465.659          35.000    23635770.276    96784562.857        2699.960          36.000  
G25  24354480.028   127983606.520       -1082.438          33.000    24354499.048    99727547.907        -843.290          35.000  
G29  24398312.173   128213998.871        3234.171          35.000    24398318.579    99907053.366        2520.302          35.000  
> 2025 05 14 07 46 57.0030000  0 10                     
G05  21712576.694   114100366.425        -331.921          40.000    21712579.971    88909392.343        -258.612          40.000  
G06  24737239.463   129995033.004       -1381.641          34.000    24737259.012   101294876.937       -1076.508          35.000  
G11  22950869.366   120607614.159        -507.340          38.000    22950874.059    93979977.907        -395.553          40.000  
G12  23939258.991   125801636.480       -2251.437          34.000    23939271.266    98027281.042       -1753.917          37.000  
G13  21918725.769   115183693.035        2372.389          40.000                                                                  
G19  24959513.206   131163128.097       -3673.710          31.000                                                                  
G20  22387773.365   117648534.307       -1636.417          40.000                                                                  
G15  23635099.873   124203305.247        3464.983          35.000    23635110.913    96781862.840        2700.081          36.000  
G25  24354686.099   127984688.734       -1082.213          34.000    24354704.946    99728391.198        -843.307          36.000  
G29  24397696.795   128210764.830        3233.724          34.000    24397703.104    99904533.348        2520.002          35.000  
> 2025 05 14 07 46 58.0030000  0 10                     
G05  21712639.933   114100698.665        -332.220          40.000    21712643.198    88909651.232        -258.936          40.000  
G06  24737502.456   129996414.856       -1382.275          33.000    24737522.010   101295953.683       -1076.459          35.000  
G11  22950965.937   120608121.895        -507.978          38.000    22950970.732    93980373.525        -395.778          40.000  
G12  23939687.305   125803887.696       -2251.467          34.000    23939699.652    98029035.256       -1754.072          37.000  
G13  21918274.184   115181320.649        2371.945          40.000                                                                  
G19  24960212.241   131166801.343       -3673.039          31.000                                                                  
G20  22388084.764   117650170.608       -1636.613          40.000                                                                  
G15  23634440.505   124199840.404        3465.195          35.000    23634451.707    96779162.971        2700.000          36.000  
G25  24354892.302   127985771.341       -1082.512          34.000    24354910.977    99729234.775        -843.744          36.000  
G29  24397081.316   128207530.975        3233.343          34.000    24397087.689    99902013.464        2519.497          36.000  
> 2025 05 14 07 46 59.0030000  0 10                     
G05  21712703.246   114101031.194        -332.947          40.000    21712706.503    88909910.343        -259.558          40.000  
G06  24737765.470   129997796.811       -1382.813          33.000    24737784.963   101297030.530       -1077.130          35.000  
G11  22951062.552   120608629.672        -508.271          38.000    22951067.377    93980769.182        -395.674          40.000  
G12  23940115.838   125806139.075       -2251.760          34.000    23940128.113    98030789.565       -1754.676          36.000  
G13  21917822.771   115178948.637        2371.698          40.000                                                                  
G19  24960911.309   131170474.755       -3674.178          31.000                                                                  
G20  22388396.104   117651806.907       -1636.342          40.000                                                                  
G15  23633781.146   124196375.715        3464.510          35.000    23633792.439    96776463.214        2699.998          36.000  
G25  24355098.251   127986854.298       -1083.703          33.000    24355117.006    99730078.590        -844.137          36.000  
G29  24396465.873   128204297.195        3233.735          34.000    24396472.237    99899493.656        2519.661          36.000  
> 2025 05 14 07 47 00.0030000  0 10                     
G05  21712766.535   114101364.097        -333.276          40.000    21712769.850    88910169.738        -259.155          40.000  
G06  24738028.488   129999178.901       -1382.623          33.000    24738048.091   101298107.469       -1077.216          35.000  
G11  22951159.255   120609137.617        -508.122          38.000    22951163.936    93981164.988        -395.536          40.000  
G12  23940544.280   125808390.700       -2251.340          34.000    23940556.599    98032544.124       -1755.046          36.000  
G13  21917371.506   115176577.162        2371.180          40.000                                                                  
G19  24961610.413   131174148.437       -3674.339          31.000                                                                  
G20  22388707.571   117653443.372       -1636.665          40.000                                                                  
G15  23633121.897   124192911.284        3464.380          35.000    23633133.177    96773763.669        2699.365          36.000  
G25  24355304.502   127987937.630       -1083.703          33.000    24355323.173    99730922.768        -844.672          36.000  
G29  24395850.572   128201063.684        3233.522          34.000    24395856.878    99896974.005        2519.880          36.000  
> 2025 05 14 07 47 01.0030000  0 10                     
G05  21712829.921   114101697.339        -333.295          40.000    21712833.288    88910429.422        -259.607          40.000  
G06  24738291.424   130000561.154       -1382.935          34.000    24738311.204   101299184.525       -1077.325          35.000  
G11  22951255.918   120609645.702        -508.137          38.000    22951260.591    93981560.900        -395.953          40.000  
G12  23940972.855   125810642.605       -2252.600          33.000    23940985.084    98034298.804       -1754.578          37.000  
G13  21916920.320   115174206.093        2371.231          40.000                                                                  
G19  24962309.562   131177822.232       -3673.012          31.000                                                                  
G20  22389019.018   117655079.898       -1636.617          40.000                                                                  
G15  23632462.772   124189447.064        3463.909          35.000    23632473.998    96771064.254        2699.650          36.000  
G25  24355510.813   127989021.416       -1084.314          33.000    24355529.388    99731767.245        -844.619          36.000  
G29  24395235.142   128197830.362        3233.391          34.000    24395241.677    99894454.570        2519.352          36.000  
> 2025 05 14 07 47 02.0030000  0 10                     
G05  21712893.294   114102030.940        -333.911          40.000    21712896.840    88910689.368        -260.095          40.000  
G06  24738554.727   130001943.528       -1382.147          34.000    24738574.364   101300261.709       -1077.264          35.000  
G11  22951352.635   120610153.938        -508.332          38.000    22951357.468    93981956.939        -396.402          40.000  
G12  23941401.465   125812894.678       -2252.344          34.000    23941413.630    98036053.682       -1754.903          37.000  
G13  21916469.249   115171835.548        2370.192          40.000                                                                  
G19  24963008.718   131181496.341       -3674.668          31.000                                                                  
G20  22389330.341   117656716.515       -1636.677          40.000                                                                  
G15  23631803.616   124185983.018        3463.959          35.000    23631814.834    96768365.052        2698.744          36.000  
G25  24355717.207   127990105.542       -1083.963          33.000    24355735.712    99732612.040        -845.118          36.000  
G29  24394619.802   128194597.235        3233.031          34.000    24394626.448    99891935.248        2519.255          36.000  
> 2025 05 14 07 47 03.0030000  0 10                     
G05  21712956.785   114102364.909        -333.740          40.000    21712960.252    88910949.612        -260.046          40.000  
G06  24738818.041   130003326.135       -1382.190          33.000    24738837.393   101301339.051       -1077.393          35.000  
G11  22951449.416   120610662.344        -508.387          38.000    22951454.268    93982353.084        -396.176          40.000  
G12  23941830.157   125815147.033       -2252.266          34.000    23941842.351    98037808.779       -1755.409          37.000  
G13  21916018.233   115169465.468        2370.189          40.000                                                                  
G19  24963708.016   131185170.614       -3673.974          31.000                                                                  
G20  22389641.821   117658353.280       -1636.559          40.000                                                                  
G15  23631144.505   124182519.264        3463.999          35.000    23631155.761    96765665.997        2699.220          36.000  
G25  24355923.667   127991190.143       -1084.312          33.000    24355941.983    99733457.160        -844.856          36.000  
G29  24394004.660   128191364.366        3233.047          34.000    24394011.216    99889416.152        2518.855          36.000  
> 2025 05 14 07 47 04.0030000  0 10                     
G05  21713020.361   114102699.235        -334.753          40.000    21713023.920    88911210.098        -260.413          40.000  
G06  24739081.454   130004708.847       -1382.709          34.000    24739100.566   101302416.460       -1077.612          35.000  
G11  22951546.206   120611170.861        -508.679          38.000    22951551.086    93982749.348        -396.808          40.000  
G12  23942258.829   125817399.611       -2252.498          34.000    23942271.054    98039564.005       -1755.334          37.000  
G13  21915567.381   115167095.833        2369.513          40.000                                                                  
G19  24964407.421   131188845.148       -3675.211          31.000                                                                  
G20  22389953.282   117659990.104       -1637.056          40.000                                                                  
G15  23630485.457   124179055.695        3462.973          35.000    23630496.709    96762967.090        2699.065          36.000  
G25  24356130.152   127992275.100       -1084.670          33.000    24356148.495    99734302.590        -845.767          36.000  
G29  24393389.476   128188131.660        3232.444          34.000    24393396.092    99886897.145        2519.069          36.000  
> 2025 05 14 07 47 05.0030000  0 10                     
G05  21713084.066   114103033.875        -334.656          40.000    21713087.578    88911470.890        -260.944          40.000  
G06  24739344.823   130006091.693       -1382.526          34.000    24739363.770   101303494.004       -1077.808          35.000  
G11  22951643.088   120611679.518        -509.067          39.000    22951647.834    93983145.675        -396.357          40.000  
G12  23942687.460   125819652.421       -2253.182          34.000    23942699.793    98041319.423       -1755.573          37.000  
G13  21915116.522   115164726.685        2368.867          40.000                                                                  
G19  24965106.725   131192519.826       -3674.972          31.000                                                                  
G20  22390264.757   117661627.032       -1637.396          40.000                                                                  
G15  23629826.427   124175592.297        3463.169          35.000    23629837.732    96760268.385        2698.048          36.000  
G25  24356336.518   127993360.484       -1085.609          33.000    24356355.105    99735148.321        -846.159          36.000  
G29  24392774.392   128184899.139        3232.193          34.000    24392780.969    99884378.330        2518.527          36.000  
> 2025 05 14 07 47 06.0030000  0 10                     
G05  21713147.768   114103368.896        -335.181          40.000    21713151.247    88911731.941        -261.322          40.000  
G06  24739607.971   130007474.728       -1382.983          34.000    24739627.045   101304571.666       -1077.368          35.000  
G11  22951739.900   120612188.329        -508.874          38.000    22951744.577    93983542.160        -396.573          40.000  
G12  23943116.193   125821905.458       -2253.283          34.000    23943128.500    98043075.010       -1755.165          37.000  
G13  21914665.727   115162358.001        2368.514          40.000                                                                  
G19  24965805.868   131196194.751       -3675.204          31.000                                                                  
G20  22390576.270   117663264.078       -1637.616          40.000                                                                  
G15  23629167.502   124172129.167        3462.927          35.000    23629178.728    96757569.819        2698.479          36.000  
G25  24356543.043   127994446.287       -1085.937          34.000    24356561.646    99735994.354        -845.735          36.000  
G29  24392159.389   128181666.861        3231.692          34.000    24392165.787    99881859.642        2518.597          36.000  
> 2025 05 14 07 47 07.0030000  0 10                     
G05  21713211.651   114103704.220        -335.541          40.000    21713215.033    88911993.222        -261.475          40.000  
G06  24739871.312   130008857.877       -1383.392          34.000    24739890.361   101305649.453       -1078.046          35.000  
G11  22951836.799   120612697.244        -509.065          39.000    22951841.358    93983938.722        -396.840          40.000  
G12  23943545.044   125824158.687       -2253.549          34.000    23943557.343    98044830.786       -1755.525          37.000  
G13  21914215.134   115159989.734        2368.062          40.000                                                                  
G19  24966505.401   131199869.838       -3675.834          31.000                                                                  
G20  22390887.885   117664901.139       -1637.319          40.000                                                                  
G15  23628508.418   124168666.215        3462.552          35.000    23628519.701    96754871.418        2698.051          36.000  
G25  24356749.890   127995532.413       -1086.502          33.000    24356768.305    99736840.689        -846.334          35.000  
G29  24391544.395   128178434.710        3231.523          35.000    24391550.782    99879341.096        2518.326          36.000  
> 2025 05 14 07 47 08.0030000  0 10                     
G05  21713275.578   114104040.009        -336.121          40.000    21713278.925    88912254.868        -261.859          40.000  
G06  24740134.813   130010241.266       -1383.703          34.000    24740153.609   101306727.409       -1078.741          35.000  
G11  22951933.683   120613206.431        -509.402          39.000    22951938.249    93984335.462        -396.820          40.000  
G12  23943973.937   125826412.223       -2253.379          34.000    23943986.190    98046586.816       -1756.222          37.000  
G13  21913764.514   115157622.091        2366.884          40.000                                                                  
G19  24967204.926   131203545.273       -3676.338          31.000                                                                  
G20  22391199.523   117666538.435       -1637.477          40.000                                                                  
G15  23627849.590   124165203.561        3462.543          35.000    23627860.891    96752173.265        2697.992          36.000  
G25  24356956.854   127996619.106       -1087.227          33.000    24356975.068    99737687.437        -846.869          35.000  
G29  24390929.349   128175202.868        3231.509          35.000    24390935.783    99876822.789        2517.509          36.000  
> 2025 05 14 07 47 09.0030000  0 10                     
G05  21713339.621   114104376.283        -335.999          40.000    21713342.806    88912516.916        -261.957          40.000  
G06  24740398.042   130011624.979       -1383.893          34.000    24740416.912   101307805.613       -1078.589          35.000  
G11  22952030.540   120613715.885        -509.260          39.000    22952035.169    93984732.434        -396.823          40.000  
G12  23944402.811   125828666.183       -2253.617          34.000    23944415.011    98048343.110       -1755.733          37.000  
G13  21913314.001   115155255.045        2366.791          40.000                                                                  
G19  24967904.515   131207221.063       -3676.482          31.000                                                                  
G20  22391511.172   117668175.957       -1637.303          40.000                                                                  
G15  23627190.768   124161741.296        3462.047          35.000    23627201.987    96749475.397        2697.726          36.000  
G25  24357163.858   127997706.284       -1087.559          34.000    24357182.020    99738534.596        -847.077          35.000  
G29  24390314.456   128171971.392        3231.637          35.000    24390320.821    99874304.767        2517.684          36.000  
> 2025 05 14 07 47 10.0030000  0 10                     
G05  21713403.682   114104712.826        -336.749          40.000    21713406.892    88912779.155        -262.415          40.000  
G06  24740661.521   130013008.715       -1383.429          34.000    24740680.319   101308883.829       -1078.186          35.000  
G11  22952127.492   120614225.391        -509.519          39.000    22952132.121    93985129.450        -396.964          40.000  
G12  23944831.763   125830920.284       -2254.131          34.000    23944843.902    98050099.571       -1756.703          37.000  
G13  21912863.633   115152888.336        2366.715          40.000                                                                  
G19  24968603.964   131210896.911       -3676.624          31.000                                                                  
G20  22391822.815   117669813.500       -1637.765          40.000                                                                  
G15  23626531.960   124158279.121        3462.427          35.000    23626543.130    96746777.599        2697.876          36.000  
G25  24357371.008   127998793.758       -1087.797          34.000    24357388.933    99739382.007        -847.901          35.000  
G29  24389699.684   128168740.006        3231.323          35.000    24389705.882    99871786.803        2517.680          36.000  
> 2025 05 14 07 47 11.0030000  0 10                     
G05  21713467.772   114105049.599        -336.884          40.000    21713471.053    88913041.586        -262.531          40.000  
G06  24740924.830   130014392.556       -1384.259          33.000    24740943.704   101309962.098       -1078.412          35.000  
G11  22952224.577   120614734.939        -509.384          39.000    22952229.108    93985526.511        -397.462          40.000  
G12  23945260.814   125833174.484       -2254.021          34.000    23945272.875    98051856.089       -1756.644          37.000  
G13  21912413.337   115150522.038        2366.339          40.000                                                                  
G19  24969303.554   131214572.877       -3675.783          31.000                                                                  
G20  22392134.320   117671451.029       -1637.703          40.000                                                                  
G15  23625873.059   124154817.114        3461.746          35.000    23625884.357    96744079.926        2697.809          36.000  
G25  24357577.985   127999881.573       -1087.789          34.000    24357595.868    99740229.643        -847.946          35.000  
G29  24389084.737   128165508.730        3231.176          35.000    24389090.997    99869268.937        2517.779          36.000  
> 2025 05 14 07 47 12.0030000  0 10                     
G05  21713531.986   114105386.770        -337.567          40.000    21713535.223    88913304.295        -262.872          40.000  
G06  24741188.330   130015776.502       -1383.649          33.000    24741207.100   101311040.526       -1078.516          35.000  
G11  22952321.638   120615244.668        -509.981          39.000    22952326.057    93985923.676        -397.063          40.000  
G12  23945689.933   125835428.993       -2254.924          34.000    23945701.908    98053612.835       -1756.858          37.000  
G13  21911963.193   115148156.238        2365.595          40.000                                                                  
G19  24970003.143   131218249.135       -3676.465          31.000                                                                  
G20  22392445.948   117673088.675       -1637.804          40.000                                                                  
G15  23625214.337   124151355.308        3461.565          35.000    23625225.642    96741382.433        2697.480          36.000  
G25  24357785.041   128000969.786       -1088.164          34.000    24357803.013    99741077.602        -848.462          36.000  
G29  24388469.911   128162277.687        3230.925          35.000    24388476.124    99866751.232        2518.065          36.000  
> 2025 05 14 07 47 13.0030000  0 10                     
G05  21713596.275   114105724.232        -337.695          40.000    21713599.538    88913567.286        -263.354          40.000  
G06  24741451.697   130017160.660       -1384.875          34.000    24741470.675   101312119.021       -1078.381          35.000  
G11  22952418.675   120615754.495        -509.844          39.000    22952423.057    93986320.961        -397.477          40.000  
G12  23946118.995   125837683.644       -2254.433          34.000    23946130.920    98055369.706       -1756.603          37.000  
G13  21911513.011   115145790.858        2364.984          40.000                                                                  
G19  24970702.595   131221925.515       -3676.612          31.000                                                                  
G20  22392757.677   117674726.400       -1638.130          40.000                                                                  
G15  23624555.704   124147893.719        3461.270          35.000    23624566.914    96738685.097        2696.990          36.000  
G25  24357992.194   128002058.408       -1088.894          34.000    24358010.094    99741925.825        -847.951          36.000  
G29  24387855.054   128159046.835        3230.737          35.000    24387861.300    99864233.687        2517.938          35.000  
> 2025 05 14 07 47 14.0030000  0 10                     
G05  21713660.547   114106062.023        -337.860          40.000    21713663.829    88913830.480        -263.354          40.000  
G06  24741715.174   130018544.869       -1384.784          33.000    24741734.091   101313197.650       -1078.992          35.000  
G11  22952515.831   120616264.431        -510.090          39.000    22952520.113    93986718.280        -397.058          40.000  
G12  23946548.127   125839938.512       -2254.608          34.000    23946560.128    98057126.754       -1757.018          37.000  
G13  21911062.964   115143425.897        2364.872          40.000                                                                  
G19  24971402.240   131225602.073       -3676.259          31.000                                                                  
G20  22393069.387   117676364.163       -1637.778          40.000                                                                  
G15  23623896.980   124144432.275        3461.481          35.000    23623908.233    96735987.881        2697.489          36.000  
G25  24358199.369   128003147.374       -1089.689          33.000    24358217.258    99742774.356        -848.540          36.000  
G29  24387240.362   128155816.126        3230.215          35.000    24387246.503    99861716.259        2517.155          36.000  
> 2025 05 14 07 47 15.0030000  0 10                     
G05  21713724.968   114106400.092        -338.147          40.000    21713728.214    88914093.922        -263.550          40.000  
G06  24741978.669   130019929.164       -1384.314          33.000    24741997.494   101314276.324       -1078.613          35.000  
G11  22952612.944   120616774.448        -510.195          39.000    22952617.138    93987115.727        -397.798          40.000  
G12  23946977.350   125842193.578       -2255.248          34.000    23946989.223    98058883.905       -1757.027          37.000  
G13  21910612.975   115141061.383        2364.173          40.000                                                                  
G19  24972101.906   131229278.833       -3676.679          31.000                                                                  
G20  22393381.143   117678001.975       -1638.208          40.000                                                                  
G15  23623238.326   124140971.015        3461.036          35.000    23623249.568    96733290.797        2696.771          36.000  
G25  24358406.608   128004236.649       -1089.066          33.000    24358424.654    99743623.152        -848.750          36.000  
G29  24386625.637   128152585.583        3230.359          35.000    24386631.798    99859198.959        2517.083          35.000  
> 2025 05 14 07 47 16.0030000  0 10                     
G05  21713789.266   114106738.438        -338.495          40.000    21713792.533    88914357.565        -263.831          40.000  
G06  24742242.085   130021313.531       -1384.467          33.000    24742260.906   101315355.053       -1078.900          35.000  
G11  22952710.012   120617284.513        -510.215          39.000    22952714.179    93987513.178        -397.670          40.000  
G12  23947406.500   125844448.759       -2255.507          34.000    23947418.369    98060641.209       -1757.737          37.000  
G13  21910163.092   115138697.203        2364.012          40.000                                                                  
G19  24972801.532   131232955.661       -3676.997          31.000                                                                  
G20  22393692.732   117679639.768       -1638.091          40.000                                                                  
G15  23622579.708   124137509.867        3461.009          35.000    23622590.875    96730593.795        2696.941          36.000  
G25  24358614.004   128005326.280       -1089.690          33.000    24358632.062    99744472.210        -849.194          35.000  
G29  24386010.869   128149355.126        3230.282          35.000    24386017.010    99856681.718        2517.600          35.000  
> 2025 05 14 07 47 17.0030000  0 10                     
G05  21713853.720   114107077.163        -338.513          40.000    21713856.973    88914621.529        -264.435          40.000  
G06  24742505.456   130022698.088       -1384.180          33.000    24742524.473   101316433.894       -1078.583          35.000  
G11  22952807.125   120617794.787        -510.378          39.000    22952811.240    93987910.769        -397.706          40.000  
G12  23947835.745   125846704.209       -2255.374          34.000    23947847.583    98062398.689       -1757.211          37.000  
G13  21909713.291   115136333.562        2363.206          40.000                                                                  
G19  24973501.189   131236632.817       -3677.729          31.000                                                                  
G20  22394004.320   117681277.707       -1637.913          40.000                                                                  
G15  23621921.224   124134048.986        3460.735          35.000    23621932.203    96727896.987        2697.217          36.000  
G25  24358821.349   128006416.320       -1090.438          33.000    24358839.539    99745321.606        -849.666          36.000  
G29  24385396.363   128146124.932        3230.180          35.000    24385402.364    99854164.672        2517.459          35.000  
> 2025 05 14 07 47 18.0030000  0 10                     
G05  21713918.404   114107416.257        -339.307          40.000    21713921.509    88914885.737        -264.636          40.000  
G06  24742768.906   130024082.799       -1384.540          33.000    24742787.890   101317512.899       -1079.047          35.000  
G11  22952904.230   120618305.165        -510.364          38.000    22952908.340    93988308.477        -397.899          40.000  
G12  23948264.980   125848959.918       -2255.928          34.000    23948276.884    98064156.353       -1757.496          37.000  
G13  21909263.582   115133970.363        2362.878          40.000                                                                  
G19  24974201.002   131240310.068       -3677.577          31.000                                                                  
G20  22394316.111   117682915.759       -1638.528          40.000                                                                  
G15  23621262.714   124130588.289        3460.546          35.000    23621273.581    96725200.396        2696.573          36.000  
G25  24359028.724   128007506.806       -1091.394          33.000    24359046.975    99746171.263        -849.966          36.000  
G29  24384781.593   128142894.947        3229.934          34.000    24384787.701    99851647.834        2516.583          35.000  
> 2025 05 14 07 47 19.0030000  0 10                     
G05  21713982.931   114107755.646        -339.362          40.000    21713986.031    88915150.202        -264.886          40.000  
G06  24743032.326   130025467.653       -1385.144          33.000    24743051.509   101318591.986       -1079.095          35.000  
G11  22953001.404   120618815.655        -510.240          38.000    22953005.448    93988706.238        -397.256          39.000  
G12  23948694.312   125851215.782       -2255.837          34.000    23948706.166    98065914.171       -1757.804          37.000  
G13  21908813.895   115131607.597        2362.675          40.000                                                                  
G19  24974900.961   131243987.546       -3677.541          31.000                                                                  
G20  22394627.827   117684553.818       -1637.795          40.000                                                                  
G15  23620604.353   124127127.779        3461.018          35.000    23620614.998    96722503.901        2696.698          36.000  
G25  24359236.145   128008597.562       -1090.252          33.000    24359254.559    99747021.221        -849.797          35.000  
G29  24384166.945   128139665.102        3230.019          35.000    24384173.141    99849131.059        2517.210          35.000  
> 2025 05 14 07 47 20.0030000  0 10                     
G05  21714047.541   114108095.417        -340.198          40.000    21714050.609    88915414.949        -265.033          40.000  
G06  24743295.679   130026852.639       -1384.827          33.000    24743315.036   101319671.201       -1079.504          35.000  
G11  22953098.565   120619326.334        -511.056          39.000    22953102.571    93989104.187        -398.057          39.000  
G12  23949123.692   125853471.916       -2256.349          34.000    23949135.509    98067672.203       -1757.932          37.000  
G13  21908364.330   115129245.333        2361.893          40.000                                                                  
G19  24975600.973   131247665.275       -3678.457          31.000                                                                  
G20  22394939.613   117686192.045       -1638.357          40.000                                                                  
G15  23619945.775   124123667.535        3460.196          35.000    23619956.505    96719807.614        2695.858          36.000  
G25  24359443.681   128009688.808       -1091.542          33.000    24359462.255    99747871.529        -849.903          35.000  
G29  24383552.375   128136435.501        3229.287          35.000    24383558.578    99846614.491        2516.491          35.000  
> 2025 05 14 07 47 21.0030000  0 10                     
G05  21714112.261   114108435.613        -340.845          40.000    21714115.303    88915680.027        -265.228          40.000  
G06  24743559.057   130028237.875       -1384.717          33.000    24743578.624   101320750.591       -1079.834          35.000  
G11  22953195.812   120619837.225        -511.140          39.000    22953199.842    93989502.262        -398.269          40.000  
G12  23949553.171   125855728.342       -2256.821          34.000    23949564.947    98069430.449       -1758.374          37.000  
G13  21907914.957   115126883.628        2361.285          40.000                                                                  
G19  24976300.674   131251343.222       -3677.762          31.000                                                                  
G20  22395251.292   117687830.433       -1638.981          40.000                                                                  
G15  23619287.310   124120207.579        3459.941          35.000    23619298.086    96717111.546        2695.761          36.000  
G25  24359651.220   128010780.535       -1092.375          33.000    24359669.969    99748722.215        -850.862          35.000  
G29  24382937.794   128133206.196        3228.923          34.000    24382943.918    99844098.118        2516.642          35.000  
> 2025 05 14 07 47 22.0030000  0 10                     
G05  21714176.968   114108776.126        -340.735          40.000    21714180.067    88915945.370        -265.497          40.000  
G06  24743822.566   130029623.276       -1385.889          33.000    24743842.312   101321830.081       -1079.565          35.000  
G11  22953293.113   120620348.224        -510.953          39.000    22953297.154    93989900.451        -398.197          39.000  
G12  23949982.481   125857984.968       -2256.420          34.000    23949994.387    98071188.899       -1759.128          37.000  
G13  21907465.666   115124522.366        2360.816          40.000                                                                  
G19  24977000.743   131255021.412       -3678.165          31.000                                                                  
G20  22395563.003   117689468.887       -1638.664          40.000                                                                  
G15  23618628.971   124116747.850        3459.553          35.000    23618639.744    96714415.629        2696.006          36.000  
G25  24359858.982   128011872.603       -1092.014          33.000    24359877.776    99749573.194        -851.044          35.000  
G29  24382323.249   128129977.058        3228.807          34.000    24382329.332    99841581.947        2515.741          35.000  
> 2025 05 14 07 47 23.0030000  0 10                     
G05  21714241.829   114109116.985        -341.040          40.000    21714244.907    88916210.984        -265.796          40.000  
G06  24744086.176   130031008.757       -1385.480          33.000    24744105.976   101322909.702       -1079.657          35.000  
G11  22953390.390   120620859.387        -511.094          39.000    22953394.377    93990298.760        -398.631          39.000  
G12  23950411.911   125860241.853       -2256.707          34.000    23950423.895    98072947.472       -1758.932          37.000  
G13  21907016.409   115122161.572        2360.681          40.000                                                                  
G19  24977700.806   131258699.830       -3678.326          31.000                                                                  
G20  22395874.820   117691107.435       -1638.596          40.000                                                                  
G15  23617970.668   124113288.297        3459.411          35.000    23617981.423    96711719.902        2695.637          36.000  
G25  24360066.854   128012965.108       -1092.567          33.000    24360085.668    99750424.486        -851.355          35.000  
G29  24381708.853   128126748.129        3228.560          34.000    24381714.796    99839065.903        2515.973          35.000  
> 2025 05 14 07 47 24.0030000  0 10                     
G05  21714306.710   114109458.067        -341.284          40.000    21714309.813    88916476.749        -265.631          40.000  
G06  24744349.855   130032394.316       -1385.803          33.000    24744369.552   101323989.325       -1079.730          35.000  
G11  22953487.622   120621370.548        -510.943          39.000    22953491.669    93990697.065        -398.455          40.000  
G12  23950841.356   125862498.808       -2256.369          34.000    23950853.412    98074706.135       -1758.420          37.000  
G13  21906567.197   115119801.112        2360.442          40.000                                                                  
G19  24978400.618   131262378.274       -3678.054          30.000                                                                  
G20  22396186.602   117692745.970       -1638.730          40.000                                                                  
G15  23617312.345   124109828.871        3458.973          35.000    23617323.055    96709024.228        2695.550          36.000  
G25  24360274.782   128014057.877       -1093.252          33.000    24360293.677    99751276.001        -852.094          35.000  
G29  24381094.452   128123519.270        3228.431          34.000    24381100.412    99836549.923        2515.672          35.000  
> 2025 05 14 07 47 25.0030000  0 10                     
G05  21714371.669   114109799.523        -341.553          40.000    21714374.766    88916742.841        -266.223          40.000  
G06  24744613.561   130033780.045       -1385.602          33.000    24744633.160   101325069.116       -1079.950          35.000  
G11  22953584.993   120621881.919        -511.621          39.000    22953588.943    93991095.513        -398.367          39.000  
G12  23951271.034   125864756.076       -2257.290          34.000    23951282.909    98076465.028       -1759.112          37.000  
G13  21906118.131   115117441.163        2359.856          40.000                                                                  
G19  24979100.513   131266056.967       -3677.906          31.000                                                                  
G20  22396498.465   117694384.636       -1638.833          40.000                                                                  
G15  23616653.935   124106369.674        3459.438          35.000    23616664.765    96706328.761        2695.611          36.000  
G25  24360482.932   128015151.093       -1093.434          33.000    24360501.697    99752127.837        -852.188          35.000  
G29  24380480.041   128120290.631        3228.952          34.000    24380485.972    99834034.113        2515.522          35.000  
> 2025 05 14 07 47 26.0030000  0 10                     
G05  21714436.760   114110141.382        -341.974          40.000    21714439.852    88917009.211        -266.479          40.000  
G06  24744877.409   130035165.977       -1385.565          33.000    24744896.897   101326149.070       -1080.273          35.000  
G11  22953682.365   120622393.482        -511.709          38.000    22953686.341    93991494.126        -398.861          40.000  
G12  23951700.639   125867013.592       -2257.539          34.000    23951712.526    98078224.137       -1759.140          37.000  
G13  21905669.183   115115081.770        2358.937          40.000                                                                  
G19  24979800.454   131269735.992       -3679.581          31.000                                                                  
G20  22396810.280   117696023.433       -1638.975          40.000                                                                  
G15  23615995.742   124102910.749        3458.975          35.000    23616006.511    96703633.480        2695.309          36.000  
G25  24360690.857   128016244.755       -1094.632          33.000    24360709.776    99752980.019        -852.231          35.000  
G29  24379865.717   128117062.274        3227.956          34.000    24379871.563    99831518.503        2515.453          35.000  
> 2025 05 14 07 47 27.0030000  0 10                     
G05  21714501.828   114110483.504        -342.212          40.000    21714504.969    88917275.814        -266.956          40.000  
G06  24745141.176   130036552.017       -1386.853          32.000    24745160.617   101327229.063       -1080.658          35.000  
G11  22953779.662   120622905.080        -511.975          39.000    22953783.618    93991892.769        -398.764          40.000  
G12  23952130.408   125869271.265       -2257.667          34.000    23952142.165    98079983.359       -1759.395          37.000  
G13  21905220.331   115112722.720        2358.734          40.000                                                                  
G19  24980500.509   131273415.065       -3678.643          31.000                                                                  
G20  22397122.077   117697662.249       -1639.156          40.000                                                                  
G15  23615337.544   124099451.952        3458.901          35.000    23615348.341    96700938.367        2694.484          36.000  
G25  24360899.188   128017338.709       -1094.435          33.000    24360917.987    99753832.414        -852.059          35.000  
G29  24379251.324   128113834.046        3227.737          34.000    24379257.242    99829002.991        2515.392          35.000  
> 2025 05 14 07 47 28.0030000  0 10                     
G05  21714567.001   114110826.012        -342.822          40.000    21714570.020    88917542.684        -266.840          40.000  
G06  24745404.931   130037938.219       -1386.902          32.000    24745424.367   101328309.167       -1079.803          35.000  
G11  22953877.050   120623416.852        -512.081          39.000    22953880.940    93992291.555        -398.663          40.000  
G12  23952560.147   125871529.197       -2258.011          34.000    23952571.886    98081742.767       -1759.343          37.000  
G13  21904771.546   115110364.186        2358.350          40.000                                                                  
G19  24981200.819   131277094.412       -3679.380          31.000                                                                  
G20  22397433.968   117699301.161       -1639.061          40.000                                                                  
G15  23614679.327   124095993.400        3458.793          35.000    23614690.276    96698243.386        2694.524          36.000  
G25  24361107.459   128018433.076       -1094.025          33.000    24361126.294    99754685.202        -853.086          35.000  
G29  24378636.961   128110606.030        3227.682          34.000    24378642.926    99826487.656        2515.617          35.000  
> 2025 05 14 07 47 29.0030000  0 10                     
G05  21714632.224   114111168.792        -343.018          40.000    21714635.250    88917809.802        -267.438          40.000  
G06  24745668.727   130039324.465       -1386.371          33.000    24745688.305   101329389.353       -1079.407          36.000  
G11  22953974.464   120623928.702        -511.843          39.000    22953978.336    93992690.413        -399.319          40.000  
G12  23952989.748   125873787.292       -2258.608          34.000    23953001.703    98083502.321       -1759.609          37.000  
G13  21904322.830   115108006.071        2357.865          40.000                                                                  
G19  24981900.979   131280773.888       -3679.695          31.000                                                                  
G20  22397745.775   117700940.115       -1639.063          40.000                                                                  
G15  23614021.125   124092535.001        3458.580          35.000    23614032.179    96695548.528        2694.907          36.000  
G25  24361315.636   128019527.830       -1095.377          33.000    24361334.669    99755538.213        -853.280          35.000  
G29  24378022.718   128107378.123        3228.369          34.000    24378028.707    99823972.433        2515.434          35.000  
> 2025 05 14 07 47 30.0030000  0 10                     
G05  21714697.472   114111511.868        -343.219          40.000    21714700.476    88918077.124        -267.285          40.000  
G06  24745932.560   130040710.844       -1386.267          32.000    24745952.210   101330469.667       -1080.127          36.000  
G11  22954071.894   120624440.655        -512.340          39.000    22954075.772    93993089.314        -399.071          40.000  
G12  23953419.410   125876045.552       -2258.374          34.000    23953431.494    98085261.991       -1759.784          37.000  
G13  21903874.176   115105648.345        2357.373          40.000                                                                  
G19  24982601.152   131284453.498       -3679.287          31.000                                                                  
G20  22398057.606   117702579.116       -1638.776          40.000                                                                  
G15  23613363.029   124089076.788        3457.894          35.000    23613374.175    96692853.815        2694.683          36.000  
G25  24361523.952   128020622.854       -1094.876          33.000    24361543.010    99756391.505        -853.419          35.000  
G29  24377408.437   128104150.395        3227.895          34.000    24377414.598    99821457.330        2515.441          35.000  
> 2025 05 14 07 47 31.0030000  0 10                     
G05  21714762.867   114111855.256        -343.854          40.000    21714765.796    88918344.690        -267.914          40.000  
G06  24746196.353   130042097.297       -1386.621          32.000    24746216.105   101331550.028       -1080.469          35.000  
G11  22954169.373   120624952.670        -512.069          39.000    22954173.230    93993488.321        -399.754          40.000  
G12  23953849.279   125878304.001       -2259.127          34.000    23953861.146    98087021.823       -1760.246          37.000  
G13  21903425.554   115103291.034        2357.034          40.000                                                                  
G19  24983301.511   131288133.354       -3680.685          31.000                                                                  
G20  22398369.550   117704218.174       -1639.586          40.000                                                                  
G15  23612704.998   124085618.750        3457.248          35.000    23612716.119    96690159.231        2693.943          36.000  
G25  24361732.473   128021718.302       -1096.277          33.000    24361751.501    99757245.062        -854.027          35.000  
G29  24376794.275   128100922.852        3226.937          34.000    24376800.485    99818942.386        2514.263          36.000  
> 2025 05 14 07 47 32.0030000  0 10                     
G05  21714828.323   114112199.075        -343.640          40.000    21714831.377    88918612.613        -267.743          40.000  
G06  24746460.232   130043484.042       -1386.938          32.000    24746479.981   101332630.590       -1080.200          35.000  
G11  22954266.974   120625464.953        -512.173          39.000    22954270.754    93993887.466        -399.033          40.000  
G12  23954279.132   125880562.774       -2259.048          34.000    23954290.980    98088781.893       -1759.865          37.000  
G13  21902977.096   115100934.297        2357.122          40.000                                                                  
G19  24984001.803   131291813.421       -3680.333          31.000                                                                  
G20  22398681.511   117705857.424       -1639.524          40.000                                                                  
G15  23612046.987   124082160.974        3457.820          35.000    23612058.073    96687464.860        2694.572          36.000  
G25  24361941.174   128022814.208       -1095.718          33.000    24361960.127    99758099.026        -854.301          35.000  
G29  24376180.118   128097695.590        3227.283          34.000    24376186.340    99816427.626        2514.362          36.000  
> 2025 05 14 07 47 33.0030000  0 10                     
G05  21714893.812   114112543.217        -344.348          40.000    21714896.848    88918880.772        -268.292          40.000  
G06  24746723.917   130044870.874       -1387.329          32.000    24746743.937   101333711.242       -1081.238          35.000  
G11  22954364.454   120625977.324        -512.486          39.000    22954368.236    93994286.714        -399.303          40.000  
G12  23954708.945   125882821.708       -2259.497          34.000    23954720.802    98090542.091       -1760.180          37.000  
G13  21902528.769   115098577.994        2355.889          40.000                                                                  
G19  24984702.189   131295493.649       -3680.589          31.000                                                                  
G20  22398993.384   117707496.681       -1639.138          40.000                                                                  
G15  23611389.104   124078703.411        3456.815          35.000    23611400.116    96684770.641        2694.164          36.000  
G25  24362149.816   128023910.471       -1096.858          33.000    24362168.624    99758953.229        -854.780          35.000  
G29  24375565.992   128094468.488        3226.798          35.000    24375572.240    99813912.995        2514.457          36.000  
> 2025 05 14 07 47 34.0030000  0 10                     
G05  21714959.385   114112887.708        -344.501          40.000    21714962.383    88919149.218        -268.372          40.000  
G06  24746987.655   130046257.830       -1386.530          32.000    24747007.790   101334791.982       -1080.652          35.000  
G11  22954461.968   120626489.858        -512.602          39.000    22954465.760    93994686.090        -399.563          40.000  
G12  23955138.982   125885080.882       -2259.517          34.000    23955150.736    98092302.499       -1760.364          37.000  
G13  21902080.412   115096222.181        2355.458          40.000                                                                  
G19  24985402.798   131299174.125       -3680.027          31.000                                                                  
G20  22399305.335   117709136.058       -1639.154          40.000                                                                  
G15  23610731.109   124075246.034        3457.198          35.000    23610742.182    96682076.615        2694.109          36.000  
G25  24362358.558   128025007.144       -1097.197          33.000    24362377.271    99759807.762        -854.642          35.000  
G29  24374951.975   128091241.607        3226.833          35.000    24374958.208    99811398.553        2514.280          36.000  
> 2025 05 14 07 47 35.0030000  0 10                     
G05  21715025.004   114113232.547        -345.135          40.000    21715027.971    88919417.918        -268.860          40.000  
G06  24747251.560   130047645.007       -1387.457          33.000    24747271.777   101335872.857       -1081.317          35.000  
G11  22954559.471   120627002.524        -512.831          39.000    22954563.279    93995085.541        -399.543          39.000  
G12  23955568.856   125887340.275       -2259.927          34.000    23955580.631    98094063.078       -1761.362          37.000  
G13  21901632.285   115093866.820        2354.976          40.000                                                                  
G19  24986103.320   131302854.792       -3680.835          31.000                                                                  
G20  22399617.243   117710775.511       -1639.312          40.000                                                                  
G15  23610073.221   124071788.884        3456.958          35.000    23610084.276    96679382.739        2693.731          36.000  
G25  24362567.416   128026104.176       -1096.972          33.000    24362586.035    99760662.628        -855.467          35.000  
G29  24374337.977   128088014.910        3226.593          35.000    24374344.203    99808884.284        2513.525          36.000  
> 2025 05 14 07 47 36.0030000  0 10                     
G05  21715090.786   114113577.666        -345.374          40.000    21715093.643    88919686.856        -269.171          40.000  
G06  24747515.680   130049032.244       -1387.921          33.000    24747535.791   101336953.800       -1081.250          35.000  
G11  22954657.029   120627515.274        -512.785          39.000    22954660.862    93995485.091        -399.587          40.000  
G12  23955998.896   125889599.857       -2259.894          34.000    23956010.641    98095823.781       -1761.306          37.000  
G13  21901184.204   115091511.869        2354.559          40.000                                                                  
G19  24986803.677   131306535.585       -3679.768          31.000                                                                  
G20  22399929.285   117712415.029       -1639.618          39.000                                                                  
G15  23609415.508   124068331.902        3456.354          35.000    23609426.511    96676688.982        2693.979          36.000  
G25  24362776.233   128027201.577       -1097.688          33.000    24362794.832    99761517.724        -855.503          35.000  
G29  24373723.940   128084788.367        3226.533          35.000    24373730.174    99806370.052        2514.301          36.000  
> 2025 05 14 07 47 37.0030000  0 10                     
G05  21715156.489   114113923.194        -345.734          40.000    21715159.402    88919956.091        -269.507          40.000  
G06  24747779.610   130050419.668       -1387.469          33.000    24747799.875   101338034.912       -1080.927          35.000  
G11  22954754.582   120628028.226        -513.208          39.000    22954758.452    93995884.799        -399.645          40.000  
G12  23956428.933   125891859.696       -2260.042          34.000    23956440.586    98097584.701       -1761.432          37.000  
G13  21900736.095   115089157.426        2354.497          40.000                                                                  
G19  24987504.245   131310216.733       -3681.794          31.000                                                                  
G20  22400241.225   117714054.686       -1639.961          39.000                                                                  
G15  23608757.663   124064875.203        3456.219          35.000    23608768.735    96673995.471        2693.125          36.000  
G25  24362985.343   128028299.448       -1098.306          33.000    24363003.785    99762373.182        -855.745          35.000  
G29  24373110.034   128081562.080        3226.382          35.000    24373116.285    99803856.095        2513.366          36.000  
> 2025 05 14 07 47 38.0030000  0 10                     
G05  21715222.327   114114269.012        -345.941          40.000    21715225.283    88920225.566        -269.666          40.000  
G06  24748043.652   130051807.209       -1387.494          33.000    24748063.953   101339116.121       -1081.329          35.000  
G11  22954852.171   120628541.276        -513.251          39.000    22954856.060    93996284.579        -399.798          40.000  
G12  23956858.975   125894119.752       -2260.521          35.000    23956870.667    98099345.754       -1761.320          37.000  
G13  21900288.121   115086803.452        2353.795          40.000                                                                  
G19  24988204.763   131313897.974       -3682.144          30.000                                                                  
G20  22400553.276   117715694.390       -1639.739          40.000                                                                  
G15  23608099.948   124061418.664        3456.323          35.000    23608111.007    96671302.063        2693.184          36.000  
G25  24363194.231   128029397.647       -1098.259          33.000    24363212.731    99763228.936        -856.062          35.000  
G29  24372496.140   128078335.947        3226.599          35.000    24372502.430    99801342.244        2513.591          36.000  
> 2025 05 14 07 47 39.0030000  0 10                     
G05  21715288.191   114114615.154        -346.320          40.000    21715291.174    88920495.297        -269.885          40.000  
G06  24748307.709   130053194.887       -1387.903          33.000    24748328.057   101340197.396       -1081.232          35.000  
G11  22954949.807   120629054.441        -513.056          39.000    22954953.710    93996684.443        -400.134          40.000  
G12  23957289.146   125896379.971       -2260.318          34.000    23957300.870    98101106.952       -1761.245          37.000  
G13  21899840.251   115084449.895        2353.334          40.000                                                                  
G19  24988905.315   131317579.367       -3681.719          30.000                                                                  
G20  22400865.405   117717334.153       -1639.937          40.000                                                                  
G15  23607442.242   124057962.334        3455.995          35.000    23607453.290    96668608.836        2692.916          36.000  
G25  24363403.169   128030496.242       -1098.637          33.000    24363421.738    99764084.947        -855.925          35.000  
G29  24371882.376   128075110.031        3225.541          35.000    24371888.518    99798828.508        2513.560          36.000  
> 2025 05 14 07 47 40.0030000  0 10                     
G05  21715354.171   114114961.618        -346.857          40.000    21715357.165    88920765.262        -270.416          40.000  
G06  24748571.452   130054582.653       -1387.909          33.000    24748592.102   101341278.785       -1081.781          35.000  
G11  22955047.530   120629567.705        -513.575          39.000    22955051.430    93997084.383        -400.322          40.000  
G12  23957719.355   125898640.392       -2260.508          34.000    23957730.971    98102868.328       -1761.882          37.000  
G13  21899392.477   115082096.789        2352.486          40.000                                                                  
G19  24989605.764   131321260.985       -3682.564          31.000                                                                  
G20  22401177.491   117718973.969       -1639.772          40.000                                                                  
G15  23606784.606   124054506.174        3455.597          35.000    23606795.502    96665915.715        2692.809          36.000  
G25  24363612.073   128031595.170       -1098.998          33.000    24363630.883    99764941.264        -856.377          35.000  
G29  24371268.543   128071884.224        3225.337          35.000    24371274.724    99796314.921        2513.304          36.000  
> 2025 05 14 07 47 41.0030000  0 10                     
G05  21715420.041   114115308.475        -346.997          40.000    21715423.246    88921035.546        -270.624          40.000  
G06  24748835.663   130055970.668       -1387.488          33.000    24748856.253   101342360.347       -1081.805          35.000  
G11  22955145.345   120630081.203        -513.781          38.000    22955149.181    93997484.494        -400.255          40.000  
G12  23958149.596   125900901.149       -2261.176          34.000    23958161.117    98104629.926       -1761.812          37.000  
G13  21898944.779   115079744.230        2352.240          40.000                                                                  
G19  24990306.303   131324942.805       -3681.223          31.000                                                                  
G20  22401489.592   117720613.965       -1640.000          40.000                                                                  
G15  23606126.964   124051050.319        3455.553          35.000    23606137.838    96663222.828        2692.915          36.000  
G25  24363821.267   128032694.582       -1099.512          33.000    24363840.077    99765797.935        -856.496          35.000  
G29  24370654.866   128068658.712        3225.779          34.000    24370661.003    99793801.557        2513.207          36.000  
> 2025 05 14 07 47 42.0030000  0 10                     
G05  21715486.141   114115655.673        -347.479          40.000    21715489.348    88921306.081        -270.593          40.000  
G06  24749099.836   130057358.876       -1389.148          33.000    24749120.467   101343442.010       -1081.671          35.000  
G11  22955243.117   120630594.809        -513.816          38.000    22955246.881    93997884.710        -400.375          40.000  
G12  23958579.872   125903162.048       -2260.685          34.000    23958591.384    98106391.705       -1762.012          37.000  
G13  21898497.151   115077392.082        2352.147          40.000                                                                  
G19  24991007.084   131328624.921       -3682.378          31.000                                                                  
G20  22401801.714   117722254.016       -1640.291          40.000                                                                  
G15  23605469.454   124047594.620        3455.671          35.000    23605480.208    96660530.102        2692.751          36.000  
G25  24364030.519   128033794.369       -1100.123          33.000    24364049.390    99766654.922        -857.440          35.000  
G29  24370041.126   128065433.402        3225.361          35.000    24370047.265    99791288.300        2513.207          35.000  
> 2025 05 14 07 47 43.0030000  0 10                     
G05  21715552.247   114116003.253        -347.772          40.000    21715555.568    88921576.920        -270.825          40.000  
G06  24749363.713   130058747.208       -1388.757          33.000    24749384.659   101344523.847       -1081.897          35.000  
G11  22955340.895   120631108.613        -513.855          38.000    22955344.617    93998285.076        -400.623          40.000  
G12  23959010.225   125905423.260       -2260.948          34.000    23959021.697    98108153.689       -1762.108          37.000  
G13  21898049.733   115075040.498        2351.545          40.000                                                                  
G19  24991707.619   131332307.195       -3681.778          31.000                                                                  
G20  22402113.776   117723894.219       -1640.135          40.000                                                                  
G15  23604811.887   124044139.235        3455.659          35.000    23604822.607    96657837.607        2692.493          36.000  
G25  24364239.806   128034894.594       -1100.529          33.000    24364258.791    99767512.233        -857.430          35.000  
G29  24369427.348   128062208.352        3224.703          35.000    24369433.623    99788775.284        2512.693          35.000  
> 2025 05 14 07 47 44.0030000  0 10                     
G05  21715618.476   114116351.075        -348.267          40.000    21715621.778    88921847.961        -271.466          40.000  
G06  24749627.790   130060135.596       -1389.093          33.000    24749648.897   101345605.674       -1081.622          35.000  
G11  22955438.680   120631622.453        -514.268          38.000    22955442.452    93998685.458        -400.573          40.000  
G12  23959440.555   125907684.590       -2261.007          34.000    23959451.957    98109915.750       -1762.563          37.000  
G13  21897602.290   115072689.276        2350.775          40.000                                                                  
G19  24992408.420   131335989.630       -3683.075          31.000                                                                  
G20  22402425.930   117725534.405       -1640.264          40.000                                                                  
G15  23604154.297   124040683.951        3455.069          35.000    23604165.170    96655145.181        2692.127          36.000  
G25  24364449.167   128035995.152       -1101.307          33.000    24364468.207    99768369.768        -857.744          36.000  
G29  24368813.625   128058983.338        3225.247          34.000    24368819.912    99786262.318        2512.744          35.000  
> 2025 05 14 07 47 45.0030000  0 10                     
G05  21715684.662   114116699.271        -348.407          40.000    21715688.080    88922119.281        -271.320          40.000  
G06  24749892.217   130061524.197       -1388.983          33.000    24749913.077   101346687.729       -1082.373          35.000  
G11  22955536.377   120632136.485        -513.750          38.000    22955540.312    93999086.013        -400.578          40.000  
G12  23959870.997   125909946.202       -2261.540          34.000    23959882.409    98111678.055       -1762.679          37.000  
G13  21897154.966   115070338.552        2350.868          40.000                                                                  
G19  24993109.134   131339672.331       -3683.519          30.000                                                                  
G20  22402738.011   117727174.731       -1640.228          39.000                                                                  
G15  23603496.734   124037228.915        3454.950          35.000    23603507.684    96652452.963        2692.053          36.000  
G25  24364658.625   128037096.073       -1100.794          33.000    24364677.704    99769227.673        -858.310          36.000  
G29  24368199.942   128055758.639        3224.619          34.000    24368206.318    99783749.550        2513.208          35.000  
> 2025 05 14 07 47 46.0030000  0 10                     
G05  21715750.911   114117047.735        -348.676          40.000    21715754.321    88922390.804        -271.661          40.000  
G06  24750156.362   130062912.877       -1389.178          33.000    24750177.335   101347769.777       -1081.989          35.000  
G11  22955634.252   120632650.591        -514.321          38.000    22955638.185    93999486.607        -400.805          40.000  
G12  23960301.509   125912207.966       -2261.775          34.000    23960312.792    98113440.431       -1762.589          38.000  
G13  21896707.791   115067988.269        2349.766          40.000                                                                  
G19  24993809.945   131343355.156       -3683.370          30.000                                                                  
G20  22403050.152   117728815.073       -1640.374          39.000                                                                  
G15  23602839.340   124033774.028        3454.950          35.000    23602850.219    96649760.832        2692.637          37.000  
G25  24364868.020   128038197.417       -1102.146          33.000    24364887.282    99770085.809        -858.382          35.000  
G29  24367586.434   128052534.040        3224.685          34.000    24367592.707    99781236.896        2512.667          35.000  
> 2025 05 14 07 47 47.0030000  0 10                     
G05  21715817.210   114117396.560        -349.109          40.000    21715820.656    88922662.616        -272.022          40.000  
G06  24750420.636   130064301.695       -1389.246          33.000    24750441.628   101348851.949       -1081.732          35.000  
G11  22955732.000   120633164.848        -514.461          38.000    22955736.119    93999887.321        -400.699          40.000  
G12  23960731.860   125914469.966       -2262.001          35.000    23960743.324    98115203.031       -1763.010          37.000  
G13  21896260.720   115065638.421        2349.594          40.000                                                                  
G19  24994510.694   131347038.119       -3683.350          30.000                                                                  
G20  22403362.406   117730455.520       -1640.398          39.000                                                                  
G15  23602181.810   124030319.392        3454.436          35.000    23602192.827    96647068.911        2692.285          36.000  
G25  24365077.729   128039299.090       -1102.079          33.000    24365096.930    99770944.281        -859.056          35.000  
G29  24366972.873   128049309.663        3224.914          34.000    24366979.059    99778724.389        2512.295          35.000  
> 2025 05 14 07 47 48.0030000  0 10                     
G05  21715883.747   114117745.747        -349.463          40.000    21715887.149    88922934.705        -272.247          40.000  
G06  24750684.857   130065690.699       -1388.696          33.000    24750706.015   101349934.286       -1082.446          35.000  
G11  22955829.863   120633679.264        -514.691          38.000    22955834.141    94000288.161        -400.869          40.000  
G12  23961162.366   125916732.191       -2262.429          35.000    23961173.813    98116965.805       -1763.267          38.000  
G13  21895813.663   115063289.088        2348.995          40.000                                                                  
G19  24995211.800   131350721.368       -3682.785          31.000                                                                  
G20  22403674.612   117732096.095       -1641.000          39.000                                                                  
G15  23601524.512   124026864.956        3454.490          36.000    23601535.548    96644377.171        2691.537          36.000  
G25  24365287.437   128040401.212       -1102.440          33.000    24365306.614    99771803.044        -859.311          36.000  
G29  24366359.352   128046085.552        3223.931          34.000    24366365.562    99776212.101        2511.658          36.000  
> 2025 05 14 07 47 49.0030000  0 10                     
G05  21715950.245   114118095.397        -349.957          40.000    21715953.729    88923207.169        -272.754          40.000  
G06  24750949.397   130067079.936       -1388.776          33.000    24750970.442   101351016.857       -1083.069          35.000  
G11  22955927.813   120634193.943        -515.038          38.000    22955932.014    94000689.193        -401.210          40.000  
G12  23961593.124   125918994.765       -2262.855          35.000    23961604.335    98118728.825       -1763.087          38.000  
G13  21895366.772   115060940.319        2348.532          40.000                                                                  
G19  24995912.747   131354404.915       -3683.247          31.000                                                                  
G20  22403986.937   117733736.850       -1640.893          39.000                                                                  
G15  23600867.314   124023410.859        3454.421          35.000    23600878.185    96641685.675        2691.227          36.000  
G25  24365497.327   128041503.838       -1103.517          33.000    24365516.459    99772662.208        -859.326          35.000  
G29  24365745.884   128042861.722        3223.448          34.000    24365752.032    99773700.007        2511.882          35.000  
> 2025 05 14 07 47 50.0030000  0 10                     
G05  21716016.852   114118445.277        -349.908          40.000    21716020.333    88923479.792        -272.540          40.000  
G06  24751213.794   130068469.293       -1389.942          33.000    24751234.791   101352099.402       -1082.397          35.000  
G11  22956025.732   120634708.636        -514.761          38.000    22956029.969    94001090.259        -401.137          40.000  
G12  23962023.728   125921257.450       -2263.013          35.000    23962035.008    98120491.944       -1763.243          37.000  
G13  21894919.848   115058591.922        2348.125          40.000                                                                  
G19  24996613.594   131358088.565       -3683.865          31.000                                                                  
G20  22404299.248   117735377.588       -1640.796          39.000                                                                  
G15  23600210.072   124019956.893        3454.108          35.000    23600221.007    96638994.235        2691.476          36.000  
G25  24365707.233   128042606.708       -1103.150          33.000    24365726.356    99773521.605        -859.997          35.000  
G29  24365132.385   128039637.956        3223.656          34.000    24365138.588    99771187.989        2511.961          35.000  
> 2025 05 14 07 47 51.0030000  0 10                     
G05  21716083.463   114118795.506        -350.134          40.000    21716086.911    88923752.706        -272.900          40.000  
G06  24751478.026   130069858.728       -1389.325          33.000    24751499.118   101353182.080       -1082.458          36.000  
G11  22956123.772   120635223.500        -515.123          38.000    22956128.037    94001491.435        -401.178          40.000  
G12  23962454.425   125923520.337       -2262.346          35.000    23962465.560    98122255.248       -1763.424          37.000  
G13  21894473.048   115056243.979        2348.067          40.000                                                                  
G19  24997314.521   131361772.426       -3683.473          31.000                                                                  
G20  22404611.552   117737018.419       -1640.769          39.000                                                                  
G15  23599552.854   124016503.121        3454.002          35.000    23599563.737    96636303.011        2691.132          36.000  
G25  24365917.303   128043709.965       -1102.817          33.000    24365936.257    99774381.288        -859.871          35.000  
G29  24364518.857   128036414.410        3224.147          34.000    24364525.089    99768676.170        2511.777          35.000  
> 2025 05 14 07 47 52.0030000  0 10                     
G05  21716150.232   114119146.094        -351.074          40.000    21716153.609    88924025.901        -273.511          40.000  
G06  24751742.384   130071248.361       -1389.935          32.000    24751763.589   101354264.901       -1083.008          35.000  
G11  22956221.776   120635738.488        -515.499          38.000    22956226.186    94001892.718        -401.451          40.000  
G12  23962885.155   125925783.487       -2263.554          35.000    23962896.181    98124018.722       -1763.576          37.000  
G13  21894026.367   115053896.542        2347.050          40.000                                                                  
G19  24998015.532   131365456.494       -3684.246          30.000                                                                  
G20  22404923.950   117738659.342       -1641.033          39.000                                                                  
G15  23598895.542   124013049.582        3453.787          35.000    23598906.620    96633611.980        2690.334          35.000  
G25  24366127.273   128044813.695       -1103.759          33.000    24366146.259    99775241.327        -860.360          35.000  
G29  24363905.456   128033191.102        3223.325          34.000    24363911.648    99766164.503        2511.270          35.000  
> 2025 05 14 07 47 53.0030000  0 10                     
G05  21716217.114   114119497.018        -350.616          40.000    21716220.447    88924299.346        -273.395          40.000  
G06  24752006.902   130072638.103       -1389.636          33.000    24752027.995   101355347.853       -1083.252          36.000  
G11  22956319.786   120636253.616        -514.929          38.000    22956324.268    94002294.123        -401.428          40.000  
G12  23963315.849   125928046.859       -2263.315          35.000    23963326.896    98125782.384       -1763.710          37.000  
G13  21893579.647   115051549.579        2346.639          40.000                                                                  
G19  24998716.560   131369140.776       -3684.491          30.000                                                                  
G20  22405236.166   117740300.374       -1641.068          40.000                                                                  
G15  23598238.363   124009596.287        3452.927          35.000    23598249.498    96630921.065        2690.533          36.000  
G25  24366337.424   128045917.765       -1103.821          33.000    24366356.405    99776101.642        -860.164          35.000  
G29  24363292.118   128029967.970        3223.452          34.000    24363298.258    99763652.988        2511.141          35.000  
> 2025 05 14 07 47 54.0030000  0 10                     
G05  21716283.941   114119848.280        -351.404          40.000    21716287.390    88924573.069        -274.078          40.000  
G06  24752271.294   130074028.026       -1390.283          33.000    24752292.450   101356430.872       -1083.527          36.000  
G11  22956417.853   120636768.873        -515.575          38.000    22956422.377    94002695.622        -401.639          40.000  
G12  23963746.677   125930310.440       -2264.354          35.000    23963757.661    98127546.182       -1763.713          37.000  
G13  21893133.086   115049203.016        2346.560          40.000                                                                  
G19  24999417.902   131372825.201       -3684.135          31.000                                                                  
G20  22405548.292   117741941.445       -1640.897          40.000                                                                  
G15  23597581.329   124006143.156        3452.966          35.000    23597592.442    96628230.323        2690.561          36.000  
G25  24366547.733   128047022.251       -1104.646          33.000    24366566.522    99776962.241        -860.588          35.000  
G29  24362678.818   128026745.053        3222.629          34.000    24362684.957    99761141.612        2511.174          35.000  
> 2025 05 14 07 47 55.0030000  0 10                     
G05  21716350.803   114120199.777        -351.862          40.000    21716354.281    88924846.933        -273.907          40.000  
G06  24752535.678   130075417.969       -1389.862          33.000    24752556.975   101357513.947       -1083.539          36.000  
G11  22956515.942   120637284.166        -515.340          38.000    22956520.457    94003097.149        -401.633          40.000  
G12  23964177.483   125932574.089       -2263.650          35.000    23964188.376    98129310.101       -1763.926          37.000  
G13  21892686.548   115046856.879        2345.753          40.000                                                                  
G19  25000119.038   131376509.759       -3684.494          31.000                                                                  
G20  22405860.678   117743582.550       -1641.379          39.000                                                                  
G15  23596924.276   124002690.137        3453.043          35.000    23596935.221    96625539.641        2691.101          36.000  
G25  24366758.038   128048127.019       -1105.316          33.000    24366776.838    99777823.083        -860.826          35.000  
G29  24362065.539   128023522.227        3222.348          35.000    24362071.530    99758630.308        2511.458          35.000  
> 2025 05 14 07 47 56.0030000  0 10                     
G05  21716417.797   114120551.615        -351.892          40.000    21716421.152    88925121.111        -274.310          40.000  
G06  24752800.180   130076808.081       -1390.167          33.000    24752821.546   101358597.125       -1083.405          36.000  
G11  22956613.990   120637799.631        -515.617          38.000    22956618.474    94003498.800        -401.766          40.000  
G12  23964608.361   125934838.056       -2264.494          35.000    23964619.207    98131074.175       -1764.001          37.000  
G13  21892240.120   115044511.194        2345.682          40.000                                                                  
G19  25000820.283   131380194.538       -3684.982          31.000                                                                  
G20  22406173.008   117745223.712       -1640.936          39.000                                                                  
G15  23596267.176   123999237.366        3452.608          35.000    23596278.196    96622849.196        2690.038          36.000  
G25  24366968.422   128049232.162       -1104.767          33.000    24366987.069    99778684.291        -861.863          35.000  
G29  24361452.255   128020299.616        3222.326          35.000    24361458.251    99756119.185        2511.511          35.000  
> 2025 05 14 07 47 57.0030000  0 10                     
G05  21716484.902   114120903.896        -352.289          40.000    21716488.125    88925395.612        -274.652          40.000  
G06  24753064.704   130078198.386       -1389.648          33.000    24753086.066   101359680.504       -1083.624          36.000  
G11  22956712.129   120638315.311        -515.753          38.000    22956716.597    94003900.605        -401.439          40.000  
G12  23965039.195   125937102.251       -2264.079          35.000    23965050.134    98132838.520       -1764.203          37.000  
G13  21891793.884   115042166.094        2344.833          40.000                                                                  
G19  25001521.557   131383879.614       -3684.932          31.000                                                                  
G20  22406485.253   117746865.060       -1640.873          39.000                                                                  
G15  23595610.129   123995784.884        3452.420          35.000    23595621.190    96620158.968        2689.819          36.000  
G25  24367178.771   128050337.858       -1106.241          33.000    24367197.499    99779545.795        -861.498          35.000  
G29  24360838.881   128017077.275        3222.388          34.000    24360845.037    99753608.300        2511.008          35.000  
> 2025 05 14 07 47 58.0030000  0 10                     
G05  21716552.082   114121256.494        -353.094          40.000    21716555.174    88925670.350        -275.000          40.000  
G06  24753329.366   130079588.908       -1390.802          33.000    24753350.718   101360763.974       -1083.582          36.000  
G11  22956810.255   120638831.105        -515.970          38.000    22956814.822    94004302.539        -402.163          40.000  
G12  23965470.141   125939366.678       -2264.566          35.000    23965481.114    98134602.994       -1764.106          37.000  
G13  21891347.685   115039821.406        2344.362          40.000                                                                  
G19  25002222.853   131387564.876       -3686.319          30.000                                                                  
G20  22406797.748   117748506.505       -1641.733          40.000                                                                  
G15  23594953.181   123992332.598        3452.013          35.000    23594964.200    96617468.879        2689.725          36.000  
G25  24367389.337   128051443.857       -1106.454          33.000    24367407.924    99780407.627        -862.265          35.000  
G29  24360225.766   128013855.151        3221.718          34.000    24360231.851    99751097.551        2510.446          35.000  
> 2025 05 14 07 47 59.0030000  0 10                     
G05  21716619.251   114121609.496        -353.204          40.000    21716622.379    88925945.429        -275.116          40.000  
G06  24753593.983   130080979.539       -1389.886          33.000    24753615.394   101361847.628       -1083.856          36.000  
G11  22956908.475   120639347.097        -515.587          38.000    22956912.994    94004704.625        -402.273          40.000  
G12  23965901.118   125941631.423       -2265.077          35.000    23965912.079    98136367.723       -1764.873          37.000  
G13  21890901.585   115037477.276        2344.002          40.000                                                                  
G19  25002924.223   131391250.321       -3684.666          30.000                                                                  
G20  22407110.092   117750148.082       -1641.827          40.000                                                                  
G15  23594296.376   123988880.623        3451.587          35.000    23594307.346    96614779.029        2689.230          36.000  
G25  24367599.870   128052550.276       -1105.833          33.000    24367618.403    99781269.779        -862.134          35.000  
G29  24359612.675   128010633.251        3221.858          34.000    24359618.652    99748586.988        2510.294          35.000  
> 2025 05 14 07 48 00.0030000  0 10                     
G05  21716686.494   114121962.835        -353.235          40.000    21716689.593    88926220.782        -275.665          40.000  
G06  24753858.835   130082370.435       -1390.973          33.000    24753880.120   101362931.374       -1083.661          36.000  
G11  22957006.653   120639863.264        -516.058          38.000    22957011.191    94005106.817        -402.085          40.000  
G12  23966332.172   125943896.350       -2264.929          35.000    23966343.040    98138132.627       -1764.732          37.000  
G13  21890455.606   115035133.622        2343.597          40.000                                                                  
G19  25003625.625   131394936.076       -3685.399          30.000                                                                  
G20  22407422.538   117751789.764       -1641.926          39.000                                                                  
G15  23593639.470   123985428.833        3451.954          35.000    23593650.450    96612089.323        2689.760          36.000  
G25  24367810.776   128053657.199       -1107.221          33.000    24367829.014    99782132.309        -863.185          35.000  
G29  24358999.691   128007411.569        3222.069          34.000    24359005.560    99746076.606        2510.154          35.000  
> 2025 05 14 07 48 01.0030000  0 10                     
G05  21716753.724   114122316.471        -353.571          40.000    21716756.939    88926496.323        -275.671          40.000  
G06  24754123.487   130083761.390       -1390.747          33.000    24754144.835   101364015.217       -1083.789          36.000  
G11  22957104.867   120640379.503        -516.036          38.000    22957109.328    94005509.074        -402.346          40.000  
G12  23966763.225   125946161.469       -2264.976          35.000    23966774.071    98139897.634       -1764.714          37.000  
G13  21890009.621   115032790.359        2343.188          40.000                                                                  
G19  25004326.931   131398621.960       -3686.110          30.000                                                                  
G20  22407734.918   117753431.435       -1641.470          39.000                                                                  
G15  23592982.648   123981977.217        3451.485          35.000    23592993.548    96609399.750        2689.888          36.000  
G25  24368021.419   128054764.410       -1107.182          33.000    24368039.751    99782995.030        -862.744          36.000  
G29  24358386.671   128004190.054        3221.779          34.000    24358392.561    99743566.316        2510.289          35.000  
> 2025 05 14 07 48 02.0030000  0 10                     
G05  21716821.008   114122670.460        -354.150          40.000    21716824.330    88926772.168        -276.172          40.000  
G06  24754388.112   130085152.480       -1391.528          33.000    24754409.483   101365099.196       -1084.753          36.000  
G11  22957203.045   120640895.927        -517.063          38.000    22957207.672    94005911.454        -402.678          40.000  
G12  23967194.252   125948426.844       -2265.928          34.000    23967205.179    98141662.850       -1765.317          37.000  
G13  21889563.813   115030447.609        2342.260          40.000                                                                  
G19  25005028.191   131402307.971       -3686.227          31.000                                                                  
G20  22408047.310   117755073.262       -1642.144          39.000                                                                  
G15  23592325.881   123978525.845        3450.906          35.000    23592336.757    96606710.380        2689.083          36.000  
G25  24368232.193   128055872.007       -1108.101          33.000    24368250.565    99783858.112        -863.244          36.000  
G29  24357773.811   128000968.775        3220.835          34.000    24357779.552    99741056.227        2510.153          35.000  
> 2025 05 14 07 48 03.0030000  0 10                     
G05  21716888.340   114123024.778        -354.132          40.000    21716891.697    88927048.266        -275.983          40.000  
G06  24754652.700   130086543.742       -1391.638          33.000    24754674.172   101366183.246       -1083.752          36.000  
G11  22957301.365   120641412.431        -516.404          38.000    22957305.912    94006313.927        -402.425          40.000  
G12  23967625.452   125950692.383       -2265.558          35.000    23967636.210    98143428.198       -1765.072          37.000  
G13  21889118.123   115028105.299        2342.316          40.000                                                                  
G19  25005729.608   131405994.281       -3686.650          30.000                                                                  
G20  22408359.721   117756715.142       -1641.852          39.000                                                                  
G15  23591669.093   123975074.643        3451.841          35.000    23591680.012    96604021.129        2689.680          36.000  
G25  24368443.019   128056979.979       -1107.478          32.000    24368461.484    99784721.470        -863.620          36.000  
G29  24357160.727   127997747.662        3220.693          35.000    24357166.622    99738546.273        2510.164          35.000  
> 2025 05 14 07 48 04.0030000  0 10                     
G05  21716955.885   114123379.397        -354.657          40.000    21716959.272    88927324.568        -276.300          40.000  
G06  24754917.693   130087935.082       -1391.467          33.000    24754938.917   101367267.423       -1084.186          36.000  
G11  22957399.709   120641929.050        -516.806          38.000    22957404.266    94006716.460        -402.070          40.000  
G12  23968056.471   125952958.114       -2266.036          35.000    23968067.324    98145193.701       -1765.555          37.000  
G13  21888672.554   115025763.412        2341.771          40.000                                                                  
G19  25006431.005   131409680.667       -3686.351          30.000                                                                  
G20  22408672.093   117758357.048       -1641.782          39.000                                                                  
G15  23591012.460   123971623.636        3451.164          35.000    23591023.243    96601332.058        2688.886          36.000  
G25  24368653.901   128058088.338       -1108.466          33.000    24368672.410    99785585.109        -864.194          36.000  
G29  24356547.745   127994526.693        3220.670          35.000    24356553.797    99736036.452        2509.440          35.000  
> 2025 05 14 07 48 05.0030000  0 10                     
G05  21717023.478   114123734.384        -355.432          40.000    21717026.789    88927601.191        -276.978          40.000  
G06  24755182.418   130089326.566       -1391.376          33.000    24755203.756   101368351.697       -1084.125          36.000  
G11  22957498.038   120642445.840        -517.115          38.000    22957502.630    94007119.169        -402.775          40.000  
G12  23968487.770   125955224.102       -2266.212          35.000    23968498.554    98146959.403       -1766.108          38.000  
G13  21888226.972   115023422.033        2340.942          40.000                                                                  
G19  25007132.531   131413367.324       -3686.454          30.000                                                                  
G20  22408984.774   117759999.093       -1642.332          39.000                                                                  
G15  23590355.799   123968172.876        3450.335          35.000    23590366.540    96598643.132        2689.061          36.000  
G25  24368864.998   128059197.076       -1108.335          32.000    24368883.413    99786449.053        -864.408          36.000  
G29  24355934.914   127991305.984        3220.045          35.000    24355941.008    99733526.798        2509.096          35.000  
> 2025 05 14 07 48 06.0030000  0 10                     
G05  21717091.112   114124089.747        -355.389          40.000    21717094.381    88927878.096        -276.849          40.000  
G06  24755447.419   130090718.303       -1391.852          33.000    24755468.624   101369436.157       -1084.473          36.000  
G11  22957596.522   120642962.793        -516.954          38.000    22957600.884    94007522.000        -402.766          40.000  
G12  23968919.121   125957490.324       -2266.167          35.000    23968929.941    98148725.294       -1766.031          38.000  
G13  21887781.485   115021081.174        2340.589          40.000                                                                  
G19  25007834.077   131417054.253       -3687.189          30.000                                                                  
G20  22409297.223   117761641.252       -1642.137          39.000                                                                  
G15  23589699.269   123964722.372        3450.623          35.000    23589709.920    96595954.440        2688.641          36.000  
G25  24369075.985   128060306.264       -1108.727          32.000    24369094.568    99787313.325        -863.919          36.000  
G29  24355322.138   127988085.475        3220.736          35.000    24355328.141    99731017.327        2509.497          35.000  
> 2025 05 14 07 48 07.0030000  0 10                     
G05  21717158.779   114124445.452        -355.707          40.000    21717162.070    88928155.291        -277.271          40.000  
G06  24755712.153   130092110.182       -1392.212          33.000    24755733.509   101370520.726       -1084.467          36.000  
G11  22957694.927   120643479.922        -517.152          38.000    22957699.324    94007924.948        -403.184          40.000  
G12  23969350.235   125959756.783       -2266.314          35.000    23969361.166    98150491.377       -1766.171          38.000  
G13  21887336.051   115018740.759        2340.442          40.000                                                                  
G19  25008535.879   131420741.330       -3687.175          30.000                                                                  
G20  22409609.687   117763283.525       -1642.200          39.000                                                                  
G15  23589042.761   123961272.104        3450.155          35.000    23589053.375    96593265.942        2688.145          36.000  
G25  24369286.932   128061415.916       -1110.413          32.000    24369305.735    99788177.939        -864.432          36.000  
G29  24354709.484   127984865.234        3220.036          35.000    24354715.396    99728508.037        2509.071          36.000  
> 2025 05 14 07 48 08.0030000  0 10                     
G05  21717226.549   114124801.534        -356.689          40.000    21717229.814    88928432.752        -277.789          40.000  
G06  24755977.302   130093502.219       -1392.139          33.000    24755998.399   101371605.423       -1084.576          36.000  
G11  22957793.305   120643997.201        -517.349          38.000    22957797.726    94008328.033        -403.498          40.000  
G12  23969781.591   125962023.531       -2267.233          35.000    23969792.476    98152257.643       -1766.679          37.000  
G13  21886890.652   115016400.856        2339.482          40.000                                                                  
G19  25009237.758   131424428.644       -3687.611          30.000                                                                  
G20  22409922.202   117764925.888       -1642.300          39.000                                                                  
G15  23588386.253   123957822.037        3450.073          35.000    23588396.808    96590577.562        2688.516          36.000  
G25  24369498.254   128062525.868       -1109.933          33.000    24369516.913    99789042.883        -865.629          36.000  
G29  24354096.802   127981645.171        3219.886          35.000    24354102.694    99725998.910        2508.680          35.000  
> 2025 05 14 07 48 09.0030000  0 10                     
G05  21717294.293   114125157.991        -356.903          40.000    21717297.569    88928710.497        -278.076          40.000  
G06  24756242.342   130094894.441       -1392.261          33.000    24756263.252   101372690.251       -1084.711          36.000  
G11  22957891.759   120644514.647        -517.789          38.000    22957896.149    94008731.220        -403.428          40.000  
G12  23970212.965   125964290.434       -2266.570          35.000    23970223.975    98154024.081       -1766.819          37.000  
G13  21886445.578   115014061.478        2338.728          40.000                                                                  
G19  25009939.485   131428116.207       -3687.349          30.000                                                                  
G20  22410234.782   117766568.382       -1642.688          40.000                                                                  
G15  23587729.786   123954372.255        3449.377          35.000    23587740.412    96587889.442        2687.670          36.000  
G25  24369709.395   128063636.294       -1110.924          33.000    24369728.295    99789908.114        -865.714          35.000  
G29  24353484.139   127978425.381        3219.326          35.000    24353489.950    99723489.973        2508.862          35.000  
> 2025 05 14 07 48 10.0030000  0 10                     
G05  21717362.184   114125514.922        -357.233          40.000    21717365.517    88928988.631        -278.333          40.000  
G06  24756507.149   130096286.948       -1392.542          33.000    24756528.267   101373775.338       -1085.236          36.000  
G11  22957990.346   120645032.394        -517.948          38.000    22957994.657    94009134.640        -403.368          40.000  
G12  23970644.428   125966557.788       -2267.269          35.000    23970655.369    98155790.825       -1766.770          37.000  
G13  21886000.588   115011722.702        2338.384          40.000                                                                  
G19  25010641.281   131431804.121       -3687.969          30.000                                                                  
G20  22410547.288   117768211.130       -1643.118          40.000                                                                  
G15  23587073.307   123950922.827        3449.197          35.000    23587083.974    96585201.564        2687.762          36.000  
G25  24369920.716   128064747.262       -1111.602          33.000    24369939.663    99790773.811        -865.930          35.000  
G29  24352871.501   127975205.917        3218.984          35.000    24352877.198    99720981.295        2508.784          36.000  
> 2025 05 14 07 48 11.0030000  0 10                     
G05  21717430.220   114125872.282        -357.568          40.000    21717433.548    88929267.099        -278.833          40.000  
G06  24756772.233   130097679.721       -1393.042          33.000    24756793.385   101374860.600       -1085.736          36.000  
G11  22958088.920   120645550.357        -518.224          39.000    22958093.174    94009538.249        -403.722          40.000  
G12  23971075.900   125968825.451       -2268.299          35.000    23971086.973    98157557.813       -1767.080          37.000  
G13  21885555.603   115009384.449        2338.156          40.000                                                                  
G19  25011343.128   131435492.308       -3688.354          30.000                                                                  
G20  22410859.964   117769853.997       -1642.925          40.000                                                                  
G15  23586416.957   123947473.702        3448.751          35.000    23586427.675    96582513.959        2687.061          36.000  
G25  24370132.205   128065858.660       -1111.288          33.000    24370151.237    99791639.826        -866.287          35.000  
G29  24352258.996   127971986.729        3218.894          35.000    24352264.682    99718472.857        2508.516          36.000  
> 2025 05 14 07 48 12.0030000  0 10                     
G05  21717498.309   114126229.960        -357.660          40.000    21717501.550    88929545.805        -278.662          40.000  
G06  24757037.289   130099072.567       -1392.041          33.000    24757058.358   101375945.942       -1085.645          36.000  
G11  22958187.492   120646068.422        -518.004          39.000    22958191.653    94009941.918        -403.359          40.000  
G12  23971507.444   125971093.240       -2267.706          35.000    23971518.536    98159324.943       -1767.383          37.000  
G13  21885110.693   115007046.676        2337.625          40.000                                                                  
G19  25012045.084   131439180.700       -3688.737          30.000                                                                  
G20  22411172.585   117771496.963       -1643.264          40.000                                                                  
G15  23585760.714   123944024.779        3448.308          35.000    23585771.320    96579826.474        2687.206          36.000  
G25  24370343.840   128066970.497       -1112.660          33.000    24370362.793    99792506.147        -865.976          35.000  
G29  24351646.462   127968767.733        3218.988          34.000    24351652.096    99715964.569        2508.270          36.000  
> 2025 05 14 07 48 13.0030000  0 10                     
G05  21717566.486   114126587.930        -358.533          40.000    21717569.650    88929824.723        -278.772          40.000  
G06  24757302.386   130100465.556       -1393.518          33.000    24757323.521   101377031.345       -1085.462          36.000  
G11  22958286.049   120646586.571        -518.427          39.000    22958290.245    94010345.686        -403.861          40.000  
G12  23971938.797   125973361.237       -2268.637          35.000    23971950.151    98161092.215       -1767.652          37.000  
G13  21884665.862   115004709.276        2337.524          40.000                                                                  
G19  25012746.830   131442869.130       -3688.155          31.000                                                                  
G20  22411485.089   117773139.944       -1643.230          40.000                                                                  
G15  23585104.459   123940575.971        3448.712          35.000    23585115.159    96577139.123        2687.199          36.000  
G25  24370555.534   128068082.608       -1112.409          33.000    24370574.538    99793372.765        -866.746          35.000  
G29  24351033.867   127965548.866        3218.620          35.000    24351039.534    99713456.370        2508.107          36.000  
> 2025 05 14 07 48 14.0030000  0 10                     
G05  21717634.646   114126946.245        -358.588          40.000    21717637.893    88930103.954        -279.559          40.000  
G06  24757567.754   130101858.690       -1393.317          33.000    24757588.616   101378116.902       -1085.742          36.000  
G11  22958384.701   120647104.889        -518.310          39.000    22958388.909    94010749.560        -403.748          40.000  
G12  23972370.378   125975629.466       -2268.668          35.000    23972381.794    98162859.643       -1767.508          37.000  
G13  21884221.215   115002372.411        2336.664          40.000                                                                  
G19  25013448.576   131446557.850       -3688.625          31.000                                                                  
G20  22411797.743   117774783.026       -1643.131          40.000                                                                  
G15  23584448.276   123937127.454        3448.196          35.000    23584458.950    96574451.963        2686.846          36.000  
G25  24370767.373   128069195.130       -1113.012          33.000    24370786.348    99794239.643        -866.893          35.000  
G29  24350421.352   127962330.236        3218.486          34.000    24350427.029    99710948.322        2508.504          36.000  
> 2025 05 14 07 48 15.0030000  0 10                     
G05  21717702.837   114127304.846        -358.917          40.000    21717706.138    88930383.387        -279.736          40.000  
G06  24757832.881   130103251.905       -1393.823          33.000    24757853.794   101379202.506       -1085.516          35.000  
G11  22958483.311   120647623.308        -518.953          39.000    22958487.605    94011153.497        -403.905          40.000  
G12  23972802.115   125977897.845       -2268.476          35.000    23972813.390    98164627.204       -1767.701          37.000  
G13  21883776.548   115000035.945        2335.986          40.000                                                                  
G19  25014150.408   131450246.747       -3689.346          30.000                                                                  
G20  22412110.434   117776426.143       -1643.298          40.000                                                                  
G15  23583792.103   123933679.081        3448.066          35.000    23583802.722    96571764.900        2687.015          36.000  
G25  24370979.141   128070308.001       -1113.218          33.000    24370998.092    99795106.811        -867.229          35.000  
G29  24349808.913   127959111.746        3218.376          35.000    24349814.406    99708440.455        2507.534          36.000  
> 2025 05 14 07 48 16.0030000  0 10                     
G05  21717771.245   114127663.860        -359.058          40.000    21717774.556    88930663.141        -280.078          40.000  
G06  24758098.163   130104645.355       -1393.628          33.000    24758118.812   101380288.306       -1085.889          35.000  
G11  22958581.952   120648141.900        -518.617          38.000    22958586.320    94011557.621        -404.246          40.000  
G12  23973233.991   125980166.522       -2268.842          34.000    23973244.998    98166395.006       -1767.934          37.000  
G13  21883332.055   114997700.013        2335.718          40.000                                                                  
G19  25014852.352   131453935.882       -3690.332          30.000                                                                  
G20  22412423.141   117778069.413       -1643.219          40.000                                                                  
G15  23583135.969   123930230.976        3448.335          35.000    23583146.517    96569078.076        2687.132          36.000  
G25  24371190.979   128071421.333       -1113.564          33.000    24371209.885    99795974.337        -867.566          35.000  
G29  24349196.551   127955893.531        3218.163          34.000    24349202.074    99705932.767        2507.605          36.000  
> 2025 05 14 07 48 17.0030000  0 10                     
G05  21717839.657   114128023.237        -359.601          40.000    21717842.907    88930943.167        -280.206          40.000  
G06  24758363.413   130106038.962       -1393.420          33.000    24758384.106   101381374.209       -1085.669          35.000  
G11  22958680.758   120648660.670        -518.667          38.000    22958685.039    94011961.828        -403.930          40.000  
G12  23973665.746   125982435.424       -2268.789          34.000    23973676.718    98168162.988       -1768.422          37.000  
G13  21882887.624   114995364.567        2335.248          40.000                                                                  
G19  25015554.520   131457625.147       -3688.825          30.000                                                                  
G20  22412735.838   117779712.793       -1643.344          40.000                                                                  
G15  23582479.963   123926783.121        3447.752          36.000    23582490.372    96566391.420        2687.068          36.000  
G25  24371402.890   128072535.075       -1114.032          33.000    24371421.854    99796842.173        -867.636          35.000  
G29  24348584.136   127952675.542        3217.634          34.000    24348589.667    99703425.222        2507.643          36.000  
> 2025 05 14 07 48 18.0030000  0 10                     
G05  21717908.127   114128382.964        -359.814          40.000    21717911.318    88931223.490        -280.743          40.000  
G06  24758628.614   130107432.756       -1394.659          33.000    24758649.287   101382460.273       -1086.340          35.000  
G11  22958779.509   120649179.608        -519.179          38.000    22958783.722    94012366.211        -404.646          40.000  
G12  23974097.450   125984704.572       -2269.050          35.000    23974108.547    98169931.149       -1768.514          37.000  
G13  21882443.219   114993029.630        2334.546          40.000                                                                  
G19  25016256.637   131461314.723       -3689.848          30.000                                                                  
G20  22413048.566   117781356.290       -1643.830          40.000                                                                  
G15  23581823.875   123923335.490        3447.763          35.000    23581834.292    96563704.996        2686.367          36.000  
G25  24371615.054   128073649.227       -1114.661          33.000    24371633.908    99797710.344        -868.264          35.000  
G29  24347971.803   127949457.756        3217.757          35.000    24347977.299    99700917.873        2507.293          36.000  
> 2025 05 14 07 48 19.0030000  0 10                     
G05  21717976.624   114128742.991        -360.059          40.000    21717979.880    88931504.028        -280.786          40.000  
G06  24758893.953   130108826.615       -1394.238          33.000    24758914.499   101383546.402       -1086.401          35.000  
G11  22958878.315   120649698.614        -519.166          38.000    22958882.472    94012770.617        -404.217          40.000  
G12  23974529.457   125986973.895       -2269.857          35.000    23974540.381    98171699.426       -1768.545          37.000  
G13  21881999.015   114990695.097        2334.265          40.000                                                                  
G19  25016958.804   131465004.450       -3690.489          30.000                                                                  
G20  22413361.226   117782999.787       -1643.433          40.000                                                                  
G15  23581167.759   123919888.027        3447.375          35.000    23581178.235    96561018.658        2686.675          36.000  
G25  24371827.233   128074763.690       -1114.531          33.000    24371846.053    99798578.753        -868.543          35.000  
G29  24347359.464   127946240.137        3217.632          34.000    24347365.091    99698410.659        2506.886          36.000  
> 2025 05 14 07 48 20.0030000  0 10                     
G05  21718045.194   114129103.316        -360.498          40.000    21718048.400    88931784.793        -280.884          40.000  
G06  24759159.316   130110220.553       -1393.494          33.000    24759179.784   101384632.603       -1086.530          35.000  
G11  22958977.102   120650217.721        -519.397          38.000    22958981.320    94013175.117        -404.500          40.000  
G12  23974961.309   125989243.359       -2269.776          35.000    23974972.317    98173467.833       -1768.396          37.000  
G13  21881554.840   114988360.996        2333.765          40.000                                                                  
G19  25017660.943   131468694.237       -3689.096          30.000                                                                  
G20  22413674.050   117784643.359       -1643.687          40.000                                                                  
G15  23580511.891   123916440.739        3446.895          35.000    23580522.316    96558332.468        2686.240          36.000  
G25  24372039.162   128075878.483       -1114.567          32.000    24372058.199    99799447.431        -868.879          36.000  
G29  24346747.113   127943022.702        3216.834          34.000    24346752.812    99695903.522        2507.157          36.000  
> 2025 05 14 07 48 21.0030000  0 10                     
G05  21718113.800   114129463.995        -360.742          40.000    21718116.977    88932065.844        -281.128          40.000  
G06  24759424.778   130111614.715       -1393.512          33.000    24759445.105   101385718.934       -1086.511          35.000  
G11  22959075.965   120650736.988        -519.536          38.000    22959080.149    94013579.731        -404.823          40.000  
G12  23975393.231   125991513.083       -2269.790          35.000    23975404.337    98175236.449       -1768.908          37.000  
G13  21881110.819   114986027.374        2333.649          40.000                                                                  
G19  25018363.226   131472384.303       -3689.828          30.000                                                                  
G20  22413986.659   117786287.020       -1643.783          40.000                                                                  
G15  23579855.957   123912993.704        3446.735          35.000    23579866.377    96555646.475        2685.911          36.000  
G25  24372251.525   128076993.743       -1115.429          32.000    24372270.458    99800316.414        -869.136          36.000  
G29  24346134.776   127939805.426        3217.415          35.000    24346140.701    99693396.616        2506.803          36.000  
> 2025 05 14 07 48 22.0030000  0 10                     
G05  21718182.466   114129825.020        -361.066          40.000    21718185.688    88932347.160        -281.390          40.000  
G06  24759690.006   130113009.009       -1394.171          33.000    24759710.342   101386805.380       -1086.603          35.000  
G11  22959174.723   120651256.360        -518.935          38.000    22959178.981    94013984.470        -404.858          40.000  
G12  23975825.296   125993782.999       -2269.790          35.000    23975836.327    98177005.214       -1768.726          37.000  
G13  21880666.855   114983694.250        2332.977          40.000                                                                  
G19  25019065.601   131476074.593       -3690.273          30.000                                                                  
G20  22414299.401   117787930.756       -1643.594          40.000                                                                  
G15  23579200.056   123909546.853        3446.535          35.000    23579210.511    96552960.622        2686.064          36.000  
G25  24372463.683   128078109.315       -1115.547          32.000    24372482.823    99801185.724        -869.398          36.000  
G29  24345522.546   127936588.411        3216.635          35.000    24345528.615    99690889.817        2507.131          36.000  
> 2025 05 14 07 48 23.0030000  0 10                     
G05  21718251.234   114130186.338        -361.676          40.000    21718254.418    88932628.715        -282.001          40.000  
G06  24759955.676   130114403.401       -1394.873          33.000    24759975.715   101387891.896       -1086.591          36.000  
G11  22959273.627   120651775.883        -519.958          38.000    22959277.785    94014389.264        -405.047          40.000  
G12  23976257.282   125996053.082       -2269.982          35.000    23976268.416    98178774.125       -1769.120          37.000  
G13  21880222.948   114981361.533        2332.245          40.000                                                                  
G19  25019767.934   131479764.979       -3690.376          30.000                                                                  
G20  22414612.285   117789574.535       -1644.069          40.000                                                                  
G15  23578543.983   123906100.156        3446.370          35.000    23578554.591    96550274.911        2685.869          36.000  
G25  24372675.991   128079225.288       -1116.366          33.000    24372695.189    99802055.276        -870.074          36.000  
G29  24344910.354   127933371.522        3216.416          35.000    24344916.433    99688383.160        2507.113          36.000  
> 2025 05 14 07 48 24.0030000  0 10                     
G05  21718320.030   114130548.118        -361.847          40.000    21718323.256    88932910.623        -282.239          40.000  
G06  24760221.189   130115798.077       -1395.367          33.000    24760241.139   101388978.646       -1086.829          36.000  
G11  22959372.546   120652295.637        -520.004          38.000    22959376.661    94014794.262        -405.255          40.000  
G12  23976689.531   125998323.538       -2270.492          35.000    23976700.492    98180543.290       -1769.140          37.000  
G13  21879779.103   114979029.394        2331.824          40.000                                                                  
G19  25020470.186   131483455.740       -3691.087          30.000                                                                  
G20  22414925.130   117791218.533       -1644.175          40.000                                                                  
G15  23577888.220   123902653.876        3446.018          35.000    23577898.748    96547589.468        2685.319          35.000  
G25  24372888.593   128080341.747       -1116.145          33.000    24372907.517    99802925.215        -869.508          36.000  
G29  24344298.195   127930154.972        3216.247          35.000    24344304.246    99685876.784        2506.416          36.000  
> 2025 05 14 07 48 25.0030000  0 10                     
G05  21718389.033   114130910.095        -362.012          40.000    21718392.162    88933192.680        -282.147          40.000  
G06  24760486.663   130117192.734       -1394.647          33.000    24760506.485   101390065.376       -1086.475          36.000  
G11  22959471.498   120652815.394        -519.698          39.000    22959475.581    94015199.268        -405.174          40.000  
G12  23977121.575   126000594.059       -2270.817          35.000    23977132.614    98182312.513       -1769.042          37.000  
G13  21879335.364   114976697.595        2331.659          40.000                                                                  
G19  25021172.424   131487146.535       -3690.546          30.000                                                                  
G20  22415237.917   117792862.454       -1643.641          39.000                                                                  
G15  23577232.369   123899207.607        3446.121          35.000    23577242.918    96544904.077        2685.750          35.000  
G25  24373101.126   128081458.474       -1116.857          33.000    24373120.001    99803795.411        -870.566          36.000  
G29  24343686.151   127926938.486        3216.345          35.000    24343692.147    99683370.414        2506.644          36.000  
> 2025 05 14 07 48 26.0030000  0 10                     
G05  21718457.947   114131272.365        -362.238          40.000    21718461.089    88933474.962        -282.422          40.000  
G06  24760751.980   130118587.513       -1394.867          33.000    24760771.915   101391152.188       -1086.328          36.000  
G11  22959570.411   120653335.238        -519.669          39.000    22959574.523    94015604.324        -405.046          40.000  
G12  23977553.723   126002864.736       -2270.286          35.000    23977564.742    98184081.893       -1769.587          37.000  
G13  21878891.848   114974366.224        2331.268          40.000                                                                  
G19  25021874.724   131490837.584       -3692.208          30.000                                                                  
G20  22415550.843   117794506.453       -1644.135          39.000                                                                  
G15  23576576.648   123895761.491        3446.474          36.000    23576587.250    96542218.821        2685.248          35.000  
G25  24373313.729   128082575.508       -1117.017          33.000    24373332.476    99804665.813        -870.694          36.000  
G29  24343074.058   127923722.132        3216.572          35.000    24343080.057    99680864.203        2506.121          36.000  
> 2025 05 14 07 48 27.0030000  0 10                     
G05  21718527.078   114131635.060        -362.872          40.000    21718530.189    88933757.583        -282.703          40.000  
G06  24761017.400   130119982.484       -1394.379          33.000    24761037.472   101392239.219       -1087.030          36.000  
G11  22959669.392   120653855.323        -520.441          39.000    22959673.462    94016009.584        -405.396          40.000  
G12  23977985.848   126005135.738       -2271.059          35.000    23977996.834    98185851.473       -1769.829          37.000  
G13  21878448.403   114972035.406        2330.475          40.000                                                                  
G19  25022577.101   131494528.661       -3690.602          30.000                                                                  
G20  22415863.748   117796150.571       -1644.130          39.000                                                                  
G15  23575920.871   123892315.744        3445.768          36.000    23575931.584    96539533.816        2684.580          35.000  
G25  24373526.439   128083693.031       -1117.386          33.000    24373545.108    99805536.600        -871.201          36.000  
G29  24342462.106   127920506.088        3216.034          35.000    24342468.060    99678358.204        2505.580          36.000  
> 2025 05 14 07 48 28.0030000  0 10                     
G05  21718596.177   114131998.092        -363.416          40.000    21718599.171    88934040.463        -283.044          40.000  
G06  24761282.817   130121377.657       -1395.007          33.000    24761302.947   101393326.364       -1087.830          36.000  
G11  22959768.336   120654375.531        -520.498          39.000    22959772.517    94016414.948        -405.750          40.000  
G12  23978417.947   126007406.957       -2272.113          35.000    23978429.015    98187621.232       -1769.837          37.000  
G13  21878004.934   114969705.061        2329.724          40.000                                                                  
G19  25023279.413   131498220.144       -3692.820          30.000                                                                  
G20  22416176.577   117797794.808       -1644.604          39.000                                                                  
G15  23575265.213   123888870.212        3444.770          35.000    23575275.830    96536848.947        2685.190          36.000  
G25  24373739.037   128084810.947       -1118.146          32.000    24373757.826    99806407.682        -871.259          36.000  
G29  24341850.233   127917290.247        3215.561          35.000    24341856.098    99675852.374        2505.107          36.000  
> 2025 05 14 07 48 29.0030000  0 10                     
G05  21718665.224   114132361.577        -363.788          40.000    21718668.279    88934323.686        -283.136          40.000  
G06  24761548.543   130122773.067       -1395.526          33.000    24761568.479   101394413.656       -1087.213          36.000  
G11  22959867.396   120654896.003        -520.695          39.000    22959871.571    94016820.493        -405.657          40.000  
G12  23978850.276   126009678.470       -2272.097          35.000    23978861.249    98189391.258       -1770.005          37.000  
G13  21877561.495   114967375.276        2329.681          40.000                                                                  
G19  25023982.101   131501911.864       -3692.037          30.000                                                                  
G20  22416489.503   117799439.223       -1644.587          39.000                                                                  
G15  23574609.560   123885424.961        3444.904          35.000    23574620.126    96534164.365        2684.270          36.000  
G25  24373951.811   128085929.333       -1117.961          33.000    24373970.766    99807279.141        -871.369          36.000  
G29  24341238.329   127914074.731        3215.564          35.000    24341244.281    99673346.771        2505.375          36.000  
> 2025 05 14 07 48 30.0030000  0 10                     
G05  21718734.459   114132725.310        -364.032          40.000    21718737.442    88934607.132        -283.728          40.000  
G06  24761814.121   130124168.566       -1395.355          33.000    24761834.011   101395501.008       -1086.957          36.000  
G11  22959966.409   120655416.504        -520.327          39.000    22959970.625    94017226.083        -405.532          40.000  
G12  23979282.625   126011950.108       -2271.775          35.000    23979293.500    98191161.392       -1770.295          37.000  
G13  21877118.143   114965045.916        2328.967          40.000                                                                  
G19  25024684.622   131505603.692       -3691.830          30.000                                                                  
G20  22416802.542   117801083.671       -1644.791          39.000                                                                  
G15  23573953.984   123881979.873        3444.780          35.000    23573964.605    96531479.870        2684.615          36.000  
G25  24374164.628   128087048.086       -1119.273          33.000    24374183.734    99808150.877        -871.635          35.000  
G29  24340626.499   127910859.318        3215.468          35.000    24340632.386    99670841.277        2505.155          36.000  
> 2025 05 14 07 48 31.0030000  0 10                     
G05  21718803.642   114133089.245        -363.940          40.000    21718806.672    88934890.725        -283.948          40.000  
G06  24762079.646   130125564.035       -1394.800          33.000    24762099.531   101396588.414       -1087.360          36.000  
G11  22960065.522   120655937.035        -520.387          39.000    22960069.688    94017631.704        -405.757          40.000  
G12  23979714.876   126014221.893       -2272.078          35.000    23979725.868    98192931.551       -1769.896          37.000  
G13  21876674.904   114962716.862        2328.711          40.000                                                                  
G19  25025387.209   131509295.668       -3692.639          31.000                                                                  
G20  22417115.372   117802728.027       -1644.507          39.000                                                                  
G15  23573298.501   123878534.883        3444.856          35.000    23573309.070    96528795.482        2684.367          36.000  
G25  24374377.553   128088167.047       -1119.153          33.000    24374396.767    99809022.805        -872.064          35.000  
G29  24340014.645   127907643.995        3215.504          36.000    24340020.544    99668335.800        2505.449          36.000  
> 2025 05 14 07 48 32.0030000  0 10                     
G05  21718873.030   114133453.531        -364.325          40.000    21718876.006    88935174.582        -284.186          40.000  
G06  24762345.138   130126959.690       -1394.867          33.000    24762365.096   101397675.917       -1087.311          36.000  
G11  22960164.573   120656457.726        -520.548          39.000    22960168.762    94018037.412        -405.546          40.000  
G12  23980147.116   126016493.803       -2271.058          35.000    23980158.183    98194701.938       -1770.451          38.000  
G13  21876231.761   114960388.307        2328.345          40.000                                                                  
G19  25026089.775   131512987.678       -3691.053          30.000                                                                  
G20  22417428.396   117804372.488       -1644.391          39.000                                                                  
G15  23572643.052   123875090.090        3444.435          35.000    23572653.442    96526111.233        2684.433          36.000  
G25  24374590.366   128089286.382       -1119.164          33.000    24374609.821    99809895.046        -873.099          35.000  
G29  24339402.794   127904428.908        3214.588          35.000    24339408.678    99665830.513        2505.650          36.000  
> 2025 05 14 07 48 33.0030000  0 10                     
G05  21718942.251   114133818.223        -364.813          40.000    21718945.334    88935458.753        -284.387          40.000  
G06  24762610.654   130128355.598       -1395.721          33.000    24762630.802   101398763.604       -1087.714          36.000  
G11  22960263.736   120656978.629        -520.952          39.000    22960267.895    94018443.300        -405.781          40.000  
G12  23980579.526   126018766.119       -2272.449          35.000    23980590.579    98196472.520       -1770.796          38.000  
G13  21875788.617   114958060.307        2327.673          40.000                                                                  
G19  25026792.359   131516680.098       -3692.512          30.000                                                                  
G20  22417741.403   117806017.134       -1644.769          39.000                                                                  
G15  23571987.568   123871645.595        3444.361          35.000    23571997.974    96523427.221        2683.777          36.000  
G25  24374803.532   128090406.255       -1120.757          33.000    24374822.897    99810767.631        -873.188          35.000  
G29  24338791.125   127901214.061        3214.746          36.000    24338796.936    99663325.471        2504.714          36.000  
> 2025 05 14 07 48 34.0030000  0 10                     
G05  21719011.639   114134183.187        -365.442          40.000    21719014.776    88935743.142        -284.637          40.000  
G06  24762876.360   130129751.546       -1396.558          33.000    24762896.499   101399851.362       -1087.927          36.000  
G11  22960362.792   120657499.584        -521.268          39.000    22960367.065    94018849.249        -406.271          40.000  
G12  23981011.920   126021038.502       -2272.551          35.000    23981023.011    98198243.221       -1770.882          38.000  
G13  21875345.679   114955732.689        2327.478          40.000                                                                  
G19  25027495.209   131520372.719       -3695.041          30.000                                                                  
G20  22418054.308   117807661.749       -1644.672          39.000                                                                  
G15  23571332.194   123868201.267        3444.061          35.000    23571342.557    96520743.344        2683.515          36.000  
G25  24375016.637   128091526.370       -1120.319          33.000    24375036.075    99811640.485        -873.714          35.000  
G29  24338179.561   127897999.351        3214.242          35.000    24338185.176    99660820.501        2504.696          36.000  
> 2025 05 14 07 48 35.0030000  0 10                     
G05  21719081.198   114134548.555        -365.277          40.000    21719084.305    88936027.859        -285.138          40.000  
G06  24763141.988   130131147.728       -1395.996          33.000    24763162.212   101400939.285       -1087.769          36.000  
G11  22960461.960   120658020.779        -521.400          39.000    22960466.404    94019255.373        -406.231          40.000  
G12  23981444.279   126023311.208       -2272.789          35.000    23981455.503    98200014.174       -1771.627          37.000  
G13  21874902.843   114953405.647        2326.831          40.000                                                                  
G19  25028197.865   131524065.368       -3692.548          30.000                                                                  
G20  22418367.393   117809306.575       -1644.911          39.000                                                                  
G15  23570676.915   123864757.241        3443.566          35.000    23570687.164    96518059.676        2683.363          36.000  
G25  24375229.733   128092646.979       -1120.978          33.000    24375249.350    99812513.669        -873.673          35.000  
G29  24337567.871   127894784.906        3214.578          35.000    24337573.572    99658315.775        2504.138          36.000  
> 2025 05 14 07 48 36.0030000  0 10                     
G05  21719150.852   114134914.350        -366.113          40.000    21719153.946    88936312.870        -285.199          40.000  
G06  24763407.712   130132544.125       -1396.210          33.000    24763427.988   101402027.396       -1088.501          35.000  
G11  22960561.149   120658542.160        -521.487          39.000    22960565.660    94019661.641        -406.503          40.000  
G12  23981876.715   126025584.204       -2273.427          35.000    23981888.025    98201785.292       -1771.127          37.000  
G13  21874460.177   114951079.137        2326.025          40.000                                                                  
G19  25028900.500   131527758.436       -3693.656          30.000                                                                  
G20  22418680.471   117810951.546       -1645.452          39.000                                                                  
G15  23570021.407   123861313.491        3443.432          35.000    23570031.905    96515376.250        2683.398          36.000  
G25  24375443.092   128093768.077       -1121.827          33.000    24375462.762    99813387.197        -873.739          35.000  
G29  24336956.351   127891570.780        3213.994          35.000    24336961.911    99655811.250        2504.093          36.000  
> 2025 05 14 07 48 37.0030000  0 10                     
G05  21719220.595   114135280.574        -366.284          40.000    21719223.663    88936598.256        -285.492          40.000  
G06  24763673.615   130133940.818       -1396.472          33.000    24763693.756   101403115.712       -1088.251          35.000  
G11  22960660.492   120659063.813        -521.512          39.000    22960664.952    94020068.145        -406.971          40.000  
G12  23982309.299   126027857.545       -2273.446          35.000    23982320.614    98203556.729       -1771.382          37.000  
G13  21874017.518   114948753.217        2325.885          40.000                                                                  
G19  25029603.147   131531451.825       -3693.415          30.000                                                                  
G20  22418993.579   117812596.686       -1645.043          39.000                                                                  
G15  23569366.138   123857870.060        3443.258          35.000    23569376.582    96512693.073        2683.208          36.000  
G25  24375656.190   128094889.630       -1121.779          33.000    24375676.218    99814261.135        -873.722          35.000  
G29  24336344.775   127888356.934        3213.664          35.000    24336350.298    99653306.952        2504.093          36.000  
> 2025 05 14 07 48 38.0030000  0 10                     
G05  21719290.381   114135647.071        -366.943          40.000    21719293.416    88936883.815        -285.480          40.000  
G06  24763939.396   130135337.560       -1396.844          33.000    24763959.640   101404204.050       -1088.550          36.000  
G11  22960759.796   120659585.527        -521.706          39.000    22960764.166    94020474.628        -406.229          40.000  
G12  23982741.885   126030130.989       -2273.602          35.000    23982753.265    98205328.262       -1772.036          37.000  
G13  21873575.021   114946427.679        2325.238          40.000                                                                  
G19  25030305.971   131535145.270       -3693.794          30.000                                                                  
G20  22419306.643   117814241.851       -1645.063          39.000                                                                  
G15  23568710.679   123854426.798        3443.001          35.000    23568721.341    96510009.991        2683.590          36.000  
G25  24375869.834   128096011.522       -1122.634          33.000    24375889.696    99815135.315        -873.825          35.000  
G29  24335733.115   127885143.245        3213.433          35.000    24335738.734    99650802.766        2504.435          36.000  
> 2025 05 14 07 48 39.0030000  0 10                     
G05  21719360.161   114136013.891        -367.181          40.000    21719363.362    88937169.649        -285.638          40.000  
G06  24764205.293   130136734.428       -1397.137          33.000    24764225.406   101405292.535       -1088.702          35.000  
G11  22960859.138   120660107.380        -521.765          39.000    22960863.490    94020881.288        -406.983          40.000  
G12  23983174.675   126032404.649       -2273.573          35.000    23983186.018    98207099.948       -1772.133          37.000  
G13  21873132.489   114944102.620        2324.792          40.000                                                                  
G19  25031008.931   131538838.936       -3693.621          30.000                                                                  
G20  22419619.720   117815887.098       -1645.199          39.000                                                                  
G15  23568055.351   123850983.710        3443.281          35.000    23568066.123    96507327.121        2682.819          36.000  
G25  24376083.470   128097133.771       -1122.615          33.000    24376103.288    99816009.821        -874.789          36.000  
G29  24335121.554   127881929.736        3213.306          35.000    24335127.203    99648298.750        2503.764          36.000  
> 2025 05 14 07 48 40.0030000  0 10                     
G05  21719429.998   114136381.105        -367.206          40.000    21719433.243    88937455.815        -286.420          40.000  
G06  24764471.051   130138131.528       -1397.192          33.000    24764491.339   101406381.173       -1089.185          35.000  
G11  22960958.463   120660629.436        -521.934          39.000    22960962.789    94021288.077        -407.013          40.000  
G12  23983607.402   126034678.628       -2274.539          35.000    23983618.735    98208871.823       -1771.657          37.000  
G13  21872690.068   114941778.106        2324.298          40.000                                                                  
G19  25031711.783   131542532.873       -3694.122          30.000                                                                  
G20  22419932.860   117817532.499       -1645.426          39.000                                                                  
G15  23567400.167   123847540.981        3442.199          35.000    23567410.968    96504644.447        2682.108          36.000  
G25  24376297.116   128098256.488       -1123.339          33.000    24376317.049    99816884.641        -874.883          36.000  
G29  24334510.140   127878716.493        3213.380          35.000    24334515.730    99645794.962        2503.328          36.000  
> 2025 05 14 07 48 41.0030000  0 10                     
G05  21719499.932   114136748.640        -367.963          40.000    21719503.129    88937742.190        -286.707          40.000  
G06  24764736.951   130139528.729       -1397.382          33.000    24764757.222   101407469.885       -1089.093          35.000  
G11  22961057.808   120661151.600        -522.181          39.000    22961062.196    94021694.954        -407.210          40.000  
G12  23984040.072   126036952.740       -2274.019          35.000    23984051.458    98210643.897       -1772.506          37.000  
G13  21872247.725   114939454.029        2323.712          40.000                                                                  
G19  25032414.866   131546226.951       -3694.710          30.000                                                                  
G20  22420245.901   117819177.934       -1645.656          39.000                                                                  
G15  23566745.081   123844098.366        3442.337          35.000    23566755.859    96501961.901        2682.439          36.000  
G25  24376510.754   128099379.536       -1123.400          33.000    24376530.813    99817759.761        -875.571          36.000  
G29  24333898.619   127875503.418        3213.407          35.000    24333904.354    99643291.266        2503.470          36.000  
> 2025 05 14 07 48 42.0030000  0 10                     
G05  21719569.989   114137116.544        -367.902          40.000    21719573.036    88938028.886        -286.847          40.000  
G06  24765002.918   130140926.155       -1397.668          33.000    24765023.116   101408558.754       -1088.568          35.000  
G11  22961157.205   120661673.964        -522.496          39.000    22961161.630    94022101.967        -407.037          40.000  
G12  23984472.889   126039227.131       -2274.530          35.000    23984484.196    98212416.134       -1772.228          37.000  
G13  21871805.666   114937130.469        2323.334          40.000                                                                  
G19  25033117.885   131549921.302       -3694.569          30.000                                                                  
G20  22420559.079   117820823.509       -1645.640          39.000                                                                  
G15  23566090.009   123840656.021        3443.199          35.000    23566100.866    96499279.588        2682.052          36.000  
G25  24376724.615   128100503.030       -1123.423          33.000    24376744.485    99818635.205        -875.783          36.000  
G29  24333287.261   127872290.625        3212.761          35.000    24333292.991    99640787.809        2503.037          36.000  
> 2025 05 14 07 48 43.0030000  0 10                     
G05  21719640.064   114137484.922        -368.549          40.000    21719643.028    88938315.931        -287.189          40.000  
G06  24765268.921   130142323.839       -1397.949          33.000    24765289.226   101409647.853       -1088.843          35.000  
G11  22961256.665   120662196.588        -522.767          39.000    22961261.103    94022509.208        -407.125          40.000  
G12  23984905.762   126041501.866       -2274.477          35.000    23984917.034    98214188.650       -1772.285          37.000  
G13  21871363.606   114934807.497        2323.273          40.000                                                                  
G19  25033820.765   131553615.969       -3695.165          30.000                                                                  
G20  22420872.203   117822469.294       -1645.707          39.000                                                                  
G15  23565435.039   123837214.065        3442.408          35.000    23565445.797    96496597.525        2682.184          36.000  
G25  24376938.577   128101627.083       -1124.501          32.000    24376958.455    99819511.057        -875.932          36.000  
G29  24332675.797   127869078.163        3212.657          35.000    24332681.621    99638284.569        2503.384          36.000  
> 2025 05 14 07 48 44.0030000  0 10                     
G05  21719710.242   114137853.525        -368.726          40.000    21719713.112    88938603.153        -287.244          40.000  
G06  24765535.010   130143721.585       -1398.187          33.000    24765555.122   101410736.980       -1088.989          35.000  
G11  22961356.080   120662719.225        -522.502          39.000    22961360.567    94022916.462        -407.305          40.000  
G12  23985338.618   126043776.694       -2274.381          35.000    23985349.827    98215961.252       -1772.688          37.000  
G13  21870921.635   114932484.897        2322.516          40.000                                                                  
G19  25034523.628   131557310.678       -3694.593          30.000                                                                  
G20  22421185.426   117824115.051       -1645.836          39.000                                                                  
G15  23564780.071   123833772.220        3441.740          35.000    23564790.784    96493915.534        2682.026          36.000  
G25  24377152.466   128102751.355       -1124.413          32.000    24377172.439    99820387.090        -875.859          36.000  
G29  24332064.382   127865865.782        3212.323          35.000    24332070.416    99635781.427        2502.797          36.000  
> 2025 05 14 07 48 45.0030000  0 10                     
G05  21719780.456   114138222.363        -368.939          40.000    21719783.267    88938890.569        -287.695          40.000  
G06  24765800.923   130145119.333       -1397.711          33.000    24765821.068   101411826.187       -1090.051          35.000  
G11  22961455.593   120663241.940        -523.049          39.000    22961459.996    94023323.736        -407.426          40.000  
G12  23985771.486   126046051.681       -2275.377          35.000    23985782.681    98217733.943       -1772.804          37.000  
G13  21870479.777   114930162.685        2321.918          40.000                                                                  
G19  25035226.608   131561005.548       -3695.000          29.000                                                                  
G20  22421498.700   117825760.796       -1645.732          39.000                                                                  
G15  23564125.154   123830330.465        3441.787          35.000    23564135.766    96491233.679        2681.914          36.000  
G25  24377366.550   128103875.948       -1124.940          33.000    24377386.442    99821263.385        -876.670          36.000  
G29  24331453.057   127862653.523        3211.806          35.000    24331459.106    99633278.379        2502.942          36.000  
> 2025 05 14 07 48 46.0030000  0 10                     
G05  21719850.653   114138591.527        -369.220          40.000    21719853.539    88939178.230        -287.909          40.000  
G06  24766066.897   130146517.284       -1398.419          33.000    24766087.188   101412915.433       -1089.282          35.000  
G11  22961555.055   120663764.760        -523.083          39.000    22961559.427    94023731.155        -407.567          40.000  
G12  23986204.462   126048326.833       -2275.350          35.000    23986215.692    98219506.774       -1772.826          37.000  
G13  21870037.976   114927840.925        2321.515          40.000                                                                  
G19  25035929.693   131564700.559       -3695.177          30.000                                                                  
G20  22421811.884   117827406.639       -1646.267          39.000                                                                  
G15  23563470.214   123826888.973        3440.644          35.000    23563480.893    96488551.983        2681.396          36.000  
G25  24377580.570   128105000.884       -1124.765          33.000    24377600.502    99822139.979        -876.872          36.000  
G29  24330841.818   127859441.430        3212.147          35.000    24330847.862    99630775.479        2502.618          36.000  
> 2025 05 14 07 48 47.0030000  0 10                     
G05  21719920.977   114138961.076        -369.568          40.000    21719923.854    88939466.196        -288.403          40.000  
G06  24766332.935   130147915.371       -1397.662          33.000    24766353.268   101414004.862       -1089.465          35.000  
G11  22961654.634   120664287.762        -523.113          39.000    22961658.973    94024138.680        -407.639          40.000  
G12  23986637.522   126050602.238       -2275.335          35.000    23986648.697    98221279.852       -1773.584          37.000  
G13  21869596.279   114925519.678        2321.149          40.000                                                                  
G19  25036632.789   131568395.841       -3695.600          30.000                                                                  
G20  22422125.054   117829052.582       -1646.157          39.000                                                                  
G15  23562815.310   123823447.661        3441.299          35.000    23562826.055    96485870.474        2681.479          36.000  
G25  24377794.660   128106126.278       -1125.782          33.000    24377814.650    99823016.897        -877.699          35.000  
G29  24330230.567   127856229.617        3211.836          35.000    24330236.732    99628272.742        2502.863          36.000  
> 2025 05 14 07 48 48.0030000  0 10                     
G05  21719991.347   114139330.970        -370.160          40.000    21719994.243    88939754.400        -288.257          40.000  
G06  24766599.028   130149313.654       -1398.376          33.000    24766619.315   101415094.412       -1089.471          35.000  
G11  22961754.176   120664810.936        -523.427          39.000    22961758.490    94024546.346        -407.757          40.000  
G12  23987070.615   126052877.907       -2275.855          35.000    23987081.752    98223053.054       -1773.538          38.000  
G13  21869154.677   114923198.932        2320.734          40.000                                                                  
G19  25037336.015   131572091.320       -3696.216          30.000                                                                  
G20  22422438.253   117830698.626       -1646.105          39.000                                                                  
G15  23562160.531   123820006.630        3441.466          35.000    23562171.232    96483189.165        2681.049          37.000  
G25  24378008.872   128107252.059       -1126.186          33.000    24378028.866    99823894.137        -877.862          35.000  
G29  24329619.444   127853018.032        3211.450          35.000    24329625.599    99625770.222        2502.274          36.000  
> 2025 05 14 07 48 49.0030000  0 10                     
G05  21720061.833   114139701.173        -370.465          40.000    21720064.753    88940042.883        -288.562          40.000  
G06  24766864.951   130150712.068       -1398.730          33.000    24766885.443   101416184.064       -1089.307          35.000  
G11  22961853.770   120665334.202        -523.248          39.000    22961857.958    94024954.093        -407.777          40.000  
G12  23987503.812   126055153.704       -2275.630          35.000    23987514.879    98224826.418       -1773.431          37.000  
G13  21868713.087   114920878.613        2320.190          40.000                                                                  
G19  25038039.449   131575786.942       -3695.764          30.000                                                                  
G20  22422751.494   117832344.728       -1646.259          39.000                                                                  
G15  23561505.766   123816565.813        3440.578          35.000    23561516.429    96480507.990        2681.223          36.000  
G25  24378223.210   128108378.224       -1126.949          32.000    24378243.180    99824771.611        -877.138          35.000  
G29  24329008.515   127849806.618        3210.828          35.000    24329014.485    99623267.829        2502.295          36.000  
> 2025 05 14 07 48 50.0030000  0 10                     
G05  21720132.258   114140071.650        -370.630          40.000    21720135.321    88940331.567        -288.629          40.000  
G06  24767131.140   130152110.553       -1398.871          33.000    24767151.571   101417273.808       -1089.954          36.000  
G11  22961953.370   120665857.568        -523.541          39.000    22961957.605    94025361.908        -407.890          40.000  
G12  23987936.908   126057429.688       -2275.883          35.000    23987947.981    98226599.904       -1773.482          37.000  
G13  21868271.643   114918558.725        2319.537          40.000                                                                  
G19  25038742.820   131579482.786       -3696.858          30.000                                                                  
G20  22423064.756   117833990.863       -1646.261          39.000                                                                  
G15  23560850.982   123813125.110        3440.417          35.000    23560861.732    96477826.939        2680.959          36.000  
G25  24378437.444   128109504.718       -1127.402          32.000    24378457.584    99825649.396        -878.006          35.000  
G29  24328397.477   127846595.323        3211.123          35.000    24328403.382    99620765.514        2502.652          36.000  
> 2025 05 14 07 48 51.0030000  0 10                     
G05  21720202.806   114140442.495        -371.118          40.000    21720205.888    88940620.532        -289.063          40.000  
G06  24767397.171   130153509.209       -1398.828          33.000    24767417.860   101418363.648       -1089.856          36.000  
G11  22962052.976   120666381.083        -523.537          39.000    22962057.280    94025769.829        -408.080          40.000  
G12  23988370.012   126059705.873       -2275.957          35.000    23988381.233    98228373.579       -1774.095          37.000  
G13  21867830.297   114916239.313        2319.238          40.000                                                                  
G19  25039446.116   131583178.721       -3695.559          30.000                                                                  
G20  22423378.027   117835637.083       -1646.107          39.000                                                                  
G15  23560196.249   123809684.678        3440.070          35.000    23560206.987    96475146.075        2680.754          36.000  
G25  24378651.774   128110631.532       -1127.091          33.000    24378671.930    99826527.453        -877.792          35.000  
G29  24327786.562   127843384.274        3210.898          35.000    24327792.318    99618263.414        2502.000          36.000  
> 2025 05 14 07 48 52.0030000  0 10                     
G05  21720273.392   114140813.652        -371.301          40.000    21720276.470    88940909.745        -289.203          40.000  
G06  24767663.493   130154907.963       -1398.627          33.000    24767684.084   101419453.618       -1090.289          36.000  
G11  22962152.586   120666904.739        -523.880          39.000    22962156.952    94026177.860        -408.078          40.000  
G12  23988803.176   126061982.288       -2275.814          35.000    23988814.446    98230147.388       -1773.871          37.000  
G13  21867388.910   114913920.377        2318.689          40.000                                                                  
G19  25040149.567   131586874.895       -3696.086          30.000                                                                  
G20  22423691.298   117837283.385       -1646.334          39.000                                                                  
G15  23559541.563   123806244.441        3439.728          35.000    23559552.231    96472465.373        2680.780          36.000  
G25  24378866.151   128111758.790       -1127.755          33.000    24378886.455    99827405.832        -878.651          35.000  
G29  24327175.554   127840173.424        3210.563          35.000    24327181.385    99615761.455        2502.004          36.000  
> 2025 05 14 07 48 53.0030000  0 10                     
G05  21720344.147   114141185.218        -371.759          40.000    21720347.262    88941199.284        -289.771          40.000  
G06  24767929.962   130156306.995       -1399.725          33.000    24767950.279   101420543.690       -1089.789          36.000  
G11  22962252.271   120667428.571        -523.782          39.000    22962256.671    94026586.038        -408.299          40.000  
G12  23989236.275   126064258.976       -2276.774          35.000    23989247.713    98231921.405       -1773.990          37.000  
G13  21866947.724   114911601.954        2318.408          40.000                                                                  
G19  25040853.141   131590571.373       -3697.019          30.000                                                                  
G20  22424004.653   117838929.827       -1646.616          39.000                                                                  
G15  23558886.888   123802804.464        3439.603          35.000    23558897.727    96469784.908        2680.087          36.000  
G25  24379080.786   128112886.470       -1127.897          33.000    24379100.994    99828284.514        -878.427          35.000  
G29  24326564.746   127836962.814        3210.762          35.000    24326570.343    99613259.683        2502.010          36.000  
> 2025 05 14 07 48 54.0030000  0 10                     
G05  21720414.746   114141557.016        -371.924          40.000    21720417.991    88941488.998        -289.758          40.000  
G06  24768196.168   130157706.022       -1399.158          33.000    24768216.594   101421633.893       -1090.570          36.000  
G11  22962351.921   120667952.457        -523.832          39.000    22962356.468    94026994.269        -408.377          40.000  
G12  23989669.542   126066535.794       -2277.307          35.000    23989680.991    98233695.557       -1774.458          37.000  
G13  21866506.603   114909283.919        2317.841          40.000                                                                  
G19  25041556.674   131594267.903       -3696.878          30.000                                                                  
G20  22424317.997   117840576.254       -1646.691          39.000                                                                  
G15  23558232.450   123799364.621        3439.388          35.000    23558243.089    96467104.517        2680.308          36.000  
G25  24379295.498   128114014.422       -1127.901          33.000    24379315.649    99829163.441        -878.744          35.000  
G29  24325953.769   127833752.315        3210.772          36.000    24325959.578    99610758.038        2501.137          36.000  
> 2025 05 14 07 48 55.0030000  0 10                     
G05  21720485.510   114141929.202        -372.522          40.000    21720488.781    88941779.022        -290.277          40.000  
G06  24768462.374   130159105.258       -1399.231          33.000    24768482.828   101422724.182       -1090.295          36.000  
G11  22962451.666   120668476.540        -524.176          39.000    22962456.180    94027402.633        -408.449          40.000  
G12  23990102.906   126068812.838       -2277.106          35.000    23990114.331    98235469.866       -1774.291          37.000  
G13  21866065.607   114906966.418        2317.017          40.000                                                                  
G19  25042260.241   131597964.641       -3697.402          30.000                                                                  
G20  22424631.323   117842222.788       -1646.499          39.000                                                                  
G15  23557577.868   123795925.048        3439.275          35.000    23557588.518    96464424.315        2680.078          36.000  
G25  24379510.062   128115142.869       -1128.722          33.000    24379530.371    99830042.712        -879.414          35.000  
G29  24325342.922   127830542.111        3209.994          36.000    24325348.663    99608256.537        2501.284          36.000  
> 2025 05 14 07 48 56.0030000  0 10                     
G05  21720556.372   114142301.712        -372.681          40.000    21720559.578    88942069.297        -290.466          40.000  
G06  24768728.602   130160504.680       -1400.476          33.000    24768749.093   101423814.618       -1090.686          36.000  
G11  22962551.439   120669000.740        -524.150          39.000    22962555.842    94027811.105        -408.673          40.000  
G12  23990536.353   126071090.110       -2277.673          34.000    23990547.624    98237244.371       -1774.943          37.000  
G13  21865624.674   114904649.375        2316.687          40.000                                                                  
G19  25042963.662   131601661.621       -3697.416          30.000                                                                  
G20  22424944.612   117843869.428       -1646.556          39.000                                                                  
G15  23556923.390   123792485.666        3439.507          35.000    23556934.084    96461744.322        2679.690          36.000  
G25  24379724.935   128116271.638       -1129.555          33.000    24379745.056    99830922.287        -879.726          35.000  
G29  24324731.961   127827332.075        3209.905          35.000    24324737.784    99605755.203        2501.619          36.000  
> 2025 05 14 07 48 57.0030000  0 10                     
G05  21720627.430   114142674.593        -372.705          40.000    21720630.496    88942359.861        -290.820          40.000  
G06  24768994.891   130161904.214       -1399.304          33.000    24769015.355   101424905.177       -1090.417          36.000  
G11  22962651.120   120669525.135        -524.350          39.000    22962655.637    94028219.713        -408.631          40.000  
G12  23990969.833   126073367.606       -2277.108          34.000    23990981.011    98239019.023       -1774.533          37.000  
G13  21865183.867   114902332.830        2316.626          40.000                                                                  
G19  25043667.276   131605358.775       -3697.229          29.000                                                                  
G20  22425257.989   117845516.172       -1646.565          39.000                                                                  
G15  23556268.856   123789046.575        3439.161          35.000    23556279.617    96459064.465        2680.092          36.000  
G25  24379939.666   128117400.812       -1128.929          32.000    24379959.942    99831802.160        -879.982          35.000  
G29  24324121.196   127824122.258        3210.295          35.000    24324127.004    99603254.095        2500.870          36.000  
> 2025 05 14 07 48 58.0030000  0 10                     
G05  21720698.451   114143047.800        -373.199          40.000    21720701.564    88942650.644        -290.686          40.000  
G06  24769261.242   130163303.926       -1399.664          33.000    24769281.597   101425995.826       -1090.088          36.000  
G11  22962750.966   120670049.644        -524.412          39.000    22962755.366    94028628.407        -408.771          40.000  
G12  23991403.241   126075645.347       -2278.174          34.000    23991414.432    98240793.865       -1774.733          37.000  
G13  21864743.142   114900016.757        2316.003          40.000                                                                  
G19  25044370.890   131609056.146       -3697.668          29.000                                                                  
G20  22425571.212   117847162.991       -1646.654          39.000                                                                  
G15  23555614.415   123785607.657        3438.896          35.000    23555625.234    96456384.817        2679.642          36.000  
G25  24380154.540   128118530.375       -1129.568          32.000    24380174.924    99832682.353        -879.958          35.000  
G29  24323510.359   127820912.657        3210.055          35.000    24323516.263    99600753.097        2501.500          37.000  
> 2025 05 14 07 48 59.0030000  0 10                     
G05  21720769.613   114143421.309        -373.602          40.000    21720772.626    88942941.707        -291.003          40.000  
G06  24769527.580   130164703.791       -1400.494          33.000    24769547.991   101427086.650       -1091.364          36.000  
G11  22962850.784   120670574.285        -524.356          39.000    22962855.215    94029037.205        -408.562          40.000  
G12  23991836.546   126077923.226       -2277.796          34.000    23991847.939    98242568.857       -1775.132          37.000  
G13  21864302.459   114897701.149        2315.454          40.000                                                                  
G19  25045074.548   131612753.712       -3697.974          29.000                                                                  
G20  22425884.522   117848809.904       -1646.975          39.000                                                                  
G15  23554960.051   123782168.959        3438.582          35.000    23554970.867    96453705.318        2679.446          36.000  
G25  24380369.585   128119660.339       -1129.683          32.000    24380389.932    99833562.832        -880.830          35.000  
G29  24322899.626   127817703.256        3209.856          35.000    24322905.497    99598252.266        2501.088          37.000  
> 2025 05 14 07 49 00.0030000  0 10                     
G05  21720840.645   114143795.000        -373.926          40.000    21720843.702    88943232.892        -291.437          40.000  
G06  24769793.921   130166103.606       -1400.018          33.000    24769814.388   101428177.387       -1090.717          35.000  
G11  22962950.643   120671098.915        -524.956          39.000    22962955.071    94029446.005        -408.820          40.000  
G12  23992269.975   126080201.182       -2278.109          34.000    23992281.428    98244343.870       -1774.938          37.000  
G13  21863861.913   114895385.861        2314.868          40.000                                                                  
G19  25045778.197   131616451.206       -3697.532          29.000                                                                  
G20  22426197.965   117850456.695       -1646.793          39.000                                                                  
G15  23554305.673   123778730.308        3438.810          35.000    23554316.546    96451025.862        2679.273          36.000  
G25  24380584.750   128120790.517       -1130.441          32.000    24380605.006    99834443.441        -880.752          35.000  
G29  24322288.717   127814493.907        3209.579          35.000    24322294.820    99595751.488        2500.683          36.000  
> 2025 05 14 07 49 01.0030000  0 10                     
G05  21720911.794   114144168.962        -374.255          40.000    21720914.898    88943524.288        -291.528          40.000  
G06  24770060.162   130167503.523       -1399.707          33.000    24770080.763   101429268.230       -1091.016          35.000  
G11  22963050.474   120671623.604        -524.942          39.000    22963054.957    94029854.861        -408.949          40.000  
G12  23992703.523   126082479.273       -2277.919          34.000    23992714.895    98246119.017       -1775.249          37.000  
G13  21863421.564   114893070.956        2314.453          40.000                                                                  
G19  25046481.714   131620148.926       -3698.250          30.000                                                                  
G20  22426511.198   117852103.522       -1646.865          39.000                                                                  
G15  23553651.344   123775291.847        3438.055          35.000    23553662.139    96448346.544        2678.973          36.000  
G25  24380799.806   128121920.981       -1130.463          32.000    24380820.160    99835324.358        -881.208          35.000  
G29  24321677.996   127811284.701        3208.773          35.000    24321684.156    99593250.812        2500.439          37.000  
> 2025 05 14 07 49 02.0030000  0 10                     
G05  21720983.118   114144543.418        -374.646          40.000    21720986.146    88943816.084        -292.108          40.000  
G06  24770326.548   130168903.790       -1400.537          33.000    24770347.234   101430359.300       -1091.095          35.000  
G11  22963150.296   120672148.617        -525.363          39.000    22963154.968    94030263.950        -409.394          40.000  
G12  23993136.917   126084757.800       -2279.621          34.000    23993148.519    98247894.467       -1775.893          37.000  
G13  21862981.206   114890756.696        2313.800          40.000                                                                  
G19  25047185.398   131623846.975       -3698.613          30.000                                                                  
G20  22426824.616   117853750.621       -1647.441          39.000                                                                  
G15  23552997.090   123771853.720        3437.831          35.000    23553007.975    96445667.483        2678.997          36.000  
G25  24381014.979   128123052.059       -1131.469          32.000    24381035.296    99836205.690        -881.558          35.000  
G29  24321067.376   127808075.835        3208.792          35.000    24321073.506    99590750.403        2500.363          37.000  
