     3.04           OBSERVATION DATA    G: GPS              RINEX VERSION / TYPE
RTKCONV demo5 b34i                      20250514 081253 UTC PGM / RUN BY / DATE 
format: u-blox UBX                                          COMMENT             
log: D:\20242\NGUYENDS\GNSS_DOA_Spoofing\hai\spoof\SP-2025-0COMMENT             
                                                            MARKER NAME         
                                                            MARKER NUMBER       
                                                            MARKER TYPE         
                                                            OBSERVER / AGENCY   
                                                            REC # / TYPE / VERS 
                                                            ANT # / TYPE        
 -1626589.7104  5730542.7933  2271881.0223                  APPROX POSITION XYZ 
        0.0000        0.0000        0.0000                  ANTENNA: DELTA H/E/N
G    8 C1C L1C D1C S1C C2X L2X D2X S2X                      SYS / # / OBS TYPES 
  2025    05    14    07    44   52.0030000     GPS         TIME OF FIRST OBS   
  2025    05    14    07    51   57.0030000     GPS         TIME OF LAST OBS    
G L1C                                                       SYS / PHASE SHIFT   
G L2X  0.00000                                              SYS / PHASE SHIFT   
  0                                                         GLONASS SLOT / FRQ #
                                                            GLONASS COD/PHS/BIS 
                                                            END OF HEADER       
> 2025 05 14 07 44 52.0030000  0 10                     
G05  21703131.471   114050727.7951       -188.776          37.000    21703134.845    88870718.6361       -146.649          38.000  
G06  24702524.257   129812601.8021      -1263.104          31.000    24702542.165   101152735.0631       -984.454          32.000  
G11  22936932.226   120534378.3691       -390.876          36.000    22936936.877    93922908.7221       -303.957          38.000  
G12  23883994.698   125511230.7671      -2121.716          32.000    23884006.322    97800986.4851      -1652.988          34.000  
G13  21973779.174   115472999.9041       2529.073          37.000                                                                  
G19  24870389.630   130694786.4321      -3546.875          29.000                                                                  
G20  22346927.142   117433889.1061      -1524.028          37.000                                                                  
G15  23715762.890   124627181.4621       3590.883          32.000    23715774.480    97112138.8721       2797.243          35.000  
G29  24472843.242   128605663.1331       3357.859          31.000    24472854.153   100212245.5071       2617.006          35.000  
G25  24327469.246   127841708.0861       -931.332          31.000    24327489.256    99616952.4821       -726.618          34.000  
> 2025 05 14 07 44 53.0030000  0 10                     
G05  21703167.240   114050916.176        -188.318          38.000    21703170.728    88870865.446        -146.918          38.000  
G06  24702764.748   129813865.385       -1262.805          31.000    24702782.554   101153719.721        -984.540          32.000  
G11  22937006.578   120534768.974        -390.236          36.000    22937011.277    93923213.123        -304.175          38.000  
G12  23884398.482   125513352.387       -2121.193          32.000    23884410.064    97802639.695       -1652.381          34.000  
G13  21973297.861   115470470.339        2529.915          37.000                                                                  
G19  24871064.702   130698333.106       -3546.466          29.000                                                                  
G20  22347217.212   117435413.376       -1524.147          37.000                                                                  
G15  23715079.590   124623590.911        3591.156          32.000    23715091.223    97109341.059        2798.011          34.000  
G29  24472204.066   128602305.269        3358.031          31.000    24472215.082   100209628.995        2617.056          35.000  
G25  24327646.746   127842640.163        -930.772          30.000    24327666.469    99617678.777        -726.320          34.000  
> 2025 05 14 07 44 54.0030000  0 10                     
G05  21703203.276   114051104.892        -188.885          37.000    21703206.593    88871012.490        -147.382          38.000  
G06  24703005.180   129815129.136       -1263.892          31.000    24703022.887   101154704.394        -984.747          33.000  
G11  22937080.802   120535159.717        -391.080          36.000    22937085.593    93923517.581        -304.918          38.000  
G12  23884802.217   125515474.259       -2121.891          31.000    23884813.842    97804293.111       -1653.855          34.000  
G13  21972816.598   115467941.254        2528.486          37.000                                                                  
G19  24871739.567   130701879.936       -3546.716          29.000                                                                  
G20  22347507.324   117436937.700       -1524.662          36.000                                                                  
G15  23714396.359   124620000.551        3589.795          32.000    23714407.978    97106543.360        2797.558          34.000  
G29  24471564.847   128598947.566        3357.134          31.000    24471576.006   100207012.644        2615.723          35.000  
G25  24327824.299   127843572.780        -933.487          31.000    24327844.070    99618405.377        -726.630          34.000  
> 2025 05 14 07 44 55.0030000  0 10                     
G05  21703239.259   114051294.081        -189.227          37.000    21703242.675    88871159.904        -147.577          38.000  
G06  24703245.712   129816393.071       -1264.124          31.000    24703263.389   101155689.264        -984.265          33.000  
G11  22937155.226   120535550.664        -390.421          36.000    22937159.913    93923822.213        -304.768          38.000  
G12  23885205.982   125517596.450       -2121.278          31.000    23885217.672    97805946.758       -1653.555          34.000  
G13  21972335.338   115465412.677        2528.694          37.000                                                                  
G19  24872414.485   130705427.096       -3546.808          29.000                                                                  
G20  22347797.505   117438462.204       -1523.918          36.000                                                                  
G15  23713713.056   124616410.467        3590.461          32.000    23713724.823    97103745.910        2797.268          34.000  
G29  24470925.825   128595590.105        3358.089          31.000    24470937.007   100204396.434        2616.937          35.000  
G25  24328001.867   127844505.703        -932.594          31.000    24328021.601    99619132.397        -727.460          34.000  
> 2025 05 14 07 44 56.0030000  0 10                     
G05  21703275.407   114051483.674        -190.033          37.000    21703278.723    88871307.651        -148.193          38.000  
G06  24703486.187   129817657.228       -1264.679          31.000    24703503.897   101156674.360        -985.559          33.000  
G11  22937229.646   120535941.823        -391.492          36.000    22937234.457    93924127.010        -304.980          38.000  
G12  23885609.789   125519718.973       -2122.989          31.000    23885621.573    97807600.683       -1654.476          34.000  
G13  21971854.407   115462884.644        2527.810          37.000                                                                  
G19  24873089.509   130708974.567       -3547.839          28.000                                                                  
G20  22348087.673   117439986.917       -1525.408          37.000                                                                  
G15  23713030.064   124612820.707        3589.141          32.000    23713041.768    97100948.660        2796.684          34.000  
G29  24470286.767   128592232.971        3357.136          31.000    24470298.124   100201780.501        2615.259          34.000  
G25  24328179.738   127845439.184        -933.348          31.000    24328199.442    99619859.757        -727.667          34.000  
> 2025 05 14 07 44 57.0030000  0 10                     
G05  21703311.544   114051673.572        -190.295          37.000    21703314.906    88871455.634        -148.590          38.000  
G06  24703726.599   129818921.527       -1264.972          30.000    24703744.482   101157659.476        -986.047          33.000  
G11  22937304.074   120536333.092        -391.523          36.000    22937308.874    93924431.881        -305.204          38.000  
G12  23886013.588   125521841.725       -2123.594          31.000    23886025.549    97809254.726       -1654.336          34.000  
G13  21971373.469   115460357.014        2527.117          37.000                                                                  
G19  24873764.514   130712522.209       -3547.729          28.000                                                                  
G20  22348377.894   117441511.630       -1525.002          37.000                                                                  
G15  23712346.997   124609231.039        3588.862          32.000    23712358.605    97098151.540        2796.670          34.000  
G29  24469648.131   128588875.977        3356.615          31.000    24469659.206   100199164.605        2616.425          34.000  
G25  24328357.536   127846372.980        -933.758          31.000    24328377.083    99620587.410        -727.776          34.000  
> 2025 05 14 07 44 58.0030000  0 10                     
G05  21703347.755   114051863.791        -190.045          37.000    21703351.006    88871603.838        -148.151          38.000  
G06  24703967.337   129820185.841       -1263.696          30.000    24703985.082   101158644.678        -985.052          33.000  
G11  22937378.628   120536724.423        -391.311          36.000    22937383.364    93924736.797        -304.598          38.000  
G12  23886417.554   125523964.603       -2122.600          32.000    23886429.482    97810908.935       -1654.358          34.000  
G13  21970892.587   115457829.788        2527.198          37.000                                                                  
G19  24874439.655   130716069.971       -3547.314          28.000                                                                  
G20  22348668.019   117443036.450       -1524.917          37.000                                                                  
G15  23711663.927   124605641.493        3590.624          32.000    23711675.519    97095354.552        2796.879          34.000  
G29  24469009.485   128585519.110        3356.899          32.000    24469020.330   100196548.879        2615.936          34.000  
G25  24328535.490   127847307.247        -934.564          31.000    24328554.864    99621315.352        -727.841          34.000  
> 2025 05 14 07 44 59.0030000  0 10                     
G05  21703384.059   114052054.339        -190.631          37.000    21703387.288    88871752.320        -148.425          38.000  
G06  24704207.923   129821450.346       -1264.337          30.000    24704225.665   101159629.933        -984.686          32.000  
G11  22937453.092   120537115.853        -390.728          36.000    22937457.806    93925041.825        -305.096          38.000  
G12  23886821.616   125526087.716       -2122.936          32.000    23886833.483    97812563.303       -1654.223          34.000  
G13  21970411.775   115455302.978        2527.025          37.000                                                                  
G19  24875114.605   130719617.973       -3547.546          28.000                                                                  
G20  22348958.092   117444561.276       -1524.236          37.000                                                                  
G15  23710980.907   124602052.197        3590.029          32.000    23710992.533    97092557.677        2796.761          34.000  
G29  24468370.642   128582162.384        3356.602          32.000    24468381.535   100193933.295        2615.350          34.000  
G25  24328713.286   127848241.803        -934.343          31.000    24328732.632    99622043.549        -727.974          34.000  
> 2025 05 14 07 45 00.0030000  0 10                     
G05  21703420.340   114052245.233        -191.516          37.000    21703423.570    88871901.071        -149.078          39.000  
G06  24704448.434   129822714.951       -1264.368          30.000    24704466.416   101160615.410        -986.725          33.000  
G11  22937527.610   120537507.457        -392.038          36.000    22937532.329    93925346.969        -305.616          39.000  
G12  23887225.778   125528211.110       -2124.132          32.000    23887237.512    97814217.884       -1655.114          34.000  
G13  21969930.945   115452776.623        2526.002          37.000                                                                  
G19  24875789.681   130723166.168       -3548.090          28.000                                                                  
G20  22349248.377   117446086.269       -1525.450          37.000                                                                  
G15  23710297.943   124598463.120        3588.470          32.000    23710309.516    97089760.954        2796.119          34.000  
G29  24467731.891   128578805.872        3355.589          32.000    24467742.711   100191317.796        2614.908          34.000  
G25  24328891.126   127849176.782        -935.003          31.000    24328910.443    99622772.118        -728.730          34.000  
> 2025 05 14 07 45 01.0030000  0 10                     
G05  21703456.808   114052436.550        -191.431          37.000    21703460.007    88872050.131        -149.005          38.000  
G06  24704689.312   129823979.793       -1265.314          30.000    24704706.987   101161600.946        -985.950          33.000  
G11  22937602.146   120537899.232        -391.621          36.000    22937606.840    93925652.225        -305.182          38.000  
G12  23887629.908   125530334.786       -2123.422          32.000    23887641.606    97815872.712       -1654.867          34.000  
G13  21969450.300   115450250.791        2525.791          37.000                                                                  
G19  24876464.749   130726714.656       -3548.193          29.000                                                                  
G20  22349538.476   117447611.404       -1525.500          37.000                                                                  
G15  23709615.013   124594874.265        3588.977          32.000    23709626.587    97086964.445        2796.378          34.000  
G29  24467093.235   128575449.579        3356.376          32.000    24467103.983   100188702.548        2614.476          34.000  
G25  24329069.108   127850112.201        -935.092          31.000    24329088.356    99623501.047        -729.249          34.000  
> 2025 05 14 07 45 02.0030000  0 10                     
G05  21703493.252   114052628.133        -191.766          37.000    21703496.490    88872199.434        -149.432          38.000  
G06  24704929.996   129825244.634       -1264.166          30.000    24704947.708   101162586.554        -985.327          32.000  
G11  22937676.694   120538291.034        -391.524          36.000    22937681.371    93925957.547        -305.303          38.000  
G12  23888034.079   125532458.582       -2123.117          32.000    23888045.737    97817527.632       -1654.971          34.000  
G13  21968969.628   115447725.322        2525.353          37.000                                                                  
G19  24877140.071   130730263.289       -3548.462          29.000                                                                  
G20  22349828.618   117449136.526       -1525.316          37.000                                                                  
G15  23708932.005   124591285.489        3589.289          32.000    23708943.625    97084168.024        2796.442          34.000  
G29  24466454.796   128572093.393        3356.253          32.000    24466465.249   100186087.321        2615.146          34.000  
G25  24329247.243   127851048.020        -935.634          31.000    24329266.459    99624230.220        -729.179          33.000  
> 2025 05 14 07 45 03.0030000  0 10                     
G05  21703529.839   114052820.103        -192.310          37.000    21703533.094    88872349.017        -149.750          38.000  
G06  24705170.757   129826509.770       -1265.863          30.000    24705188.496   101163572.319        -985.754          32.000  
G11  22937751.306   120538683.049        -391.868          36.000    22937755.928    93926262.985        -305.641          38.000  
G12  23888437.947   125534582.725       -2123.402          32.000    23888449.885    97819182.815       -1655.952          34.000  
G13  21968489.137   115445200.322        2525.069          37.000                                                                  
G19  24877815.338   130733812.143       -3548.511          29.000                                                                  
G20  22350118.870   117450661.789       -1525.643          37.000                                                                  
G15  23708249.233   124587696.954        3588.869          32.000    23708260.678    97081371.767        2796.221          34.000  
G29  24465816.265   128568737.416        3356.723          32.000    24465826.493   100183472.283        2615.050          34.000  
G25  24329425.527   127851984.222        -935.886          31.000    24329444.512    99624959.705        -729.737          33.000  
> 2025 05 14 07 45 04.0030000  0 10                     
G05  21703566.429   114053012.470        -192.627          37.000    21703569.677    88872498.916        -150.134          38.000  
G06  24705411.696   129827775.020       -1265.686          31.000    24705429.371   101164558.209        -985.400          32.000  
G11  22937825.938   120539075.207        -392.095          36.000    22937830.557    93926568.575        -305.975          38.000  
G12  23888842.215   125536707.120       -2124.152          31.000    23888854.129    97820838.170       -1655.915          34.000  
G13  21968008.713   115442675.849        2524.210          37.000                                                                  
G19  24878490.762   130737361.294       -3549.335          28.000                                                                  
G20  22350409.212   117452187.196       -1525.395          37.000                                                                  
G15  23707566.242   124584108.720        3587.883          32.000    23707577.835    97078575.724        2795.671          34.000  
G29  24465177.707   128565381.701        3355.496          32.000    24465187.876   100180857.402        2615.103          34.000  
G25  24329603.823   127852920.911        -937.176          31.000    24329622.764    99625689.598        -730.432          33.000  
> 2025 05 14 07 45 05.0030000  0 10                     
G05  21703603.157   114053205.289        -192.432          37.000    21703606.391    88872649.161        -149.963          38.000  
G06  24705652.495   129829040.495       -1265.369          30.000    24705670.185   101165544.285        -985.449          33.000  
G11  22937900.612   120539467.618        -391.994          36.000    22937905.257    93926874.331        -305.439          38.000  
G12  23889246.361   125538831.847       -2123.848          31.000    23889258.549    97822493.801       -1655.171          34.000  
G13  21967528.294   115440151.903        2524.479          37.000                                                                  
G19  24879166.308   130740910.727       -3549.152          28.000                                                                  
G20  22350699.447   117453712.809       -1525.281          37.000                                                                  
G15  23706883.170   124580520.720        3588.165          32.000    23706894.978    97075779.881        2796.400          34.000  
G29  24464539.238   128562026.270        3355.791          32.000    24464549.281   100178242.786        2615.024          34.000  
G25  24329782.177   127853858.133        -937.291          31.000    24329801.030    99626419.869        -730.036          33.000  
> 2025 05 14 07 45 06.0030000  0 10                     
G05  21703639.968   114053398.316        -193.445          37.000    21703643.168    88872799.565        -150.714          38.000  
G06  24705893.242   129830306.015       -1266.815          30.000    24705911.036   101166530.384        -986.505          33.000  
G11  22937975.293   120539860.008        -392.729          36.000    22937980.001    93927180.087        -305.939          38.000  
G12  23889650.620   125540956.733       -2125.181          31.000    23889662.881    97824149.485       -1655.649          34.000  
G13  21967048.091   115437628.258        2523.283          37.000                                                                  
G19  24879842.002   130744460.234       -3549.603          28.000                                                                  
G20  22350989.779   117455238.374       -1525.809          37.000                                                                  
G15  23706200.323   124576932.773        3588.495          32.000    23706212.168    97072984.140        2795.200          34.000  
G29  24463900.701   128558670.847        3355.315          32.000    24463910.705   100175628.192        2614.477          34.000  
G25  24329960.618   127854795.541        -937.368          31.000    24329979.298    99627150.305        -730.246          33.000  
> 2025 05 14 07 45 07.0030000  0 10                     
G05  21703676.745   114053591.694        -193.567          37.000    21703679.960    88872950.255        -150.696          38.000  
G06  24706133.942   129831571.590       -1265.625          31.000    24706151.899   101167516.556        -985.175          33.000  
G11  22938050.072   120540252.523        -392.418          36.000    22938054.681    93927485.965        -306.156          38.000  
G12  23890055.096   125543081.805       -2124.867          32.000    23890067.244    97825805.424       -1655.871          34.000  
G13  21966568.019   115435105.084        2522.892          37.000                                                                  
G19  24880517.545   130748009.991       -3550.140          28.000                                                                  
G20  22351280.045   117456764.034       -1525.795          37.000                                                                  
G15  23705517.644   124573345.084        3588.209          32.000    23705529.398    97070188.508        2795.476          34.000  
G29  24463262.271   128555315.621        3355.634          32.000    24463272.113   100173013.753        2614.354          34.000  
G25  24330139.232   127855733.382        -936.795          31.000    24330157.674    99627881.131        -731.330          33.000  
> 2025 05 14 07 45 08.0030000  0 10                     
G05  21703713.491   114053785.443        -194.073          37.000    21703716.829    88873101.238        -151.379          38.000  
G06  24706374.880   129832837.461       -1266.949          30.000    24706392.816   101168502.915        -986.761          33.000  
G11  22938124.819   120540645.240        -393.005          36.000    22938129.358    93927791.943        -306.155          38.000  
G12  23890459.610   125545207.164       -2126.209          32.000    23890471.705    97827461.516       -1656.019          34.000  
G13  21966088.022   115432582.380        2522.025          37.000                                                                  
G19  24881193.141   130751559.918       -3550.055          29.000                                                                  
G20  22351570.351   117458289.846       -1526.106          37.000                                                                  
G15  23704834.930   124569757.589        3587.228          32.000    23704846.723    97067393.042        2795.350          34.000  
G29  24462624.004   128551960.673        3354.113          32.000    24462633.661   100170399.451        2614.308          34.000  
G25  24330317.895   127856671.671        -938.319          31.000    24330336.032    99628612.231        -731.583          33.000  
> 2025 05 14 07 45 09.0030000  0 10                     
G05  21703750.448   114053979.555        -193.964          37.000    21703753.752    88873252.497        -151.202          38.000  
G06  24706615.924   129834103.357       -1265.619          30.000    24706633.708   101169489.345        -986.243          32.000  
G11  22938199.539   120541038.053        -392.460          36.000    22938204.051    93928098.025        -305.667          39.000  
G12  23890864.227   125547332.726       -2125.384          32.000    23890876.144    97829117.793       -1655.869          35.000  
G13  21965608.049   115430060.107        2522.450          37.000                                                                  
G19  24881868.667   130755110.106       -3550.085          29.000                                                                  
G20  22351860.842   117459815.710       -1525.171          37.000                                                                  
G15  23704152.350   124566170.313        3587.619          32.000    23704164.081    97064597.780        2795.430          35.000  
G29  24461985.709   128548605.817        3355.298          32.000    24461995.205   100167785.289        2614.834          34.000  
G25  24330496.377   127857610.395        -938.582          31.000    24330514.246    99629343.637        -730.592          33.000  
> 2025 05 14 07 45 10.0030000  0 10                     
G05  21703787.379   114054173.932        -194.238          37.000    21703790.694    88873403.964        -151.593          38.000  
G06  24706856.659   129835369.376       -1265.735          30.000    24706874.702   101170475.822        -985.718          33.000  
G11  22938274.226   120541430.919        -392.648          36.000    22938278.880    93928404.166        -306.088          39.000  
G12  23891268.680   125549458.445       -2125.357          32.000    23891280.642    97830774.205       -1656.166          35.000  
G13  21965128.176   115427538.218        2522.221          37.000                                                                  
G19  24882544.161   130758660.436       -3550.317          29.000                                                                  
G20  22352151.330   117461341.630       -1525.757          37.000                                                                  
G15  23703469.692   124562583.178        3587.191          32.000    23703481.426    97061802.590        2795.225          35.000  
G29  24461347.311   128545251.082        3355.141          32.000    24461356.735   100165171.247        2613.773          34.000  
G25  24330675.116   127858549.419        -939.472          31.000    24330692.837    99630075.358        -731.454          33.000  
> 2025 05 14 07 45 11.0030000  0 10                     
G05  21703824.315   114054368.732        -195.105          37.000    21703827.800    88873555.762        -152.557          38.000  
G06  24707097.734   129836635.581       -1266.699          30.000    24707115.583   101171462.463        -987.012          32.000  
G11  22938349.158   120541824.001        -393.768          36.000    22938353.694    93928710.471        -307.175          38.000  
G12  23891673.583   125551584.515       -2127.281          32.000    23891685.213    97832430.872       -1657.130          35.000  
G13  21964648.340   115425016.859        2520.440          37.000                                                                  
G19  24883219.796   130762211.011       -3550.915          29.000                                                                  
G20  22352441.690   117462867.693       -1526.287          37.000                                                                  
G15  23702786.948   124558996.254        3586.158          32.000    23702798.975    97059007.613        2794.803          35.000  
G29  24460709.079   128541896.657        3353.363          32.000    24460718.270   100162557.408        2612.913          35.000  
G25  24330853.837   127859488.849        -939.131          31.000    24330871.343    99630807.433        -732.419          33.000  
> 2025 05 14 07 45 12.0030000  0 10                     
G05  21703861.469   114054563.954        -194.885          37.000    21703864.954    88873707.891        -152.362          38.000  
G06  24707338.722   129837901.976       -1265.881          30.000    24707356.515   101172449.287        -986.658          32.000  
G11  22938424.004   120542217.268        -393.175          36.000    22938428.609    93929016.908        -306.501          38.000  
G12  23892078.272   125553710.846       -2125.919          32.000    23892089.818    97834087.763       -1656.804          35.000  
G13  21964168.684   115422495.998        2520.861          37.000                                                                  
G19  24883895.527   130765761.926       -3551.265          29.000                                                                  
G20  22352732.200   117464393.920       -1525.691          37.000                                                                  
G15  23702104.464   124555409.566        3587.405          32.000    23702116.438    97056212.802        2795.020          35.000  
G29  24460070.873   128538542.449        3354.150          32.000    24460079.984   100159943.714        2613.900          35.000  
G25  24331032.693   127860428.835        -939.162          31.000    24331050.144    99631539.880        -732.993          33.000  
> 2025 05 14 07 45 13.0030000  0 10                     
G05  21703898.697   114054759.570        -195.331          37.000    21703902.206    88873860.309        -152.539          38.000  
G06  24707579.844   129839168.594       -1266.431          30.000    24707597.505   101173436.259        -987.354          33.000  
G11  22938498.910   120542610.712        -393.739          36.000    22938503.417    93929323.465        -306.080          39.000  
G12  23892482.884   125555837.494       -2126.749          32.000    23892494.511    97835744.873       -1657.169          35.000  
G13  21963688.985   115419975.619        2520.625          37.000                                                                  
G19  24884571.379   130769313.051       -3551.156          29.000                                                                  
G20  22353022.694   117465920.291       -1526.061          37.000                                                                  
G15  23701421.915   124551823.210        3586.617          32.000    23701433.949    97053418.238        2794.486          35.000  
G29  24459432.602   128535188.447        3353.920          32.000    24459441.763   100157330.217        2613.598          35.000  
G25  24331211.775   127861369.269        -940.279          31.000    24331229.086    99632272.626        -732.854          33.000  
> 2025 05 14 07 45 14.0030000  0 10                     
G05  21703936.026   114054955.672        -196.381          37.000    21703939.423    88874013.095        -152.905          38.000  
G06  24707820.866   129840435.494       -1267.035          30.000    24707838.636   101174423.428        -987.140          33.000  
G11  22938573.789   120543004.429        -393.752          36.000    22938578.380    93929630.258        -307.012          39.000  
G12  23892887.677   125557964.490       -2127.061          31.000    23892899.253    97837402.287       -1657.936          34.000  
G13  21963209.448   115417455.840        2519.510          37.000                                                                  
G19  24885247.083   130772864.519       -3551.296          29.000                                                                  
G20  22353313.141   117467446.885       -1526.488          37.000                                                                  
G15  23700739.458   124548237.137        3586.109          32.000    23700751.485    97050623.896        2794.540          34.000  
G29  24458794.311   128531834.733        3354.689          32.000    24458803.507   100154716.952        2613.507          35.000  
G25  24331390.867   127862310.197        -940.906          31.000    24331408.262    99633005.831        -733.471          34.000  
> 2025 05 14 07 45 15.0030000  0 10                     
G05  21703973.421   114055152.118        -196.289          37.000    21703976.684    88874166.181        -153.040          38.000  
G06  24708061.841   129841702.438       -1265.460          30.000    24708079.748   101175410.688        -987.494          33.000  
G11  22938648.736   120543398.271        -393.462          36.000    22938653.278    93929937.157        -306.994          39.000  
G12  23893292.511   125560091.761       -2127.861          31.000    23893303.982    97839059.859       -1657.673          34.000  
G13  21962730.078   115414936.520        2519.193          37.000                                                                  
G19  24885923.062   130776416.203       -3551.470          29.000                                                                  
G20  22353603.569   117468973.595       -1526.637          37.000                                                                  
G15  23700057.120   124544651.272        3586.126          32.000    23700069.135    97047829.708        2794.437          34.000  
G29  24458156.305   128528481.311        3353.449          32.000    24458165.185   100152103.887        2613.347          35.000  
G25  24331570.146   127863251.628        -942.328          31.000    24331587.585    99633739.377        -734.087          34.000  
> 2025 05 14 07 45 16.0030000  0 10                     
G05  21704010.882   114055348.966        -197.260          37.000    21704014.154    88874319.550        -153.412          39.000  
G06  24708303.143   129842969.782       -1267.908          30.000    24708321.006   101176398.125        -987.677          33.000  
G11  22938723.656   120543792.289        -394.291          36.000    22938728.375    93930244.180        -307.158          38.000  
G12  23893697.391   125562219.272       -2127.249          31.000    23893708.849    97840717.687       -1658.125          34.000  
G13  21962250.826   115412417.688        2518.787          37.000                                                                  
G19  24886599.063   130779968.257       -3552.697          29.000                                                                  
G20  22353894.140   117470500.460       -1527.362          37.000                                                                  
G15  23699374.843   124541065.664        3585.397          32.000    23699386.798    97045035.722        2793.927          34.000  
G29  24457518.178   128525128.012        3353.650          32.000    24457527.084   100149490.965        2612.893          35.000  
G25  24331749.504   127864193.406        -942.600          31.000    24331766.889    99634473.194        -733.520          34.000  
> 2025 05 14 07 45 17.0030000  0 10                     
G05  21704048.332   114055546.121        -197.345          37.000    21704051.724    88874473.201        -153.735          38.000  
G06  24708544.205   129844237.074       -1267.609          30.000    24708562.200   101177385.644        -987.671          32.000  
G11  22938798.613   120544186.438        -394.350          36.000    22938803.365    93930551.288        -307.155          39.000  
G12  23894102.478   125564347.025       -2127.855          31.000    23894113.781    97842375.639       -1657.379          34.000  
G13  21961771.610   115409899.295        2518.678          37.000                                                                  
G19  24887274.897   130783520.298       -3551.908          29.000                                                                  
G20  22354184.694   117472027.336       -1526.630          37.000                                                                  
G15  23698692.703   124537480.186        3585.581          32.000    23698704.508    97042241.862        2794.046          34.000  
G29  24456880.237   128521774.964        3353.261          32.000    24456888.995   100146878.162        2612.738          35.000  
G25  24331928.764   127865135.598        -942.438          31.000    24331946.364    99635207.360        -733.792          34.000  
> 2025 05 14 07 45 18.0030000  0 10                     
G05  21704085.913   114055743.713        -197.266          37.000    21704089.216    88874627.161        -153.711          39.000  
G06  24708785.515   129845504.622       -1267.285          30.000    24708803.323   101178373.322        -986.664          33.000  
G11  22938873.564   120544580.777        -393.849          36.000    22938878.456    93930858.557        -306.779          39.000  
G12  23894507.408   125566475.142       -2128.981          31.000    23894518.648    97844033.882       -1657.625          34.000  
G13  21961292.389   115407381.420        2518.215          37.000                                                                  
G19  24887950.991   130787072.757       -3552.526          29.000                                                                  
G20  22354475.281   117473554.433       -1526.854          37.000                                                                  
G15  23698010.349   124533895.015        3585.594          32.000    23698022.187    97039448.230        2793.687          34.000  
G29  24456242.210   128518422.107        3353.385          31.000    24456250.970   100144265.569        2612.970          34.000  
G25  24332108.137   127866078.233        -942.260          31.000    24332125.862    99635941.916        -734.624          34.000  
> 2025 05 14 07 45 19.0030000  0 10                     
G05  21704123.537   114055941.446        -197.443          37.000    21704126.881    88874781.245        -154.077          39.000  
G06  24709026.521   129846772.107       -1266.864          31.000    24709044.523   101179360.973        -987.500          32.000  
G11  22938948.594   120544975.042        -393.934          36.000    22938953.611    93931165.771        -306.910          39.000  
G12  23894912.478   125568603.177       -2128.189          31.000    23894923.607    97845692.168       -1658.725          34.000  
G13  21960813.343   115404863.784        2517.652          37.000                                                                  
G19  24888626.992   130790625.238       -3552.761          29.000                                                                  
G20  22354765.868   117475081.394       -1527.004          37.000                                                                  
G15  23697328.203   124530309.854        3585.208          32.000    23697340.038    97036654.597        2793.300          34.000  
G29  24455604.126   128515069.280        3352.533          31.000    24455612.915   100141652.961        2612.554          35.000  
G25  24332287.764   127867021.123        -943.625          31.000    24332305.323    99636676.592        -735.028          34.000  
> 2025 05 14 07 45 20.0030000  0 10                     
G05  21704161.293   114056139.655        -198.553          38.000    21704164.632    88874935.681        -154.541          38.000  
G06  24709267.838   129848039.865       -1268.701          31.000    24709285.786   101180348.824        -987.915          33.000  
G11  22939023.655   120545369.564        -394.938          36.000    22939028.689    93931473.183        -307.608          38.000  
G12  23895317.647   125570731.631       -2128.777          31.000    23895328.500    97847350.693       -1659.294          34.000  
G13  21960334.321   115402346.715        2516.511          37.000                                                                  
G19  24889303.109   130794177.956       -3552.954          29.000                                                                  
G20  22355056.352   117476608.586       -1527.413          37.000                                                                  
G15  23696646.217   124526724.999        3584.288          32.000    23696657.812    97033861.177        2793.359          35.000  
G29  24454965.943   128511716.738        3351.864          31.000    24454974.955   100139040.590        2612.284          35.000  
G25  24332467.233   127867964.503        -944.527          31.000    24332484.824    99637411.656        -735.012          34.000  
> 2025 05 14 07 45 21.0030000  0 10                     
G05  21704199.174   114056338.313        -199.109          37.000    21704202.479    88875090.499        -155.658          38.000  
G06  24709509.145   129849307.832       -1268.738          30.000    24709527.113   101181336.837        -988.287          33.000  
G11  22939098.879   120545764.300        -395.357          36.000    22939103.789    93931780.764        -308.040          38.000  
G12  23895722.633   125572860.402       -2129.941          31.000    23895733.666    97849009.469       -1659.807          34.000  
G13  21959855.478   115399830.208        2515.097          37.000                                                                  
G19  24889979.386   130797731.102       -3553.742          29.000                                                                  
G20  22355347.066   117478135.981       -1528.647          37.000                                                                  
G15  23695964.215   124523140.428        3583.801          32.000    23695975.664    97031068.036        2792.309          35.000  
G29  24454327.854   128508364.452        3351.587          31.000    24454336.939   100136428.437        2611.661          35.000  
G25  24332647.018   127868908.357        -944.949          31.000    24332664.484    99638147.160        -736.195          34.000  
> 2025 05 14 07 45 22.0030000  0 10                     
G05  21704237.022   114056537.191        -199.280          37.000    21704240.339    88875245.463        -155.420          38.000  
G06  24709750.464   129850575.811       -1267.810          30.000    24709768.408   101182324.887        -988.001          33.000  
G11  22939173.962   120546159.029        -394.927          36.000    22939178.926    93932088.366        -307.784          38.000  
G12  23896127.765   125574989.284       -2128.919          31.000    23896138.850    97850668.315       -1659.152          34.000  
G13  21959376.774   115397313.987        2515.552          37.000                                                                  
G19  24890655.601   130801284.225       -3553.293          28.000                                                                  
G20  22355637.653   117479663.286       -1527.277          37.000                                                                  
G15  23695282.189   124519555.889        3584.409          32.000    23695293.591    97028274.926        2792.737          35.000  
G29  24453689.902   128505012.239        3352.076          32.000    24453699.125   100133816.325        2611.901          35.000  
G25  24332826.733   127869852.519        -944.911          31.000    24332844.323    99638882.835        -735.494          34.000  
> 2025 05 14 07 45 23.0030000  0 10                     
G05  21704274.916   114056736.450        -199.121          37.000    21704278.233    88875400.728        -155.310          38.000  
G06  24709991.886   129851844.005       -1268.719          30.000    24710009.741   101183313.053        -988.043          32.000  
G11  22939249.038   120546553.972        -395.414          36.000    22939254.021    93932396.084        -307.865          38.000  
G12  23896532.781   125577118.477       -2129.866          31.000    23896544.031    97852327.386       -1659.182          34.000  
G13  21958898.039   115394798.267        2515.646          37.000                                                                  
G19  24891331.812   130804837.678       -3553.382          28.000                                                                  
G20  22355928.379   117481190.767       -1527.554          37.000                                                                  
G15  23694600.268   124515971.625        3585.042          32.000    23694611.532    97025481.987        2793.022          34.000  
G29  24453052.040   128501660.279        3351.270          32.000    24453061.213   100131204.387        2611.914          35.000  
G25  24333006.419   127870797.090        -944.184          31.000    24333024.087    99639618.850        -735.803          34.000  
> 2025 05 14 07 45 24.0030000  0 10                     
G05  21704313.009   114056936.117        -199.506          37.000    21704316.205    88875556.311        -155.389          38.000  
G06  24710233.138   129853112.320       -1267.413          30.000    24710251.056   101184301.383        -987.952          32.000  
G11  22939324.255   120546949.064        -395.235          36.000    22939329.193    93932703.945        -307.380          38.000  
G12  23896938.103   125579247.882       -2129.444          31.000    23896949.226    97853986.721       -1659.134          34.000  
G13  21958419.435   115392283.036        2515.782          37.000                                                                  
G19  24892007.921   130808391.395       -3553.699          28.000                                                                  
G20  22356219.178   117482718.380       -1526.926          37.000                                                                  
G15  23693918.425   124512387.643        3584.174          32.000    23693929.596    97022689.254        2793.033          34.000  
G29  24452414.243   128498308.535        3351.799          32.000    24452423.317   100128592.670        2611.483          35.000  
G25  24333186.398   127871742.137        -943.783          30.000    24333204.035    99640355.273        -736.071          33.000  
> 2025 05 14 07 45 25.0030000  0 10                     
G05  21704350.958   114057136.183        -200.122          37.000    21704354.266    88875712.183        -155.548          38.000  
G06  24710474.379   129854380.937       -1268.988          30.000    24710492.494   101185289.879        -988.715          32.000  
G11  22939399.471   120547344.330        -395.135          36.000    22939404.428    93933011.961        -307.789          38.000  
G12  23897343.516   125581377.628       -2129.374          31.000    23897354.415    97855646.226       -1659.043          34.000  
G13  21957940.942   115389768.333        2514.911          37.000                                                                  
G19  24892684.366   130811945.333       -3554.225          28.000                                                                  
G20  22356509.979   117484246.164       -1527.476          37.000                                                                  
G15  23693236.500   124508803.910        3583.630          32.000    23693247.570    97019896.733        2792.773          35.000  
G29  24451776.366   128494956.992        3351.581          32.000    24451785.511   100125981.074        2611.819          35.000  
G25  24333366.271   127872687.692        -945.253          31.000    24333384.091    99641092.028        -736.150          33.000  
> 2025 05 14 07 45 26.0030000  0 10                     
G05  21704389.128   114057336.705        -199.994          37.000    21704392.323    88875868.455        -155.658          38.000  
G06  24710715.868   129855649.725       -1267.627          30.000    24710733.923   101186278.557        -988.623          33.000  
G11  22939474.752   120547739.874        -394.808          36.000    22939479.659    93933320.176        -307.547          38.000  
G12  23897749.060   125583507.742       -2129.994          32.000    23897759.660    97857306.052       -1659.626          35.000  
G13  21957462.427   115387254.181        2515.264          37.000                                                                  
G19  24893360.765   130815499.652       -3554.576          29.000                                                                  
G20  22356800.800   117485774.134       -1526.945          37.000                                                                  
G15  23692554.593   124505220.473        3584.177          32.000    23692565.653    97017104.470        2792.731          35.000  
G29  24451138.761   128491605.781        3352.272          32.000    24451147.782   100123369.764        2611.901          35.000  
G25  24333546.337   127873633.742        -945.896          31.000    24333564.153    99641829.207        -736.940          33.000  
> 2025 05 14 07 45 27.0030000  0 10                     
G05  21704427.285   114057537.339        -201.300          37.000    21704430.567    88876024.788        -156.891          38.000  
G06  24710957.302   129856918.431       -1268.573          30.000    24710975.425   101187267.150        -988.525          33.000  
G11  22939549.896   120548135.296        -395.761          36.000    22939554.870    93933628.270        -308.238          38.000  
G12  23898154.407   125585637.759       -2130.261          31.000    23898164.924    97858965.849       -1660.313          35.000  
G13  21956984.095   115384740.270        2513.118          37.000                                                                  
G19  24894037.129   130819053.814       -3553.963          29.000                                                                  
G20  22357091.569   117487301.957       -1528.020          37.000                                                                  
G15  23691872.617   124501636.971        3582.703          32.000    23691883.711    97014312.120        2792.337          35.000  
G29  24450501.104   128488254.519        3350.973          32.000    24450510.108   100120758.400        2610.884          35.000  
G25  24333726.406   127874579.907        -947.081          31.000    24333744.202    99642566.493        -738.102          33.000  
> 2025 05 14 07 45 28.0030000  0 10                     
G05  21704465.570   114057738.552        -201.678          37.000    21704468.938    88876181.604        -157.416          38.000  
G06  24711198.685   129858187.613       -1270.605          30.000    24711216.891   101188256.071        -989.874          33.000  
G11  22939625.265   120548531.100        -395.828          36.000    22939630.137    93933936.692        -308.526          38.000  
G12  23898559.773   125587768.369       -2130.927          31.000    23898570.435    97860626.015       -1660.357          35.000  
G13  21956505.770   115382227.040        2512.673          37.000                                                                  
G19  24894713.518   130822608.575       -3555.253          29.000                                                                  
G20  22357382.301   117488830.156       -1528.608          37.000                                                                  
G15  23691190.714   124498053.958        3582.728          32.000    23691201.881    97011520.173        2791.239          35.000  
G29  24449863.438   128484903.698        3350.688          32.000    24449872.474   100118147.366        2610.162          35.000  
G25  24333906.577   127875526.765        -947.908          31.000    24333924.216    99643304.280        -738.464          33.000  
> 2025 05 14 07 45 29.0030000  0 10                     
G05  21704503.973   114057940.138        -202.118          37.000    21704507.321    88876338.664        -157.190          38.000  
G06  24711440.205   129859456.790       -1268.970          31.000    24711458.483   101189245.064        -989.288          33.000  
G11  22939700.531   120548927.042        -396.380          36.000    22939705.465    93934245.211        -308.271          38.000  
G12  23898965.068   125589899.183       -2131.548          31.000    23898975.887    97862286.402       -1660.534          35.000  
G13  21956027.691   115379714.262        2512.257          37.000                                                                  
G19  24895390.089   130826163.490       -3555.226          29.000                                                                  
G20  22357673.115   117490358.413       -1528.580          37.000                                                                  
G15  23690508.867   124494471.141        3581.916          32.000    23690520.108    97008728.336        2792.040          35.000  
G29  24449225.838   128481553.062        3350.408          32.000    24449234.817   100115536.478        2610.630          35.000  
G25  24334086.958   127876474.023        -947.769          31.000    24334104.336    99644042.407        -738.371          33.000  
> 2025 05 14 07 45 30.0030000  0 10                     
G05  21704542.376   114058142.050        -202.423          37.000    21704545.746    88876495.993        -157.593          38.000  
G06  24711681.557   129860726.196       -1270.013          30.000    24711700.035   101190234.172        -989.215          33.000  
G11  22939775.937   120549323.084        -395.856          36.000    22939780.726    93934553.834        -308.660          38.000  
G12  23899370.596   125592030.221       -2131.451          31.000    23899381.446    97863946.927       -1661.088          35.000  
G13  21955549.586   115377201.915        2512.167          37.000                                                                  
G19  24896066.687   130829718.610       -3555.235          29.000                                                                  
G20  22357963.924   117491886.772       -1528.646          37.000                                                                  
G15  23689827.014   124490888.442        3582.328          32.000    23689838.248    97005936.693        2791.125          34.000  
G29  24448588.417   128478202.546        3350.969          32.000    24448597.292   100112925.731        2610.207          35.000  
G25  24334267.269   127877421.636        -947.790          31.000    24334284.505    99644780.805        -738.784          33.000  
> 2025 05 14 07 45 31.0030000  0 10                     
G05  21704580.841   114058344.223        -202.350          37.000    21704584.291    88876653.523        -157.501          39.000  
G06  24711923.216   129861995.642       -1269.525          30.000    24711941.694   101191223.300        -988.690          33.000  
G11  22939851.325   120549719.208        -396.182          36.000    22939856.103    93934862.478        -308.692          38.000  
G12  23899776.124   125594161.379       -2130.896          31.000    23899787.157    97865607.583       -1660.517          35.000  
G13  21955071.503   115374689.950        2511.602          37.000                                                                  
G19  24896743.284   130833273.881       -3555.765          29.000                                                                  
G20  22358254.752   117493415.129       -1528.317          37.000                                                                  
G15  23689145.087   124487305.891        3582.935          32.000    23689156.567    97003145.084        2791.885          34.000  
G29  24447950.807   128474852.238        3350.182          32.000    24447959.776   100110315.048        2610.402          35.000  
G25  24334447.669   127878369.632        -948.445          31.000    24334464.595    99645519.456        -738.437          33.000  
> 2025 05 14 07 45 32.0030000  0 10                     
G05  21704619.266   114058546.606        -203.247          37.000    21704622.796    88876811.250        -158.331          38.000  
G06  24712164.877   129863265.064       -1269.385          30.000    24712183.352   101192212.496        -989.691          33.000  
G11  22939926.736   120550115.315        -396.991          36.000    22939931.459    93935171.136        -309.300          39.000  
G12  23900181.648   125596292.680       -2131.500          31.000    23900192.675    97867268.302       -1661.181          34.000  
G13  21954593.529   115372178.277        2510.903          37.000                                                                  
G19  24897419.580   130836829.121       -3555.087          29.000                                                                  
G20  22358545.481   117494943.451       -1529.001          37.000                                                                  
G15  23688463.374   124483723.478        3581.278          32.000    23688474.913    97000353.543        2791.404          34.000  
G29  24447313.427   128471501.891        3349.538          32.000    24447322.127   100107704.420        2610.158          34.000  
G25  24334627.883   127879317.839        -949.326          31.000    24334644.872    99646258.335        -739.675          33.000  
> 2025 05 14 07 45 33.0030000  0 10                     
G05  21704657.976   114058749.503        -203.577          37.000    21704661.438    88876969.338        -158.655          39.000  
G06  24712406.374   129864534.802       -1269.965          30.000    24712424.970   101193201.891        -989.569          33.000  
G11  22940002.200   120550511.713        -397.101          36.000    22940006.866    93935480.015        -309.354          39.000  
G12  23900587.504   125598424.399       -2132.446          31.000    23900598.303    97868929.363       -1661.507          34.000  
G13  21954115.717   115369667.226        2510.629          37.000                                                                  
G19  24898096.279   130840384.828       -3555.996          29.000                                                                  
G20  22358836.271   117496472.016       -1528.994          37.000                                                                  
G15  23687781.689   124480141.320        3581.665          32.000    23687793.239    96997562.303        2790.858          34.000  
G29  24446676.117   128468151.934        3349.463          32.000    24446684.617   100105094.067        2609.699          34.000  
G25  24334808.369   127880266.611        -949.110          31.000    24334825.662    99646997.621        -739.541          33.000  
> 2025 05 14 07 45 34.0030000  0 10                     
G05  21704696.655   114058952.789        -203.778          37.000    21704700.024    88877127.761        -158.960          38.000  
G06  24712648.030   129865804.788       -1270.197          30.000    24712666.701   101194191.473        -990.527          33.000  
G11  22940077.649   120550908.297        -397.491          36.000    22940082.296    93935789.050        -309.647          39.000  
G12  23900993.072   125600556.374       -2132.618          31.000    23901004.032    97870590.648       -1661.718          34.000  
G13  21953638.078   115367156.707        2509.630          37.000                                                                  
G19  24898772.963   130843940.841       -3556.059          29.000                                                                  
G20  22359127.281   117498000.775       -1529.646          37.000                                                                  
G15  23687099.952   124476559.453        3581.533          32.000    23687111.593    96994771.253        2790.456          34.000  
G29  24446038.816   128464802.254        3348.848          32.000    24446047.237   100102483.858        2610.076          34.000  
G25  24334989.051   127881215.826        -948.783          31.000    24335006.428    99647737.290        -739.725          34.000  
> 2025 05 14 07 45 35.0030000  0 10                     
G05  21704735.348   114059156.415        -203.589          37.000    21704738.769    88877286.411        -158.472          38.000  
G06  24712889.533   129867074.812       -1269.666          30.000    24712908.370   101195181.089        -989.258          33.000  
G11  22940153.278   120551304.982        -396.635          36.000    22940157.672    93936098.123        -309.039          38.000  
G12  23901398.772   125602688.525       -2131.585          31.000    23901409.838    97872252.076       -1661.300          34.000  
G13  21953160.375   115364646.573        2510.081          37.000                                                                  
G19  24899449.654   130847496.981       -3555.899          29.000                                                                  
G20  22359418.267   117499529.559       -1528.552          37.000                                                                  
G15  23686418.425   124472977.723        3583.360          32.000    23686430.103    96991980.323        2791.025          34.000  
G29  24445401.345   128461452.648        3349.850          33.000    24445409.812   100099873.846        2609.757          34.000  
G25  24335169.891   127882165.475        -948.834          31.000    24335187.343    99648477.247        -740.040          34.000  
> 2025 05 14 07 45 36.0030000  0 10                     
G05  21704774.098   114059360.319        -203.583          37.000    21704777.552    88877445.312        -158.716          38.000  
G06  24713131.200   129868344.976       -1269.958          30.000    24713150.083   101196170.807        -988.824          33.000  
G11  22940228.611   120551701.723        -396.303          36.000    22940233.248    93936407.283        -308.759          38.000  
G12  23901804.676   125604820.915       -2132.114          31.000    23901815.583    97873913.675       -1661.325          34.000  
G13  21952682.770   115362136.856        2510.068          37.000                                                                  
G19  24900126.481   130851053.300       -3556.084          28.000                                                                  
G20  22359709.291   117501058.370       -1528.212          37.000                                                                  
G15  23685736.722   124469396.225        3582.287          32.000    23685748.492    96989189.501        2791.161          34.000  
G29  24444764.143   128458103.226        3349.827          32.000    24444772.397   100097263.873        2610.205          34.000  
G25  24335350.678   127883115.467        -950.141          31.000    24335368.396    99649217.470        -740.250          34.000  
> 2025 05 14 07 45 37.0030000  0 10                     
G05  21704813.017   114059564.655        -204.755          37.000    21704816.491    88877604.526        -159.607          38.000  
G06  24713373.013   129869615.358       -1270.837          30.000    24713391.901   101197160.693        -989.966          33.000  
G11  22940304.148   120552098.707        -397.249          36.000    22940308.856    93936716.616        -309.210          38.000  
G12  23902210.586   125606953.629       -2133.721          31.000    23902221.488    97875575.485       -1661.827          34.000  
G13  21952205.320   115359627.662        2508.766          37.000                                                                  
G19  24900803.289   130854609.856       -3556.279          29.000                                                                  
G20  22360000.255   117502587.390       -1529.150          37.000                                                                  
G15  23685055.263   124465814.984        3581.418          32.000    23685067.105    96986398.924        2790.584          34.000  
G29  24444126.942   128454754.050        3348.764          32.000    24444135.057   100094654.133        2609.648          34.000  
G25  24335531.572   127884065.848        -949.509          31.000    24335549.238    99649958.064        -740.903          34.000  
> 2025 05 14 07 45 38.0030000  0 10                     
G05  21704851.980   114059769.232        -204.877          37.000    21704855.289    88877763.946        -159.613          39.000  
G06  24713614.777   129870885.766       -1270.325          30.000    24713633.704   101198150.622        -990.112          33.000  
G11  22940379.736   120552495.767        -397.353          36.000    22940384.421    93937025.997        -309.717          38.000  
G12  23902616.644   125609086.430       -2133.278          31.000    23902627.415    97877237.447       -1662.572          34.000  
G13  21951727.854   115357118.825        2508.456          37.000                                                                  
G19  24901480.137   130858166.625       -3556.978          29.000                                                                  
G20  22360291.221   117504116.416       -1529.459          37.000                                                                  
G15  23684373.754   124462233.852        3580.503          32.000    23684385.551    96983608.419        2790.396          34.000  
G29  24443489.568   128451404.998        3347.619          32.000    24443497.782   100092044.491        2608.911          34.000  
G25  24335712.525   127885016.655        -951.355          31.000    24335730.482    99650698.919        -741.434          34.000  
> 2025 05 14 07 46 13.0030000  0 10                     
G05  21706258.285   114067161.421        -217.218          37.000    21706261.519    88883524.110        -169.562          38.000  
G06  24722097.516   129915452.115       -1275.458          31.000    24722114.842   101232877.279        -994.513          33.000  
G11  22943042.710   120566487.228        -402.466          36.000    22943047.263    93947928.303        -313.972          38.000  
G12  23916851.215   125683894.531       -2142.282          31.000    23916863.431    97935529.255       -1668.736          35.000  
G13  21935074.611   115269607.091        2492.174          37.000                                                                  
G19  24925196.262   130982795.843       -3564.761          28.000                                                                  
G20  22370488.035   117557702.113       -1532.803          37.000                                                                  
G15  23660548.468   124337032.942        3572.911          32.000    23660560.287    96886049.419        2784.485          34.000  
G29  24421207.845   128334317.515        3342.062          32.000    24421216.359   100000807.635        2603.693          34.000  
G25  24342094.917   127918573.0321       -966.279          30.000    24342114.788    99676834.651        -752.753          34.000  
> 2025 05 14 07 46 14.0030000  0 10                     
G05  21706299.615   114067379.179        -217.102          37.000    21706302.978    88883693.800        -169.556          38.000  
G06  24722340.430   129916728.366       -1276.111          31.000    24722357.738   101233871.728        -993.939          32.000  
G11  22943119.268   120566889.689        -401.936          36.000    22943123.852    93948241.911        -313.354          38.000  
G12  23917258.888   125686036.381       -2141.566          30.000    23917271.070    97937198.234       -1668.391          34.000  
G13  21934600.441   115267115.225        2492.457          37.000                                                                  
G19  24925874.528   130986360.752       -3564.703          28.000                                                                  
G20  22370779.642   117559235.098       -1531.970          37.000                                                                  
G15  23659868.346   124333459.700        3573.508          32.000    23659880.320    96883265.099        2785.090          34.000  
G29  24420572.136   128330975.876        3342.003          32.000    24420580.544    99998203.789        2603.888          34.000  
G25  24342278.576   127919538.876        -965.793          31.000    24342298.224    99677587.238        -752.688          33.000  
> 2025 05 14 07 46 15.0030000  0 10                     
G05  21706341.114   114067597.229        -217.847          37.000    21706344.597    88883863.718        -170.026          38.000  
G06  24722583.357   129918004.635       -1276.514          31.000    24722600.682   101234866.191        -994.098          32.000  
G11  22943195.940   120567292.245        -402.419          36.000    22943200.443    93948555.575        -313.715          38.000  
G12  23917666.587   125688178.460       -2142.535          31.000    23917678.770    97938867.394       -1669.441          34.000  
G13  21934126.303   115264623.758        2492.068          37.000                                                                  
G19  24926552.937   130989925.859       -3565.772          28.000                                                                  
G20  22371071.380   117560768.167       -1533.193          37.000                                                                  
G15  23659188.193   124329886.693        3572.420          32.000    23659200.361    96880480.938        2784.009          34.000  
G29  24419936.221   128327634.397        3341.730          32.000    24419944.719    99995600.024        2603.367          34.000  
G25  24342462.557   127920504.985        -964.932          31.000    24342481.999    99678340.078        -752.437          33.000  
> 2025 05 14 07 46 16.0030000  0 10                     
G05  21706382.733   114067815.761        -218.793          37.000    21706386.130    88884033.995        -170.612          38.000  
G06  24722826.488   129919281.230       -1277.301          31.000    24722843.690   101235860.934        -994.958          32.000  
G11  22943272.506   120567695.062        -403.237          36.000    22943276.992    93948869.463        -314.208          38.000  
G12  23918074.337   125690320.829       -2142.118          31.000    23918086.533    97940536.808       -1670.053          34.000  
G13  21933652.371   115262132.914        2490.223          37.000                                                                  
G19  24927231.389   130993491.206       -3565.344          28.000                                                                  
G20  22371363.256   117562301.434       -1533.940          37.000                                                                  
G15  23658508.334   124326313.970        3572.090          32.000    23658520.435    96877696.988        2783.925          34.000  
G29  24419300.451   128324293.189        3341.693          32.000    24419308.939    99992996.526        2602.949          34.000  
G25  24342646.519   127921471.727        -966.945          31.000    24342665.850    99679093.364        -753.444          34.000  
> 2025 05 14 07 46 17.0030000  0 10                     
G05  21706424.445   114068034.609        -218.768          37.000    21706427.802    88884204.507        -169.965          38.000  
G06  24723069.254   129920557.830       -1275.226          31.000    24723086.601   101236855.730        -994.684          32.000  
G11  22943349.255   120568097.964        -402.283          36.000    22943353.565    93949183.409        -313.555          38.000  
G12  23918482.027   125692463.444       -2142.248          31.000    23918494.264    97942206.364       -1669.669          34.000  
G13  21933178.479   115259642.462        2490.666          37.000                                                                  
G19  24927909.960   130997056.816       -3565.524          28.000                                                                  
G20  22371655.115   117563834.730       -1533.119          37.000                                                                  
G15  23657828.511   124322741.388        3573.024          32.000    23657840.556    96874913.169        2784.474          34.000  
G29  24418664.790   128320952.177        3341.245          32.000    24418673.092    99990393.105        2603.595          34.000  
G25  24342830.545   127922438.776        -966.706          31.000    24342849.671    99679846.922        -753.616          34.000  
> 2025 05 14 07 46 18.0030000  0 10                     
G05  21706466.208   114068253.738        -218.945          37.000    21706469.564    88884375.289        -170.801          38.000  
G06  24723312.185   129921834.622       -1276.538          31.000    24723329.586   101237850.605        -994.507          32.000  
G11  22943425.939   120568500.991        -403.306          36.000    22943430.220    93949497.433        -313.539          38.000  
G12  23918889.908   125694606.225       -2142.835          31.000    23918901.984    97943876.035       -1669.566          34.000  
G13  21932704.651   115257152.428        2489.970          37.000                                                                  
G19  24928588.505   131000622.521       -3565.915          28.000                                                                  
G20  22371946.868   117565368.087       -1533.359          37.000                                                                  
G15  23657148.678   124319169.018        3571.700          32.000    23657160.798    96872129.500        2783.903          34.000  
G29  24418028.908   128317611.303        3341.150          32.000    24418037.287    99987789.811        2603.382          34.000  
G25  24343014.821   127923406.232        -967.762          31.000    24343033.795    99680600.739        -754.092          34.000  
> 2025 05 14 07 46 19.0030000  0 10                     
G05  21706507.990   114068473.277        -219.373          37.000    21706511.267    88884546.353        -171.149          38.000  
G06  24723555.234   129923111.630       -1276.862          31.000    24723572.626   101238845.638        -994.952          32.000  
G11  22943502.690   120568904.158        -402.949          36.000    22943506.979    93949811.602        -314.158          38.000  
G12  23919297.561   125696749.315       -2143.405          31.000    23919309.819    97945545.965       -1669.902          35.000  
G13  21932230.862   115254662.928        2489.191          37.000                                                                  
G19  24929267.038   131004188.545       -3566.599          28.000                                                                  
G20  22372238.707   117566901.602       -1533.666          37.000                                                                  
G15  23656468.946   124315596.867        3572.368          32.000    23656481.007    96869346.066        2783.212          34.000  
G29  24417393.189   128314270.697        3340.535          32.000    24417401.577    99985186.732        2603.677          34.000  
G25  24343199.053   127924374.090        -967.723          31.000    24343217.851    99681354.962        -754.898          34.000  
> 2025 05 14 07 46 20.0030000  0 10                     
G05  21706549.735   114068693.144        -219.733          37.000    21706553.106    88884717.681        -171.088          38.000  
G06  24723798.292   129924388.745       -1277.557          31.000    24723815.637   101239840.757        -994.440          32.000  
G11  22943579.434   120569307.476        -403.135          36.000    22943583.747    93950125.863        -313.928          38.000  
G12  23919705.349   125698892.569       -2143.358          31.000    23919717.793    97947216.049       -1670.027          34.000  
G13  21931757.230   115252173.834        2488.849          37.000                                                                  
G19  24929945.363   131007754.727       -3566.387          28.000                                                                  
G20  22372530.646   117568435.183       -1533.588          37.000                                                                  
G15  23655789.322   124312024.932        3572.158          32.000    23655801.285    96866562.704        2783.145          34.000  
G29  24416757.577   128310930.217        3340.930          32.000    24416765.863    99982583.807        2602.702          34.000  
G25  24343383.198   127925342.372        -968.863          31.000    24343402.020    99682109.430        -754.614          34.000  
> 2025 05 14 07 46 21.0030000  0 10                     
G05  21706591.794   114068913.408        -220.819          37.000    21706594.984    88884889.299        -171.655          38.000  
G06  24724041.372   129925666.001       -1277.850          31.000    24724058.620   101240836.033        -994.965          32.000  
G11  22943656.339   120569710.986        -403.904          36.000    22943660.654    93950440.273        -314.563          38.000  
G12  23920113.330   125701036.227       -2145.360          31.000    23920125.764    97948886.370       -1670.797          35.000  
G13  21931283.694   115249685.227        2488.277          37.000                                                                  
G19  24930624.055   131011321.124       -3566.255          28.000                                                                  
G20  22372822.457   117569968.887       -1533.945          37.000                                                                  
G15  23655109.736   124308453.211        3571.751          32.000    23655121.685    96863779.601        2782.136          34.000  
G29  24416121.982   128307590.008        3339.722          32.000    24416130.168    99979981.052        2602.168          34.000  
G25  24343567.510   127926311.065        -969.052          31.000    24343586.193    99682864.230        -754.958          34.000  
> 2025 05 14 07 46 22.0030000  0 10                     
G05  21706633.875   114069133.979        -220.483          37.000    21706636.963    88885061.211        -172.266          38.000  
G06  24724284.439   129926943.439       -1277.856          31.000    24724301.703   101241831.442        -995.966          32.000  
G11  22943732.980   120570114.589        -403.807          36.000    22943737.463    93950754.778        -314.745          38.000  
G12  23920521.261   125703179.920       -2143.835          31.000    23920533.712    97950556.809       -1670.368          35.000  
G13  21930810.265   115247197.083        2488.176          37.000                                                                  
G19  24931302.685   131014887.790       -3566.917          28.000                                                                  
G20  22373114.311   117571502.688       -1533.805          37.000                                                                  
G15  23654430.023   124304881.720        3571.251          32.000    23654442.050    96860996.588        2782.959          34.000  
G29  24415486.335   128304249.935        3340.366          32.000    24415494.619    99977378.384        2602.995          34.000  
G25  24343751.629   127927280.144        -969.135          31.000    24343770.529    99683619.361        -755.397          34.000  
> 2025 05 14 07 46 23.0030000  0 10                     
G05  21706675.969   114069354.901        -220.789          37.000    21706679.071    88885233.347        -172.406          38.000  
G06  24724527.618   129928220.942       -1277.307          31.000    24724544.794   101242826.906        -995.575          32.000  
G11  22943809.677   120570518.316        -403.688          36.000    22943814.316    93951069.370        -314.672          38.000  
G12  23920929.317   125705323.940       -2144.360          31.000    23920941.783    97952227.458       -1670.735          34.000  
G13  21930336.916   115244709.365        2487.826          37.000                                                                  
G19  24931981.515   131018454.637       -3567.435          28.000                                                                  
G20  22373406.221   117573036.562       -1534.093          37.000                                                                  
G15  23653750.455   124301310.409        3571.442          32.000    23653762.481    96858213.757        2782.399          34.000  
G29  24414850.806   128300910.095        3339.501          33.000    24414859.083    99974775.872        2603.003          34.000  
G25  24343936.164   127928249.648        -969.703          31.000    24343955.020    99684374.764        -755.189          34.000  
> 2025 05 14 07 46 24.0030000  0 10                     
G05  21706718.031   114069576.416        -221.674          37.000    21706721.231    88885405.936        -172.821          38.000  
G06  24724771.006   129929498.858       -1277.594          31.000    24724787.900   101243822.689        -996.149          32.000  
G11  22943886.603   120570922.396        -404.330          36.000    22943891.147    93951384.235        -314.913          38.000  
G12  23921337.469   125707468.346       -2143.723          32.000    23921349.824    97953898.450       -1671.423          35.000  
G13  21929863.640   115242222.361        2486.874          37.000                                                                  
G19  24932660.224   131022021.863       -3567.548          28.000                                                                  
G20  22373698.044   117574570.759       -1534.431          37.000                                                                  
G15  23653070.917   124297739.543        3571.144          32.000    23653082.959    96855431.300        2781.861          34.000  
G29  24414215.424   128297570.603        3339.866          33.000    24414223.554    99972173.722        2601.721          33.000  
G25  24344120.809   127929219.721        -969.996          31.000    24344139.838    99685130.681        -755.868          34.000  
> 2025 05 14 07 46 25.0030000  0 10                     
G05  21706760.360   114069798.192        -221.594          37.000    21706763.501    88885578.758        -172.583          38.000  
G06  24725014.066   129930776.885       -1278.424          32.000    24725031.021   101244818.479        -995.190          32.000  
G11  22943963.445   120571326.560        -404.264          36.000    22943968.102    93951699.177        -314.998          38.000  
G12  23921745.674   125709612.961       -2143.882          31.000    23921757.794    97955569.584       -1671.127          35.000  
G13  21929390.497   115239735.750        2486.373          37.000                                                                  
G19  24933339.094   131025589.253       -3567.438          28.000                                                                  
G20  22373990.035   117576104.973       -1534.171          37.000                                                                  
G15  23652391.521   124294168.813        3570.978          32.000    23652403.432    96852648.887        2782.544          34.000  
G29  24413580.074   128294231.329        3339.117          33.000    24413588.154    99969571.679        2602.033          34.000  
G25  24344305.608   127930190.211        -971.573          31.000    24344324.479    99685886.867        -756.494          34.000  
> 2025 05 14 07 46 26.0030000  0 10                     
G05  21706802.671   114070020.436        -222.205          37.000    21706805.808    88885751.940        -173.254          38.000  
G06  24725257.411   129932055.142       -1278.412          31.000    24725274.245   101245814.569        -996.124          32.000  
G11  22944040.471   120571730.986        -404.548          36.000    22944045.104    93952014.308        -315.447          38.000  
G12  23922153.905   125711757.938       -2145.044          32.000    23922165.904    97957240.982       -1671.844          35.000  
G13  21928917.586   115237249.700        2485.858          37.000                                                                  
G19  24934018.209   131029156.977       -3567.585          28.000                                                                  
G20  22374282.190   117577639.417       -1534.460          37.000                                                                  
G15  23651712.065   124290598.383        3570.727          32.000    23651723.995    96849866.740        2781.879          34.000  
G29  24412944.507   128290892.320        3338.495          32.000    24412952.753    99966969.833        2601.951          34.000  
G25  24344490.384   127931161.057        -970.113          31.000    24344509.224    99686643.429        -756.834          34.000  
> 2025 05 14 07 46 27.0030000  0 10                     
G05  21706844.963   114070242.961        -222.839          37.000    21706848.138    88885925.323        -173.706          38.000  
G06  24725500.745   129933333.516       -1278.900          31.000    24725517.539   101246810.639        -996.234          32.000  
G11  22944117.493   120572135.454        -404.322          36.000    22944122.080    93952329.466        -315.391          38.000  
G12  23922562.254   125713903.068       -2145.530          32.000    23922574.092    97958912.465       -1671.229          35.000  
G13  21928444.646   115234764.028        2485.519          37.000                                                                  
G19  24934697.273   131032724.891       -3567.583          28.000                                                                  
G20  22374574.253   117579173.871       -1534.639          37.000                                                                  
G15  23651032.805   124287028.163        3569.742          32.000    23651044.535    96847084.678        2782.642          34.000  
G29  24412309.074   128287553.414        3338.797          32.000    24412317.234    99964368.120        2601.583          34.000  
G25  24344675.192   127932132.436        -971.844          31.000    24344694.157    99687400.254        -757.127          34.000  
> 2025 05 14 07 46 28.0030000  0 10                     
G05  21706887.410   114070465.850        -223.053          37.000    21706890.641    88886098.996        -173.755          38.000  
G06  24725743.875   129934611.980       -1277.936          31.000    24725760.816   101247806.894        -996.375          32.000  
G11  22944194.546   120572540.117        -404.741          36.000    22944199.068    93952644.775        -315.167          38.000  
G12  23922970.493   125716048.426       -2144.958          32.000    23922982.349    97960584.192       -1671.394          35.000  
G13  21927971.696   115232278.877        2484.448          37.000                                                                  
G19  24935376.109   131036292.985       -3568.099          29.000                                                                  
G20  22374866.175   117580708.436       -1534.302          37.000                                                                  
G15  23650353.453   124283458.042        3570.908          32.000    23650365.082    96844302.853        2781.874          34.000  
G29  24411673.712   128284214.738        3338.815          32.000    24411681.944    99961766.540        2601.903          34.000  
G25  24344860.034   127933104.072        -971.344          31.000    24344879.293    99688157.408        -757.221          34.000  
> 2025 05 14 07 46 29.0030000  0 10                     
G05  21706929.824   114070689.113        -223.749          37.000    21706933.123    88886272.982        -173.944          38.000  
G06  24725987.091   129935890.666       -1278.271          31.000    24726004.078   101248803.253        -996.765          32.000  
G11  22944271.562   120572944.944        -405.479          36.000    22944276.140    93952960.204        -315.562          38.000  
G12  23923378.927   125718194.068       -2145.123          31.000    23923390.682    97962256.128       -1672.152          35.000  
G13  21927498.898   115229794.170        2484.388          37.000                                                                  
G19  24936055.132   131039861.322       -3568.725          28.000                                                                  
G20  22375158.244   117582243.144       -1534.686          37.000                                                                  
G15  23649674.017   124279888.282        3569.507          32.000    23649685.949    96841521.187        2781.664          34.000  
G29  24411038.593   128280876.292        3338.451          32.000    24411046.576    99959165.172        2601.764          34.000  
G25  24345044.822   127934076.190        -972.213          31.000    24345064.406    99688914.889        -757.805          34.000  
> 2025 05 14 07 46 30.0030000  0 10                     
G05  21706972.389   114070912.635        -223.560          37.000    21706975.700    88886447.163        -174.200          38.000  
G06  24726230.595   129937169.407       -1278.595          31.000    24726247.366   101249799.664        -996.649          32.000  
G11  22944348.552   120573349.803        -405.037          36.000    22944353.188    93953275.686        -315.585          38.000  
G12  23923787.243   125720339.894       -2145.997          31.000    23923799.007    97963928.151       -1671.837          35.000  
G13  21927026.164   115227309.880        2483.912          37.000                                                                  
G19  24936734.168   131043429.826       -3568.546          28.000                                                                  
G20  22375450.197   117583777.870       -1534.891          37.000                                                                  
G15  23648994.692   124276318.575        3570.132          32.000    23649006.690    96838739.608        2781.766          34.000  
G29  24410403.202   128277537.957        3338.770          32.000    24410411.286    99956563.863        2601.774          34.000  
G25  24345229.915   127935048.702        -973.047          31.000    24345249.572    99689672.657        -757.801          34.000  
> 2025 05 14 07 46 31.0030000  0 10                     
G05  21707015.068   114071136.716        -223.956          38.000    21707018.454    88886621.800        -175.189          38.000  
G06  24726473.937   129938448.500       -1278.363          31.000    24726490.774   101250796.343        -996.338          32.000  
G11  22944425.779   120573754.987        -404.996          36.000    22944430.337    93953591.432        -315.702          38.000  
G12  23924195.373   125722486.111       -2146.103          31.000    23924207.386    97965600.556       -1672.483          35.000  
G13  21926553.632   115224826.236        2483.224          37.000                                                                  
G19  24937413.260   131046998.673       -3568.779          29.000                                                                  
G20  22375742.206   117585312.878       -1535.149          37.000                                                                  
G15  23648315.335   124272749.346        3568.941          32.000    23648327.451    96835958.411        2780.468          34.000  
G29  24409767.842   128274200.052        3337.649          32.000    24409776.077    99953962.906        2600.727          34.000  
G25  24345415.056   127936021.768        -973.307          31.000    24345434.674    99690430.864        -758.382          34.000  
> 2025 05 14 07 46 32.0030000  0 10                     
G05  21707057.738   114071361.100        -224.829          38.000    21707061.076    88886796.604        -174.860          38.000  
G06  24726717.240   129939727.678       -1278.900          31.000    24726734.285   101251793.090        -996.533          32.000  
G11  22944502.908   120574160.282        -405.458          36.000    22944507.420    93953907.247        -316.160          38.000  
G12  23924603.841   125724632.581       -2147.790          31.000    23924615.847    97967273.060       -1672.770          35.000  
G13  21926081.028   115222342.975        2482.772          37.000                                                                  
G19  24938092.300   131050567.722       -3569.264          28.000                                                                  
G20  22376034.383   117586847.879       -1534.987          37.000                                                                  
G15  23647635.782   124269180.222        3568.752          32.000    23647648.268    96833177.273        2780.848          34.000  
G29  24409132.475   128270862.250        3337.516          32.000    24409140.952    99951362.016        2601.016          34.000  
G25  24345600.245   127936995.126        -973.429          32.000    24345619.854    99691189.337        -758.173          33.000  
> 2025 05 14 07 46 33.0030000  0 10                     
G05  21707100.481   114071585.776        -224.731          37.000    21707103.794    88886971.703        -175.232          38.000  
G06  24726960.628   129941006.958       -1279.041          31.000    24726977.730   101252789.975        -997.803          32.000  
G11  22944580.110   120574565.654        -405.158          36.000    22944584.581    93954223.096        -315.697          38.000  
G12  23925012.165   125726779.125       -2147.070          31.000    23925024.310    97968945.718       -1673.107          35.000  
G13  21925608.587   115219860.128        2482.946          37.000                                                                  
G19  24938771.370   131054136.945       -3569.823          29.000                                                                  
G20  22376326.514   117588382.971       -1535.098          37.000                                                                  
G15  23646956.551   124265611.285        3568.154          32.000    23646969.080    96830396.278        2780.647          34.000  
G29  24408497.349   128267524.594        3337.358          32.000    24408505.796    99948761.251        2600.522          34.000  
G25                                                                  24345805.012    99691948.103        -758.644          33.000  
> 2025 05 14 07 46 34.0030000  0 10                     
G05  21707143.208   114071810.765        -225.171          37.000    21707146.544    88887147.002        -175.415          38.000  
G06  24727204.250   129942286.361       -1278.680          30.000    24727221.101   101253786.852        -997.009          32.000  
G11  22944657.240   120574971.141        -405.896          36.000    22944661.714    93954539.069        -316.279          38.000  
G12  23925420.729   125728925.872       -2146.636          31.000    23925432.844    97970618.561       -1673.336          35.000  
G13  21925136.116   115217377.743        2482.248          37.000                                                                  
G19  24939450.868   131057706.287       -3569.795          29.000                                                                  
G20  22376618.618   117589918.125       -1535.480          37.000                                                                  
G15  23646277.503   124262042.478        3568.323          32.000    23646289.973    96827615.426        2780.488          34.000  
G29  24407862.409   128264187.094        3337.768          32.000    24407870.683    99946160.619        2600.498          34.000  
G25                                                                  24345990.180    99692707.158        -759.253          34.000  
> 2025 05 14 07 46 35.0030000  0 10                     
G05  21707186.000   114072036.259        -225.037          37.000    21707189.535    88887322.721        -175.873          38.000  
G06  24727447.665   129943566.115       -1280.243          31.000    24727464.606   101254784.043        -997.375          32.000  
G11  22944734.455   120575376.915        -405.371          36.000    22944738.970    93954855.235        -315.892          38.000  
G12  23925829.462   125731073.057       -2147.296          32.000    23925841.335    97972291.665       -1673.393          34.000  
G13  21924663.812   115214895.971        2481.540          37.000                                                                  
G19  24940130.073   131061276.006       -3569.959          29.000                                                                  
G20  22376910.767   117591453.538       -1535.210          37.000                                                                  
G15  23645598.364   124258474.041        3569.027          32.000    23645610.928    96824834.830        2780.666          34.000  
G29  24407227.379   128260849.961        3337.012          32.000    24407235.696    99943560.261        2600.747          34.000  
G25                                                                  24346175.623    99693466.638        -759.854          34.000  
> 2025 05 14 07 46 36.0030000  0 10                     
G05  21707229.001   114072261.900        -225.488          37.000    21707232.457    88887498.559        -176.135          38.000  
G06  24727691.075   129944845.724       -1279.315          30.000    24727708.109   101255781.136        -996.814          32.000  
G11  22944811.547   120575782.614        -405.805          36.000    22944816.212    93955171.368        -315.776          38.000  
G12  23926238.091   125733220.243       -2147.004          31.000    23926249.956    97973964.782       -1672.874          34.000  
G13  21924191.561   115212414.443        2481.420          37.000                                                                  
G19  24940809.347   131064845.745       -3570.210          29.000                                                                  
G20  22377202.896   117592988.810       -1535.125          37.000                                                                  
G15  23644919.504   124254905.645        3568.136          32.000    23644931.805    96822054.258        2780.032          34.000  
G29  24406592.168   128257512.806        3337.574          32.000    24406600.749    99940959.919        2600.011          34.000  
G25                                                                  24346361.123    99694226.280        -759.933          34.000  
> 2025 05 14 07 46 37.0030000  0 10                     
G05  21707272.005   114072488.159        -227.441          37.000    21707275.534    88887674.825        -176.727          38.000  
G06  24727934.568   129946125.785       -1280.994          30.000    24727951.657   101256778.585        -998.370          32.000  
G11  22944888.849   120576188.700        -406.818          36.000    22944893.455    93955487.824        -317.236          38.000  
G12  23926646.981   125735367.942       -2148.154          32.000    23926658.616    97975638.318       -1674.276          34.000  
G13  21923719.491   115209933.618        2480.135          37.000                                                                  
G19  24941488.580   131068415.944       -3571.045          29.000                                                                  
G20  22377495.158   117594524.460       -1536.691          37.000                                                                  
G15  23644240.401   124251337.679        3567.166          32.000    23644252.887    96819274.035        2779.756          34.000  
G29  24405957.139   128254176.097        3335.867          31.000    24405965.851    99938359.868        2599.733          34.000  
G25                                                                  24346546.746    99694986.386        -760.819          34.000  
> 2025 05 14 07 46 38.0030000  0 10                     
G05  21707315.041   114072714.586        -226.331          37.000    21707318.611    88887851.289        -176.263          38.000  
G06  24728177.957   129947405.857       -1280.127          30.000    24728195.309   101257776.034        -997.864          32.000  
G11  22944966.211   120576594.808        -405.664          36.000    22944970.636    93955804.228        -316.187          38.000  
G12  23927055.893   125737515.692       -2147.099          31.000    23927067.335    97977311.895       -1673.473          34.000  
G13  21923247.514   115207453.133        2480.367          38.000                                                                  
G19  24942167.966   131071986.240       -3569.940          29.000                                                                  
G20  22377787.529   117596060.032       -1535.532          37.000                                                                  
G15  23643561.516   124247769.804        3567.651          32.000    23643573.874    96816493.869        2779.957          34.000  
G29  24405322.314   128250839.469        3336.248          32.000    24405330.853    99935759.889        2600.363          34.000  
G25                                                                  24346732.398    99695746.748        -760.710          34.000  
> 2025 05 14 07 46 39.0030000  0 10                     
G05  21707358.173   114072941.412        -227.509          37.000    21707361.818    88888028.029        -177.399          38.000  
G06  24728421.526   129948685.971       -1279.803          30.000    24728438.813   101258773.559        -998.004          32.000  
G11  22945043.574   120577001.026        -406.423          36.000    22945047.977    93956120.803        -317.225          38.000  
G12  23927464.748   125739663.777       -2149.570          32.000    23927476.086    97978985.678       -1674.380          35.000  
G13  21922775.615   115204973.118        2479.272          38.000                                                                  
G19  24942847.222   131075556.707       -3570.775          29.000                                                                  
G20  22378079.817   117597595.728       -1536.516          37.000                                                                  
G15  23642882.567   124244202.118        3567.257          32.000    23642894.869    96813713.903        2779.041          34.000  
G29  24404687.432   128247503.022        3336.064          32.000    24404695.947    99933160.056        2599.846          34.000  
G25                                                                  24346918.453    99696507.394        -761.472          34.000  
> 2025 05 14 07 46 40.0030000  0 10                     
G05  21707401.217   114073168.405        -227.411          37.000    21707405.056    88888204.918        -177.002          38.000  
G06  24728665.106   129949966.239       -1280.518          30.000    24728682.391   101259771.101        -998.022          32.000  
G11  22945120.802   120577407.282        -406.692          36.000    22945125.193    93956437.333        -316.642          38.000  
G12  23927873.449   125741811.828       -2148.303          31.000    23927884.772    97980659.507       -1673.911          35.000  
G13  21922303.696   115202493.416        2479.227          38.000                                                                  
G19  24943526.566   131079127.303       -3571.266          29.000                                                                  
G20  22378372.057   117599131.349       -1535.647          37.000                                                                  
G15  23642203.650   124240634.538        3567.349          32.000    23642215.933    96810933.917        2779.963          34.000  
G29  24404052.637   128244166.617        3335.337          32.000    24404061.036    99930560.257        2600.278          34.000  
G25                                                                  24347104.215    99697268.239        -761.116          34.000  
> 2025 05 14 07 46 41.0030000  0 10                     
G05  21707444.405   114073395.938        -227.966          37.000    21707448.329    88888382.213        -177.795          38.000  
G06  24728908.641   129951246.741       -1280.792          30.000    24728926.038   101260768.894        -997.925          32.000  
G11  22945198.089   120577813.822        -406.933          36.000    22945202.663    93956754.103        -316.803          38.000  
G12  23928282.330   125743960.344       -2148.956          31.000    23928293.596    97982333.667       -1674.484          35.000  
G13  21921831.917   115200014.326        2478.881          38.000                                                                  
G19  24944206.003   131082698.194       -3571.316          28.000                                                                  
G20  22378664.261   117600667.276       -1536.492          37.000                                                                  
G15  23641524.983   124237067.289        3567.111          32.000    23641537.199    96808154.277        2779.301          34.000  
G29  24403417.717   128240830.548        3336.288          32.000    24403426.277    99927960.821        2598.694          34.000  
G25                                                                  24347290.302    99698029.514        -761.172          34.000  
> 2025 05 14 07 46 42.0030000  0 10                     
G05  21707487.801   114073623.830        -228.741          37.000    21707491.680    88888559.789        -178.308          38.000  
G06  24729152.418   129952527.445       -1281.409          30.000    24729169.772   101261766.803        -998.102          32.000  
G11  22945275.471   120578220.515        -407.469          36.000    22945280.019    93957071.008        -317.561          38.000  
G12  23928691.291   125746109.088       -2149.642          31.000    23928702.558    97984007.996       -1674.817          35.000  
G13  21921360.369   115197535.746        2477.691          38.000                                                                  
G19  24944885.574   131086269.376       -3572.351          28.000                                                                  
G20  22378956.393   117602203.257       -1536.488          37.000                                                                  
G15  23640846.292   124233500.320        3566.376          32.000    23640858.393    96805374.811        2779.110          34.000  
G29  24402783.136   128237494.788        3334.562          32.000    24402791.554    99925361.480        2598.476          34.000  
G25  24347457.676   127946752.8781       -978.170          31.000    24347476.396    99698791.139        -762.167          34.000  
> 2025 05 14 07 46 43.0030000  0 10                     
G05  21707531.321   114073852.283        -227.930          37.000    21707535.233    88888737.802        -177.692          38.000  
G06  24729395.938   129953808.498       -1280.945          30.000    24729413.649   101262765.049        -998.193          32.000  
G11  22945352.845   120578627.553        -406.677          36.000    22945357.409    93957388.191        -317.112          38.000  
G12  23929100.029   125748258.319       -2150.308          31.000    23929111.600    97985682.712       -1675.087          35.000  
G13  21920888.827   115195057.818        2478.192          38.000                                                                  
G19  24945565.316   131089840.930       -3571.547          28.000                                                                  
G20  22379248.795   117603739.605       -1536.051          37.000                                                                  
G15  23640167.593   124229933.744        3566.771          32.000    23640179.732    96802595.672        2779.538          34.000  
G29  24402148.517   128234159.351        3336.272          32.000    24402156.847    99922762.459        2599.403          34.000  
G25  24347643.819   127947730.916        -977.837          31.000    24347662.506    99699553.233        -761.432          34.000  
> 2025 05 14 07 46 44.0030000  0 10                     
G05  21707574.824   114074081.162        -228.955          37.000    21707578.854    88888916.157        -178.192          38.000  
G06  24729639.692   129955089.731       -1281.378          30.000    24729657.392   101263763.403        -998.328          32.000  
G11  22945430.335   120579034.834        -407.112          36.000    22945434.916    93957705.529        -317.026          38.000  
G12  23929509.248   125750407.699       -2147.830          31.000    23929520.642    97987357.621       -1675.032          35.000  
G13  21920417.340   115192580.419        2477.969          37.000                                                                  
G19  24946245.042   131093412.791       -3572.369          28.000                                                                  
G20  22379541.049   117605276.090       -1536.238          37.000                                                                  
G15  23639488.792   124226367.436        3567.192          32.000    23639501.028    96799816.747        2778.969          34.000  
G29  24401513.943   128230824.269        3335.288          33.000    24401522.164    99920163.689        2598.695          34.000  
G25  24347830.176   127948709.489        -979.426          31.000    24347849.027    99700315.715        -762.567          34.000  
> 2025 05 14 07 46 45.0030000  0 10                     
G05  21707618.533   114074310.383        -228.772          37.000    21707622.560    88889094.763        -177.783          38.000  
G06  24729883.431   129956371.122       -1280.603          30.000    24729901.322   101264761.889        -998.383          32.000  
G11  22945507.802   120579442.230        -406.748          36.000    22945512.496    93958022.971        -316.598          38.000  
G12  23929918.366   125752557.449       -2147.949          31.000    23929929.805    97989032.721       -1674.408          35.000  
G13  21919945.854   115190103.516        2477.729          37.000                                                                  
G19  24946924.680   131096984.844       -3571.737          28.000                                                                  
G20  22379833.462   117606812.678       -1535.876          37.000                                                                  
G15  23638809.984   124222801.391        3566.473          32.000    23638822.356    96797037.980        2779.410          34.000  
G29  24400879.297   128227489.318        3335.515          33.000    24400887.536    99917565.028        2599.249          34.000  
G25  24348016.281   127949688.314        -977.972          31.000    24348035.312    99701078.516        -762.516          34.000  
> 2025 05 14 07 46 46.0030000  0 10                     
G05  21707662.132   114074539.812        -229.175          37.000    21707666.236    88889273.579        -179.291          38.000  
G06  24730127.053   129957652.595       -1281.635          30.000    24730145.297   101265760.397        -998.193          32.000  
G11  22945585.267   120579849.673        -407.628          36.000    22945590.020    93958340.471        -317.829          38.000  
G12  23930327.582   125754707.339       -2150.121          31.000    23930338.922    97990707.922       -1675.217          35.000  
G13  21919474.578   115187626.975        2476.012          38.000                                                                  
G19  24947604.466   131100557.016       -3572.164          29.000                                                                  
G20  22380125.886   117608349.248       -1536.561          37.000                                                                  
G15  23638131.594   124219235.424        3565.550          32.000    23638143.772    96794259.312        2778.803          34.000  
G29  24400244.628   128224154.494        3334.553          33.000    24400252.910    99914966.434        2598.727          34.000  
G25  24348202.616   127950667.560        -979.490          31.000    24348221.615    99701841.481        -762.813          34.000  
> 2025 05 14 07 46 47.0030000  0 10                     
G05  21707705.856   114074769.650        -229.999          37.000    21707709.946    88889452.643        -179.388          38.000  
G06  24730370.672   129958934.192       -1281.372          30.000    24730389.107   101266759.067        -998.633          32.000  
G11  22945662.813   120580257.238        -407.594          36.000    22945667.716    93958658.041        -317.450          38.000  
G12  23930736.827   125756857.453       -2150.656          31.000    23930748.113    97992383.292       -1675.225          35.000  
G13  21919003.283   115185150.847        2476.066          37.000                                                                  
G19  24948284.309   131104129.373       -3572.340          29.000                                                                  
G20  22380418.413   117609885.923       -1536.641          37.000                                                                  
G15  23637453.112   124215669.649        3565.799          32.000    23637465.185    96791480.825        2778.113          34.000  
G29  24399610.041   128220819.843        3334.437          33.000    24399618.303    99912368.024        2598.577          34.000  
G25  24348388.911   127951647.146        -979.369          31.000    24348408.076    99702604.824        -763.561          34.000  
> 2025 05 14 07 46 48.0030000  0 10                     
G05  21707749.758   114074999.758        -230.365          37.000    21707753.754    88889631.959        -179.486          38.000  
G06  24730614.560   129960215.962       -1282.196          30.000    24730633.002   101267757.776        -998.309          32.000  
G11  22945740.447   120580664.913        -407.859          36.000    22945745.382    93958975.704        -317.811          38.000  
G12  23931145.913   125759007.680       -2149.998          31.000    23931157.290    97994058.824       -1675.432          35.000  
G13  21918532.197   115182675.197        2475.139          38.000                                                                  
G19  24948964.276   131107701.904       -3572.002          29.000                                                                  
G20  22380710.938   117611422.636       -1536.356          37.000                                                                  
G15  23636774.603   124212104.047        3565.680          32.000    23636786.743    96788702.431        2777.841          34.000  
G29  24398975.721   128217485.336        3334.813          33.000    24398983.807    99909769.719        2598.202          33.000  
G25  24348575.368   127952627.101        -979.467          31.000    24348594.734    99703368.407        -763.322          34.000  
> 2025 05 14 07 46 49.0030000  0 10                     
G05  21707793.626   114075230.224        -231.201          37.000    21707797.558    88889811.513        -179.443          38.000  
G06  24730858.426   129961497.771       -1281.586          31.000    24730876.954   101268756.632        -998.975          32.000  
G11  22945818.135   120581072.698        -407.893          36.000    22945823.026    93959293.467        -317.877          38.000  
G12  23931555.112   125761158.184       -2150.437          31.000    23931566.536    97995734.546       -1675.879          35.000  
G13  21918061.010   115180199.944        2475.077          38.000                                                                  
G19  24949644.195   131111274.671       -3573.043          29.000                                                                  
G20  22381003.409   117612959.444       -1536.951          37.000                                                                  
G15  23636096.076   124208538.665        3565.450          32.000    23636108.322    96785924.203        2777.905          34.000  
G29  24398341.198   128214151.027        3334.774          32.000    24398349.195    99907171.550        2598.532          33.000  
G25  24348761.910   127953607.489        -980.696          31.000    24348781.234    99704132.312        -764.300          34.000  
> 2025 05 14 07 46 50.0030000  0 10                     
G05  21707837.627   114075461.190        -231.091          37.000    21707841.505    88889991.511        -180.255          38.000  
G06  24731102.403   129962779.922       -1281.390          30.000    24731121.023   101269755.727        -999.200          32.000  
G11  22945895.835   120581480.828        -408.320          36.000    22945900.752    93959611.469        -317.788          38.000  
G12  23931964.291   125763309.107       -2151.433          31.000    23931975.772    97997410.568       -1676.151          35.000  
G13  21917590.161   115177725.390        2473.974          38.000                                                                  
G19  24950323.981   131114847.802       -3573.466          29.000                                                                  
G20  22381295.898   117614496.533       -1537.299          37.000                                                                  
G15  23635417.788   124204973.686        3564.266          32.000    23635429.983    96783146.314        2777.292          34.000  
G29  24397706.822   128210817.149        3333.898          32.000    24397714.804    99904573.707        2597.944          33.000  
G25  24348948.404   127954588.399        -980.940          31.000    24348967.975    99704896.698        -764.841          34.000  
> 2025 05 14 07 46 51.0030000  0 10                     
G05  21707881.630   114075692.598        -230.969          37.000    21707885.630    88890171.828        -179.846          38.000  
G06  24731346.459   129964062.360       -1281.024          31.000    24731365.061   101270755.035        -999.451          32.000  
G11  22945973.413   120581889.196        -407.856          36.000    22945978.508    93959929.665        -317.539          38.000  
G12  23932373.626   125765460.354       -2150.745          31.000    23932385.256    97999086.857       -1676.186          35.000  
G13  21917119.422   115175251.366        2474.325          37.000                                                                  
G19  24951004.002   131118421.256       -3573.810          28.000                                                                  
G20  22381588.437   117616033.773       -1536.505          37.000                                                                  
G15  23634739.405   124201408.962        3565.127          32.000    23634751.526    96780368.626        2777.836          34.000  
G29  24397072.418   128207483.483        3334.691          32.000    24397080.297    99901976.085        2597.820          33.000  
G25  24349135.153   127955569.847        -981.352          31.000    24349154.677    99705661.408        -764.185          34.000  
> 2025 05 14 07 46 52.0030000  0 10                     
G05  21707925.738   114075924.307        -231.921          37.000    21707929.706    88890352.400        -180.988          38.000  
G06  24731590.562   129965344.909       -1283.160          31.000    24731609.161   101271754.351        -999.280          33.000  
G11  22946051.012   120582297.613        -408.643          36.000    22946056.256    93960247.927        -318.290          38.000  
G12  23932783.145   125767611.737       -2151.254          31.000    23932794.745    98000763.276       -1676.666          35.000  
G13  21916648.852   115172777.753        2473.485          37.000                                                                  
G19  24951683.902   131121994.745       -3573.072          28.000                                                                  
G20  22381880.987   117617571.103       -1537.583          37.000                                                                  
G15  23634061.088   124197844.451        3563.728          32.000    23634073.122    96777591.014        2778.000          34.000  
G29  24396438.044   128204150.020        3332.700          32.000    24396445.843    99899378.553        2597.491          33.000  
G25  24349321.898   127956551.606        -981.758          31.000    24349341.282    99706426.419        -764.900          34.000  
> 2025 05 14 07 46 53.0030000  0 10                     
G05  21707969.850   114076156.382        -232.446          37.000    21707973.908    88890533.221        -181.177          38.000  
G06  24731834.630   129966627.590       -1283.051          31.000    24731853.206   101272753.835        -999.286          32.000  
G11  22946128.876   120582706.165        -408.484          36.000    22946134.030    93960566.297        -318.713          38.000  
G12  23933192.654   125769763.365       -2151.292          31.000    23933204.179    98002439.838       -1676.583          35.000  
G13  21916178.202   115170304.612        2472.945          37.000                                                                  
G19  24952364.129   131125568.572       -3573.605          28.000                                                                  
G20  22382173.565   117619108.484       -1537.229          37.000                                                                  
G15  23633382.879   124194280.110        3563.793          32.000    23633394.859    96774813.625        2777.703          34.000  
G29  24395803.738   128200816.736        3332.479          32.000    24395811.598    99896781.208        2596.977          33.000  
G25  24349508.716   127957533.795        -982.913          31.000    24349527.878    99707191.734        -765.394          34.000  
> 2025 05 14 07 46 54.0030000  0 10                     
G05  21708014.025   114076388.625        -232.312          38.000    21708018.114    88890714.216        -181.488          38.000  
G06  24732078.692   129967910.221       -1282.599          31.000    24732097.319   101273753.326        -999.762          33.000  
G11  22946206.709   120583114.723        -408.886          36.000    22946211.786    93960884.640        -318.562          38.000  
G12  23933601.962   125771915.079       -2151.760          31.000    23933613.620    98004116.493       -1676.698          35.000  
G13  21915707.652   115167831.776        2472.596          37.000                                                                  
G19  24953044.308   131129142.411       -3573.747          28.000                                                                  
G20  22382466.090   117620645.806       -1537.086          37.000                                                                  
G15  23632704.634   124190715.792        3564.207          32.000    23632716.637    96772036.323        2776.643          34.000  
G29  24395169.493   128197483.417        3333.466          32.000    24395177.212    99894183.858        2597.223          34.000  
G25  24349695.743   127958516.182        -982.335          31.000    24349714.522    99707957.252        -765.707          33.000  
> 2025 05 14 07 46 55.0030000  0 10                     
G05  21708058.254   114076621.208        -232.715          38.000    21708062.444    88890895.447        -181.409          38.000  
G06  24732322.831   129969192.999       -1283.142          31.000    24732341.365   101274752.879        -999.957          32.000  
G11  22946284.553   120583523.419        -409.113          36.000    22946289.620    93961203.100        -319.124          38.000  
G12  23934011.320   125774066.969       -2151.842          31.000    23934023.103    98005793.307       -1677.396          35.000  
G13  21915237.075   115165359.367        2472.277          38.000                                                                  
G19  24953724.577   131132716.463       -3574.642          28.000                                                                  
G20  22382758.642   117622183.223       -1537.576          37.000                                                                  
G15  23632026.314   124187151.693        3564.509          32.000    23632038.386    96769259.104        2776.466          34.000  
G29  24394535.223   128194150.339        3332.887          32.000    24394542.894    99891586.634        2596.964          33.000  
G25  24349883.070   127959498.970        -983.365          31.000    24349901.331    99708723.042        -765.668          34.000  
> 2025 05 14 07 46 56.0030000  0 10                     
G05  21708102.502   114076854.243        -233.295          37.000    21708106.727    88891077.013        -181.604          38.000  
G06  24732567.153   129970476.022       -1283.282          31.000    24732585.520   101275752.583        -999.164          33.000  
G11  22946362.360   120583932.290        -409.042          36.000    22946367.474    93961521.699        -318.768          38.000  
G12  23934420.915   125776219.200       -2152.303          32.000    23934432.707    98007470.363       -1676.971          35.000  
G13  21914766.737   115162887.521        2471.775          37.000                                                                  
G19  24954404.741   131136290.789       -3574.709          28.000                                                                  
G20  22383051.238   117623720.805       -1537.648          37.000                                                                  
G15  23631348.330   124183587.903        3564.570          32.000    23631360.209    96766482.122        2776.772          34.000  
G29  24393900.964   128190817.566        3332.269          32.000    24393908.605    99888989.635        2597.148          33.000  
G25  24350070.263   127960482.279        -983.816          31.000    24350088.207    99709489.238        -766.424          34.000  
> 2025 05 14 07 46 57.0030000  0 10                     
G05  21708146.873   114077087.525        -233.649          37.000    21708151.005    88891258.785        -181.885          38.000  
G06  24732811.398   129971759.064       -1283.014          31.000    24732829.810   101276752.369        -999.512          33.000  
G11  22946440.056   120584341.263        -409.152          36.000    22946445.289    93961840.357        -318.720          38.000  
G12  23934830.422   125778371.546       -2152.098          31.000    23934842.350    98009147.513       -1677.285          35.000  
G13  21914296.433   115160416.062        2471.333          37.000                                                                  
G19  24955084.790   131139865.216       -3574.672          29.000                                                                  
G20  22383343.969   117625258.399       -1537.632          37.000                                                                  
G15  23630670.164   124180024.269        3563.827          32.000    23630682.057    96763705.231        2777.125          34.000  
G29  24393266.750   128187484.874        3332.038          32.000    24393274.345    99886392.743        2596.925          34.000  
G25  24350257.603   127961465.813        -982.984          31.000    24350275.004    99710255.632        -766.276          34.000  
> 2025 05 14 07 46 58.0030000  0 10                     
G05  21708191.383   114077321.368        -234.070          37.000    21708195.435    88891441.016        -182.623          38.000  
G06  24733055.769   129973042.575       -1283.923          31.000    24733074.066   101277752.465        -999.567          33.000  
G11  22946517.889   120584750.579        -409.470          36.000    22946523.213    93962159.310        -318.877          38.000  
G12  23935240.078   125780524.420       -2153.204          31.000    23935251.976    98010825.063       -1677.626          35.000  
G13  21913826.314   115157945.298        2470.213          38.000                                                                  
G19  24955765.097   131143440.125       -3575.879          28.000                                                                  
G20  22383636.630   117626796.306       -1537.928          37.000                                                                  
G15  23629992.032   124176461.062        3562.915          32.000    23630003.934    96760928.695        2776.609          34.000  
G29  24392632.527   128184152.578        3332.399          32.000    24392640.152    99883796.200        2596.345          34.000  
G25  24350444.883   127962450.054        -984.578          31.000    24350462.347    99711022.535        -766.870          34.000  
> 2025 05 14 07 46 59.0030000  0 10                     
G05  21708235.935   114077555.278        -234.387          37.000    21708239.916    88891623.284        -182.617          38.000  
G06  24733300.120   129974325.913       -1284.479          31.000    24733318.365   101278752.455       -1000.293          33.000  
G11  22946595.631   120585159.756        -409.627          36.000    22946601.139    93962478.136        -319.319          38.000  
G12  23935649.551   125782677.173       -2152.825          31.000    23935661.647    98012502.527       -1677.688          34.000  
G13  21913356.153   115155474.695        2470.035          38.000                                                                  
G19  24956445.345   131147014.859       -3574.776          28.000                                                                  
G20  22383929.161   117628334.033       -1538.437          37.000                                                                  
G15  23629313.943   124172897.746        3562.966          32.000    23629325.797    96758152.104        2776.665          34.000  
G29  24391998.340   128180820.264        3331.301          32.000    24392005.967    99881199.537        2596.648          34.000  
G25  24350632.239   127963434.424        -985.336          31.000    24350649.601    99711789.547        -767.555          34.000  
> 2025 05 14 07 47 00.0030000  0 10                     
G05  21708280.531   114077789.681        -234.540          37.000    21708284.486    88891805.942        -182.880          38.000  
G06  24733544.455   129975609.507       -1284.143          31.000    24733562.703   101279752.664       -1000.623          33.000  
G11  22946673.577   120585569.190        -409.461          36.000    22946679.060    93962797.172        -318.993          38.000  
G12  23936059.216   125784830.335       -2153.528          31.000    23936071.363    98014180.331       -1678.069          34.000  
G13  21912886.015   115153004.672        2470.386          38.000                                                                  
G19  24957125.844   131150590.048       -3574.971          28.000                                                                  
G20  22384221.908   117629871.968       -1538.019          37.000                                                                  
G15  23628635.803   124169334.803        3562.767          32.000    23628647.807    96755375.818        2775.658          34.000  
G29  24391364.134   128177488.201        3332.283          32.000    24391371.811    99878603.167        2596.466          34.000  
G25  24350819.513   127964419.240        -984.864          31.000    24350837.103    99712556.982        -767.851          34.000  
> 2025 05 14 07 47 01.0030000  0 10                     
G05  21708325.270   114078024.514        -235.034          37.000    21708329.233    88891988.936        -183.356          38.000  
G06  24733788.651   129976893.306       -1283.966          31.000    24733806.977   101280753.041       -1000.653          33.000  
G11  22946751.556   120585978.870        -409.994          36.000    22946757.003    93963116.415        -319.444          38.000  
G12  23936469.042   125786983.766       -2153.376          31.000    23936481.109    98015858.364       -1678.829          35.000  
G13  21912416.012   115150535.246        2469.016          38.000                                                                  
G19  24957806.189   131154165.510       -3576.009          28.000                                                                  
G20  22384514.683   117631410.097       -1538.599          37.000                                                                  
G15  23627957.989   124165772.145        3562.826          32.000    23627969.873    96752599.739        2775.425          34.000  
G29  24390730.157   128174156.491        3331.665          32.000    24390737.801    99876007.044        2595.421          34.000  
G25  24351007.015   127965404.626        -986.563          31.000    24351024.466    99713324.781        -768.294          34.000  
> 2025 05 14 07 47 02.0030000  0 10                     
G05  21708369.952   114078259.605        -235.516          37.000    21708373.966    88892172.118        -183.392          38.000  
G06  24734032.921   129978177.245       -1284.216          31.000    24734051.351   101281753.471       -1000.775          33.000  
G11  22946829.570   120586388.597        -409.988          36.000    22946834.944    93963435.671        -319.532          38.000  
G12  23936878.767   125789137.367       -2153.496          31.000    23936890.896    98017536.439       -1678.413          35.000  
G13  21911946.228   115148066.161        2468.844          38.000                                                                  
G19  24958486.672   131157741.048       -3576.003          28.000                                                                  
G20  22384807.430   117632948.203       -1538.177          37.000                                                                  
G15  23627280.101   124162209.611        3562.682          33.000    23627291.974    96749823.739        2775.353          34.000  
G29  24390096.066   128170824.855        3331.444          32.000    24390103.739    99873410.962        2595.810          34.000  
G25  24351194.722   127966390.230        -985.490          30.000    24351212.164    99714092.783        -768.209          34.000  
> 2025 05 14 07 47 03.0030000  0 10                     
G05  21708414.785   114078495.144        -235.645          37.000    21708418.759    88892355.645        -183.777          38.000  
G06  24734277.324   129979461.383       -1284.351          31.000    24734295.733   101282754.095       -1000.952          33.000  
G11  22946907.532   120586798.593        -410.618          36.000    22946912.929    93963755.137        -319.786          38.000  
G12  23937288.721   125791291.348       -2155.209          31.000    23937300.674    98019214.852       -1679.144          35.000  
G13  21911476.541   115145597.668        2467.925          37.000                                                                  
G19  24959166.962   131161316.902       -3576.550          28.000                                                                  
G20  22385100.147   117634486.531       -1538.890          37.000                                                                  
G15  23626602.362   124158647.465        3561.520          32.000    23626614.160    96747047.990        2775.451          34.000  
G29  24389462.082   128167493.545        3330.688          32.000    24389469.809    99870815.142        2595.593          34.000  
G25  24351382.510   127967376.403        -986.191          31.000    24351399.992    99714861.207        -768.382          34.000  
> 2025 05 14 07 47 04.0030000  0 10                     
G05  21708459.656   114078730.813        -236.060          37.000    21708463.599    88892539.275        -183.521          38.000  
G06  24734521.722   129980745.435       -1284.338          31.000    24734540.161   101283754.656       -1000.720          33.000  
G11  22946985.538   120587208.453        -410.251          36.000    22946990.883    93964074.495        -319.343          38.000  
G12  23937698.556   125793445.227       -2153.438          31.000    23937710.518    98020893.201       -1678.512          35.000  
G13  21911006.766   115143129.377        2467.854          38.000                                                                  
G19  24959847.619   131164892.771       -3576.119          28.000                                                                  
G20  22385392.843   117636024.706       -1538.115          37.000                                                                  
G15  23625924.866   124155085.207        3561.696          33.000    23625936.318    96744272.215        2775.700          34.000  
G29  24388828.142   128164162.176        3331.062          32.000    24388835.922    99868219.274        2596.073          34.000  
G25  24351570.095   127968362.725        -986.416          31.000    24351587.601    99715629.772        -768.954          34.000  
> 2025 05 14 07 47 05.0030000  0 10                     
G05  21708504.631   114078966.953        -235.944          37.000    21708508.587    88892723.301        -183.789          38.000  
G06  24734766.254   129982029.739       -1282.715          31.000    24734784.641   101284755.412        -999.780          33.000  
G11  22947063.519   120587618.596        -409.609          36.000    22947068.932    93964394.092        -319.056          38.000  
G12  23938108.461   125795599.482       -2153.629          31.000    23938120.466    98022571.861       -1678.494          35.000  
G13  21910537.219   115140661.710        2467.860          38.000                                                                  
G19  24960528.412   131168468.934       -3575.977          29.000                                                                  
G20  22385685.553   117637563.119       -1537.927          37.000                                                                  
G15  23625247.045   124151523.299        3562.723          33.000    23625258.559    96741496.730        2775.804          34.000  
G29  24388194.306   128160831.154        3331.331          32.000    24388202.192    99865623.687        2595.549          34.000  
G25  24351757.855   127969351.0773       -987.009          31.000    24351775.471    99716398.732        -768.847          34.000  
> 2025 05 14 07 47 06.0030000  0 10                     
G05  21708549.648   114079203.561        -236.023          37.000    21708553.710    88892907.675        -184.558          38.000  
G06  24735010.791   129983314.422       -1284.784          31.000    24735029.113   101285756.424       -1000.775          33.000  
G11  22947141.767   120588029.024        -410.563          36.000    22947147.027    93964713.891        -319.600          38.000  
G12  23938518.634   125797754.101       -2152.969          32.000    23938530.461    98024250.795       -1678.821          35.000  
G13  21910067.772   115138194.631        2467.189          38.000                                                                  
G19  24961209.057   131172045.522       -3576.884          29.000                                                                  
G20  22385978.378   117639101.737       -1538.264          37.000                                                                  
G15  23624569.391   124147961.786        3561.785          33.000    23624580.751    96738721.525        2775.299          34.000  
G29  24387560.526   128157500.454        3330.989          32.000    24387568.326    99863028.337        2595.541          34.000  
G25  24351945.803   127970338.4402       -986.617          31.000    24351963.473    99717168.124        -769.620          34.000  
> 2025 05 14 07 47 07.0030000  0 10                     
G05  21708594.678   114079440.551        -236.945          37.000    21708598.797    88893092.344        -184.991          38.000  
G06  24735255.422   129984599.194       -1284.015          31.000    24735273.583   101286757.575       -1001.379          33.000  
G11  22947219.828   120588439.593        -410.193          36.000    22947225.170    93965033.838        -320.228          38.000  
G12  23938928.543   125799909.070       -2155.177          32.000    23938940.563    98025929.921       -1678.679          35.000  
G13  21909598.396   115135728.044        2466.379          37.000                                                                  
G19  24961889.714   131175622.259       -3577.256          29.000                                                                  
G20  22386271.125   117640640.510       -1539.081          37.000                                                                  
G15  23623891.799   124144400.486        3561.072          33.000    23623903.074    96735946.498        2774.655          34.000  
G29  24386926.556   128154170.015        3330.179          32.000    24386934.545    99860433.190        2594.928          34.000  
G25  24352133.891   127971325.8231       -989.228          31.000    24352151.267    99717937.838        -769.595          33.000  
> 2025 05 14 07 47 08.0030000  0 10                     
G05  21708639.850   114079677.781        -237.036          37.000    21708643.924    88893277.184        -184.760          38.000  
G06  24735499.972   129985884.089       -1284.998          31.000    24735518.113   101287758.714       -1000.952          33.000  
G11  22947298.062   120588850.203        -410.269          36.000    22947303.288    93965353.774        -319.636          38.000  
G12  23939338.727   125802064.037       -2154.081          31.000    23939350.728    98027609.151       -1678.966          35.000  
G13  21909129.218   115133261.833        2466.076          37.000                                                                  
G19  24962570.348   131179199.084       -3576.721          28.000                                                                  
G20  22386563.934   117642179.228       -1538.285          37.000                                                                  
G15  23623214.294   124140839.282        3561.395          33.000    23623225.428    96733171.527        2775.331          34.000  
G29  24386292.984   128150839.587        3330.647          32.000    24386300.811    99857838.075        2594.661          33.000  
G25  24352322.084   127972313.887        -987.792          31.000    24352338.950    99718707.782        -770.106          33.000  
> 2025 05 14 07 47 09.0030000  0 10                     
G05  21708684.983   114079915.425        -237.244          37.000    21708689.081    88893462.359        -184.790          38.000  
G06  24735744.537   129987169.125       -1284.546          31.000    24735762.704   101288760.045       -1001.062          34.000  
G11  22947376.396   120589261.022        -410.354          36.000    22947381.458    93965673.888        -319.649          38.000  
G12  23939748.840   125804219.381       -2155.330          32.000    23939760.805    98029288.592       -1678.845          35.000  
G13  21908660.035   115130796.133        2465.839          37.000                                                                  
G19  24963251.024   131182776.223       -3577.228          29.000                                                                  
G20  22386856.699   117643718.116       -1538.271          37.000                                                                  
G15  23622536.704   124137278.369        3561.166          32.000    23622547.835    96730396.798        2775.044          34.000  
G29  24385659.172   128147509.466        3330.740          32.000    24385667.095    99855243.159        2595.282          34.000  
G25  24352510.086   127973302.441        -988.402          31.000    24352526.791    99719478.079        -770.341          33.000  
> 2025 05 14 07 47 10.0030000  0 10                     
G05  21708730.328   114080153.314        -238.184          37.000    21708734.315    88893647.737        -185.809          38.000  
G06  24735989.147   129988454.257       -1285.687          31.000    24736007.289   101289761.417       -1001.349          33.000  
G11  22947454.587   120589671.901        -411.388          36.000    22947459.604    93965994.059        -320.973          38.000  
G12  23940159.061   125806374.794       -2155.461          32.000    23940171.008    98030968.171       -1680.194          35.000  
G13  21908190.925   115128330.815        2464.691          37.000                                                                  
G19  24963931.696   131186353.390       -3576.947          28.000                                                                  
G20  22387149.547   117645257.026       -1539.311          37.000                                                                  
G15  23621858.992   124133717.588        3559.612          32.000    23621870.211    96727622.132        2774.484          34.000  
G29  24385025.483   128144179.448        3329.361          32.000    24385033.396    99852648.376        2593.891          34.000  
G25  24352698.233   127974291.280        -989.711          31.000    24352714.937    99720248.602        -770.794          33.000  
> 2025 05 14 07 47 11.0030000  0 10                     
G05  21708775.694   114080391.597        -238.483          37.000    21708779.533    88893833.421        -186.127          38.000  
G06  24736233.812   129989739.543       -1285.565          31.000    24736251.908   101290762.969       -1002.216          33.000  
G11  22947532.816   120590082.929        -410.759          36.000    22947537.808    93966314.323        -320.240          38.000  
G12  23940569.174   125808530.545       -2156.215          31.000    23940581.318    98032647.952       -1679.852          35.000  
G13  21907721.902   115125865.987        2464.727          37.000                                                                  
G19  24964612.520   131189930.966       -3577.985          28.000                                                                  
G20  22387442.455   117646796.049       -1539.475          37.000                                                                  
G15  23621181.367   124130157.040        3559.940          32.000    23621192.632    96724847.717        2774.480          34.000  
G29  24384391.898   128140849.691        3329.381          32.000    24384399.748    99850053.725        2594.474          34.000  
G25  24352886.618   127975280.623        -990.678          31.000    24352903.098    99721019.487        -771.284          34.000  
> 2025 05 14 07 47 12.0030000  0 10                     
G05  21708820.996   114080630.084        -239.185          37.000    21708824.866    88894019.256        -186.487          38.000  
G06  24736478.464   129991024.872       -1285.840          31.000    24736496.481   101291764.475       -1001.770          33.000  
G11  22947611.025   120590493.999        -411.640          36.000    22947616.039    93966634.638        -320.713          38.000  
G12  23940979.563   125810686.334       -2155.936          31.000    23940991.561    98034327.805       -1680.219          35.000  
G13  21907252.810   115123401.529        2463.636          37.000                                                                  
G19  24965293.412   131193508.506       -3578.211          28.000                                                                  
G20  22387735.212   117648335.020       -1539.176          37.000                                                                  
G15  23620503.804   124126596.581        3559.806          32.000    23620515.208    96722073.307        2774.276          34.000  
G29  24383758.410   128137519.935        3329.478          32.000    24383766.065    99847459.139        2594.605          34.000  
G25  24353074.864   127976270.151        -989.749          32.000    24353091.640    99721790.560        -771.567          34.000  
> 2025 05 14 07 47 13.0030000  0 10                     
G05  21708866.414   114080869.072        -239.294          37.000    21708870.383    88894205.468        -186.584          38.000  
G06  24736722.972   129992310.484       -1286.108          31.000    24736741.095   101292766.255       -1001.917          33.000  
G11  22947689.296   120590905.337        -411.453          36.000    22947694.201    93966955.152        -320.645          38.000  
G12  23941389.783   125812842.542       -2156.038          32.000    23941401.949    98036007.956       -1680.866          35.000  
G13  21906783.946   115120937.647        2463.652          37.000                                                                  
G19  24965974.229   131197086.379       -3577.494          28.000                                                                  
G20  22388028.029   117649874.253       -1539.267          37.000                                                                  
G15  23619826.283   124123036.493        3559.609          32.000    23619837.689    96719299.248        2774.009          34.000  
G29  24383124.891   128134190.581        3329.782          32.000    24383132.536    99844864.826        2594.749          34.000  
G25  24353263.329   127977260.256        -991.164          31.000    24353279.961    99722562.049        -771.508          34.000  
> 2025 05 14 07 47 14.0030000  0 10                     
G05  21708911.943   114081108.367        -239.929          37.000    21708915.937    88894391.924        -186.707          38.000  
G06  24736967.697   129993596.236       -1286.823          31.000    24736985.788   101293768.120       -1002.185          33.000  
G11  22947767.708   120591316.755        -411.227          36.000    22947772.475    93967275.754        -320.699          38.000  
G12  23941800.124   125814998.895       -2156.436          32.000    23941812.280    98037688.201       -1680.299          35.000  
G13  21906315.229   115118474.227        2462.880          38.000                                                                  
G19  24966655.155   131200664.461       -3578.018          28.000                                                                  
G20  22388320.963   117651413.522       -1539.455          37.000                                                                  
G15  23619148.800   124119476.563        3559.835          32.000    23619160.330    96716525.286        2773.610          34.000  
G29  24382491.360   128130861.402        3328.948          32.000    24382499.077    99842270.685        2593.766          34.000  
G25  24353452.002   127978250.690        -990.185          31.000    24353468.462    99723333.819        -771.979          34.000  
> 2025 05 14 07 47 15.0030000  0 10                     
G05  21708957.481   114081348.046        -240.173          37.000    21708961.604    88894578.696        -187.024          38.000  
G06  24737212.525   129994882.110       -1285.608          31.000    24737230.580   101294770.117       -1002.252          33.000  
G11  22947846.093   120591728.376        -411.499          36.000    22947850.809    93967596.474        -320.584          38.000  
G12  23942210.661   125817155.557       -2157.664          31.000    23942222.633    98039368.713       -1680.464          35.000  
G13  21905846.654   115116011.280        2462.482          37.000                                                                  
G19  24967336.045   131204242.856       -3579.307          28.000                                                                  
G20  22388613.928   117652952.909       -1539.361          37.000                                                                  
G15  23618471.502   124115916.889        3559.584          32.000    23618482.996    96713751.508        2773.810          34.000  
G29  24381857.765   128127532.414        3329.216          32.000    24381865.580    99839676.694        2593.499          33.000  
G25  24353640.683   127979241.584        -990.602          31.000    24353657.169    99724105.932        -771.989          34.000  
> 2025 05 14 07 47 16.0030000  0 10                     
G05  21709003.119   114081588.068        -240.125          38.000    21709007.262    88894765.725        -186.780          38.000  
G06  24737457.313   129996168.158       -1285.895          31.000    24737475.334   101295772.245       -1002.728          33.000  
G11  22947924.559   120592140.145        -411.584          36.000    22947929.165    93967917.363        -321.241          38.000  
G12  23942621.119   125819312.455       -2157.422          31.000    23942633.109    98041049.403       -1680.876          35.000  
G13  21905378.099   115113548.793        2462.489          37.000                                                                  
G19  24968017.185   131207821.351       -3578.538          28.000                                                                  
G20  22388906.862   117654492.421       -1539.310          37.000                                                                  
G15  23617794.116   124112357.429        3559.382          32.000    23617805.677    96710977.916        2773.783          34.000  
G29  24381224.365   128124203.699        3328.504          32.000    24381232.141    99837082.828        2594.142          34.000  
G25  24353829.202   127980232.895        -991.498          30.000    24353846.029    99724878.378        -772.090          34.000  
> 2025 05 14 07 47 17.0030000  0 10                     
G05  21709048.883   114081828.597        -240.656          38.000    21709053.087    88894953.159        -187.860          38.000  
G06  24737702.199   129997454.558       -1286.682          30.000    24737720.106   101296774.596       -1003.168          33.000  
G11  22948002.996   120592552.184        -412.084          36.000    22948007.610    93968238.423        -321.589          38.000  
G12  23943031.597   125821469.672       -2157.396          31.000    23943043.574    98042730.362       -1681.016          35.000  
G13  21904909.527   115111086.941        2461.200          37.000                                                                  
G19  24968698.223   131211400.211       -3578.464          28.000                                                                  
G20  22389199.865   117656032.150       -1539.870          37.000                                                                  
G15  23617116.733   124108798.348        3558.535          32.000    23617128.362    96708204.606        2773.087          34.000  
G29  24380591.022   128120875.271        3328.544          32.000    24380598.774    99834489.296        2593.605          33.000  
G25  24354017.990   127981224.779        -992.727          31.000    24354034.875    99725651.252        -773.425          34.000  
> 2025 05 14 07 47 18.0030000  0 10                     
G05  21709094.924   114082069.646        -242.603          37.000    21709098.908    88895140.978        -189.166          38.000  
G06  24737947.281   129998741.219       -1287.659          31.000    24737964.899   101297777.162       -1003.668          33.000  
G11  22948081.497   120592964.561        -413.702          36.000    22948085.973    93968559.730        -322.346          38.000  
G12  23943442.394   125823627.306       -2158.837          32.000    23943454.156    98044411.634       -1682.050          35.000  
G13  21904441.006   115108625.697        2460.006          37.000                                                                  
G19  24969379.241   131214979.505       -3579.981          28.000                                                                  
G20  22389493.000   117657572.145       -1541.216          37.000                                                                  
G15  23616439.413   124105239.660        3556.802          32.000    23616451.116    96705431.585        2772.216          34.000  
G29  24379957.735   128117547.228        3327.469          32.000    24379965.434    99831896.058        2591.842          33.000  
G25  24354206.623   127982217.200        -994.412          31.000    24354223.861    99726424.510        -773.698          33.000  
> 2025 05 14 07 47 19.0030000  0 10                     
G05  21709140.793   114082310.852        -241.077          38.000    21709144.785    88895328.954        -188.214          38.000  
G06  24738192.213   130000027.922       -1287.512          30.000    24738209.824   101298779.757       -1002.679          33.000  
G11  22948159.936   120593376.905        -412.865          36.000    22948164.355    93968881.023        -321.215          38.000  
G12  23943853.160   125825785.019       -2157.195          31.000    23943864.838    98046092.961       -1681.020          35.000  
G13  21903972.738   115106164.786        2460.627          37.000                                                                  
G19  24970060.315   131218558.778       -3578.997          28.000                                                                  
G20  22389785.917   117659112.055       -1539.751          37.000                                                                  
G15  23615762.220   124101680.935        3559.250          32.000    23615773.944    96702658.611        2773.162          34.000  
G29  24379324.289   128114219.257        3328.148          32.000    24379332.039    99829302.790        2592.931          33.000  
G25  24354395.408   127983209.780        -991.762          31.000    24354412.753    99727198.009        -773.481          33.000  
> 2025 05 14 07 47 20.0030000  0 10                     
G05  21709186.853   114082552.327        -242.328          38.000    21709190.748    88895517.095        -188.281          38.000  
G06  24738437.110   130001314.549       -1286.670          31.000    24738454.662   101299782.361       -1003.333          33.000  
G11  22948238.368   120593789.249        -412.782          36.000    22948242.829    93969202.332        -321.635          38.000  
G12  23944263.916   125827942.864       -2158.683          32.000    23944275.497    98047774.372       -1681.599          35.000  
G13  21903504.346   115103704.214        2459.719          37.000                                                                  
G19  24970741.515   131222138.191       -3579.376          28.000                                                                  
G20  22390078.935   117660651.963       -1540.311          37.000                                                                  
G15  23615085.012   124098122.373        3558.650          32.000    23615096.834    96699885.719        2772.095          34.000  
G29  24378691.008   128110891.321        3327.686          32.000    24378698.688    99826709.593        2593.497          33.000  
G25  24354584.229   127984202.725        -993.309          31.000    24354601.679    99727971.704        -773.827          33.000  
> 2025 05 14 07 47 21.0030000  0 10                     
G05  21709232.835   114082794.155        -242.236          38.000    21709236.798    88895705.532        -188.391          38.000  
G06  24738681.876   130002601.449       -1287.006          30.000    24738699.586   101300785.127       -1002.985          33.000  
G11  22948316.874   120594201.781        -412.699          36.000    22948321.261    93969523.778        -321.689          38.000  
G12  23944674.651   125830100.927       -2158.031          32.000    23944686.267    98049455.983       -1681.707          35.000  
G13  21903036.259   115101244.125        2460.065          37.000                                                                  
G19  24971422.828   131225717.820       -3579.605          28.000                                                                  
G20  22390372.013   117662191.995       -1540.089          37.000                                                                  
G15  23614407.820   124094564.082        3558.313          33.000    23614419.638    96697112.980        2773.027          34.000  
G29  24378057.647   128107563.686        3327.234          32.000    24378065.337    99824116.597        2593.250          33.000  
G25  24354773.287   127985196.113        -994.197          31.000    24354790.601    99728745.713        -774.051          33.000  
> 2025 05 14 07 47 22.0030000  0 10                     
G05  21709278.937   114083036.382        -242.249          37.000    21709282.817    88895894.295        -188.611          38.000  
G06  24738926.767   130003888.526       -1286.951          30.000    24738944.519   101301788.009       -1003.259          33.000  
G11  22948395.236   120594614.513        -413.072          36.000    22948399.800    93969845.371        -321.497          38.000  
G12  23945085.301   125832259.259       -2157.809          32.000    23945097.063    98051137.818       -1681.754          35.000  
G13  21902568.146   115098784.586        2459.268          38.000                                                                  
G19  24972104.013   131229297.721       -3580.179          28.000                                                                  
G20  22390665.063   117663732.167       -1539.951          37.000                                                                  
G15  23613730.786   124091006.050        3558.048          33.000    23613742.499    96694340.482        2772.990          34.000  
G29  24377424.344   128104236.252        3327.394          31.000    24377432.077    99821523.808        2593.108          32.000  
G25  24354962.307   127986189.923        -994.637          31.000    24354979.542    99729520.105        -773.598          33.000  
> 2025 05 14 07 47 23.0030000  0 10                     
G05  21709325.124   114083278.953        -242.853          38.000    21709328.872    88896083.301        -188.977          38.000  
G06  24739171.832   130005175.771       -1287.805          30.000    24739189.500   101302791.047       -1003.192          33.000  
G11  22948473.889   120595027.367        -413.520          36.000    22948478.394    93970167.088        -322.120          38.000  
G12  23945496.083   125834417.847       -2158.515          32.000    23945507.883    98052819.834       -1682.282          35.000  
G13  21902100.278   115096325.508        2458.387          38.000                                                                  
G19  24972785.285   131232877.819       -3580.404          28.000                                                                  
G20  22390958.093   117665272.423       -1540.842          37.000                                                                  
G15  23613053.801   124087448.195        3557.407          32.000    23613065.490    96691568.195        2771.721          34.000  
G29  24376791.092   128100909.018        3326.948          31.000    24376798.789    99818931.173        2592.254          33.000  
G25  24355151.571   127987184.118        -994.934          30.000    24355168.650    99730294.805        -774.582          33.000  
> 2025 05 14 07 47 24.0030000  0 10                     
G05  21709371.435   114083521.898        -243.146          38.000    21709375.114    88896272.615        -189.258          38.000  
G06  24739416.803   130006463.179       -1287.793          30.000    24739434.525   101303794.208       -1003.479          33.000  
G11  22948552.417   120595440.403        -413.449          36.000    22948556.983    93970488.936        -322.256          38.000  
G12  23945906.948   125836576.702       -2158.884          32.000    23945918.745    98054502.027       -1682.318          35.000  
G13  21901632.422   115093866.932        2457.983          38.000                                                                  
G19  24973466.706   131236458.218       -3581.168          28.000                                                                  
G20  22391251.193   117666812.814       -1540.376          37.000                                                                  
G15  23612376.824   124083890.652        3557.189          32.000    23612388.402    96688796.044        2771.808          34.000  
G29  24376157.875   128097582.039        3327.368          31.000    24376165.721    99816338.746        2592.061          33.000  
G25  24355340.687   127988178.717        -994.603          31.000    24355357.753    99731069.854        -775.500          33.000  
> 2025 05 14 07 47 25.0030000  0 10                     
G05  21709417.726   114083765.186        -243.658          37.000    21709421.314    88896462.198        -189.899          38.000  
G06  24739661.742   130007750.706       -1287.146          30.000    24739679.532   101304797.492       -1002.972          33.000  
G11  22948630.956   120595853.573        -413.293          36.000    22948635.488    93970810.885        -322.283          37.000  
G12  23946317.722   125838735.760       -2158.974          32.000    23946329.568    98056184.399       -1682.004          35.000  
G13  21901164.560   115091408.776        2458.052          37.000                                                                  
G19  24974148.136   131240038.701       -3580.178          28.000                                                                  
G20  22391544.395   117668353.302       -1540.470          37.000                                                                  
G15  23611699.849   124080333.257        3557.045          32.000    23611711.468    96686024.082        2771.923          34.000  
G29  24375524.798   128094255.234        3326.775          31.000    24375532.661    99813746.425        2592.069          33.000  
G25  24355530.136   127989173.781        -995.653          30.000    24355547.149    99731845.206        -775.859          33.000  
> 2025 05 14 07 47 26.0030000  0 10                     
G05  21709464.101   114084008.826        -243.854          38.000    21709467.642    88896652.029        -189.716          38.000  
G06  24739906.721   130009038.466       -1287.585          30.000    24739924.581   101305800.892       -1003.198          33.000  
G11  22948709.507   120596266.868        -412.739          36.000    22948714.188    93971132.936        -321.930          37.000  
G12  23946728.897   125840895.069       -2159.292          32.000    23946740.419    98057866.972       -1682.425          35.000  
G13  21900696.765   115088951.133        2457.698          37.000                                                                  
G19  24974829.383   131243619.470       -3580.517          28.000                                                                  
G20  22391837.671   117669893.880       -1540.477          37.000                                                                  
G15  23611023.132   124076776.124        3557.061          32.000    23611034.381    96683252.275        2771.626          34.000  
G29  24374891.748   128090928.637        3326.787          31.000    24374899.693    99811154.281        2592.347          33.000  
G25  24355719.562   127990169.161        -995.307          30.000    24355736.460    99732620.835        -775.600          33.000  
> 2025 05 14 07 47 27.0030000  0 10                     
G05  21709510.583   114084252.728        -244.250          38.000    21709514.010    88896842.092        -190.314          38.000  
G06  24740151.889   130010326.247       -1287.909          30.000    24740169.742   101306804.335       -1003.491          33.000  
G11  22948788.321   120596680.284        -413.697          36.000    22948792.838    93971455.053        -322.344          37.000  
G12  23947139.662   125843054.496       -2159.444          32.000    23947151.327    98059549.654       -1682.669          35.000  
G13  21900229.077   115086493.889        2456.942          37.000                                                                  
G19  24975510.954   131247200.353       -3580.928          28.000                                                                  
G20  22392130.829   117671434.484       -1540.990          37.000                                                                  
G15  23610346.306   124073219.096        3556.764          32.000    23610357.564    96680480.589        2771.266          34.000  
G29  24374258.532   128087602.170        3325.851          31.000    24374266.588    99808562.229        2591.956          33.000  
G25  24355909.280   127991164.919        -996.367          31.000    24355925.971    99733396.760        -776.478          33.000  
> 2025 05 14 07 47 28.0030000  0 10                     
G05  21709557.039   114084496.984        -244.568          38.000    21709560.508    88897032.441        -190.814          38.000  
G06  24740396.822   130011614.187       -1288.312          30.000    24740414.815   101307807.949       -1003.473          33.000  
G11  22948867.006   120597093.843        -414.044          36.000    22948871.481    93971777.293        -322.281          37.000  
G12  23947550.623   125845214.212       -2159.796          32.000    23947562.410    98061232.537       -1683.322          35.000  
G13  21899761.652   115084037.118        2456.553          37.000                                                                  
G19  24976192.472   131250781.480       -3581.208          28.000                                                                  
G20  22392423.908   117672975.181       -1540.997          37.000                                                                  
G15  23609669.480   124069662.332        3556.868          32.000    23609680.823    96677709.047        2772.078          34.000  
G29  24373625.361   128084275.915        3326.471          32.000    24373633.617    99805970.374        2591.486          33.000  
G25  24356098.963   127992161.071        -996.051          31.000    24356115.549    99734172.963        -777.021          33.000  
> 2025 05 14 07 47 29.0030000  0 10                     
G05  21709603.679   114084741.806        -244.922          37.000    21709607.090    88897223.171        -190.442          38.000  
G06  24740642.002   130012902.470       -1287.866          30.000    24740659.958   101308811.766       -1003.583          33.000  
G11  22948945.807   120597507.692        -413.669          36.000    22948950.292    93972099.785        -322.415          37.000  
G12  23947961.658   125847374.306       -2160.209          32.000    23947973.405    98062915.720       -1682.727          35.000  
G13  21899294.211   115081581.016        2456.116          37.000                                                                  
G19  24976873.861   131254363.024       -3582.083          28.000                                                                  
G20  22392717.245   117674516.142       -1540.844          37.000                                                                  
G15  23608992.664   124066105.908        3557.089          32.000    23609004.087    96674937.861        2771.691          34.000  
G29  24372992.519   128080950.094        3325.234          31.000    24373000.803    99803378.765        2592.104          34.000  
G25  24356288.735   127993157.840        -996.788          31.000    24356305.191    99734949.612        -776.823          33.000  
> 2025 05 14 07 47 30.0030000  0 10                     
G05  21709650.298   114084986.845        -245.123          37.000    21709653.673    88897414.117        -190.442          38.000  
G06  24740887.137   130014190.858       -1289.154          30.000    24740905.154   101309815.687       -1003.448          33.000  
G11  22949024.506   120597921.625        -414.205          36.000    22949029.023    93972422.292        -322.121          38.000  
G12  23948372.747   125849534.566       -2160.714          31.000    23948384.507    98064599.020       -1683.392          35.000  
G13  21898826.893   115079125.266        2455.736          37.000                                                                  
G19  24977555.495   131257944.572       -3581.555          28.000                                                                  
G20  22393010.474   117676057.098       -1540.353          37.000                                                                  
G15  23608315.964   124062549.669        3556.520          32.000    23608327.304    96672166.767        2771.261          34.000  
G29  24372359.641   128077624.295        3326.623          32.000    24372368.037    99800787.276        2591.548          34.000  
G25  24356478.282   127994154.893        -997.237          30.000    24356495.029    99735726.504        -776.705          33.000  
> 2025 05 14 07 47 31.0030000  0 10                     
G05  21709696.962   114085232.247        -246.246          38.000    21709700.409    88897605.342        -191.370          38.000  
G06  24741132.046   130015479.324       -1289.374          30.000    24741150.314   101310819.685       -1003.967          33.000  
G11  22949103.242   120598335.671        -414.270          36.000    22949107.763    93972744.959        -322.988          38.000  
G12  23948783.597   125851695.006       -2161.198          31.000    23948795.660    98066282.503       -1683.662          35.000  
G13  21898359.780   115076669.962        2455.118          37.000                                                                  
G19  24978237.037   131261526.332       -3581.259          28.000                                                                  
G20  22393303.742   117677598.183       -1541.740          37.000                                                                  
G15  23607639.237   124058993.612        3556.345          32.000    23607650.564    96669395.837        2770.373          34.000  
G29  24371726.953   128074298.770        3325.125          32.000    24371735.250    99798195.999        2590.573          34.000  
G25  24356667.903   127995152.337        -999.343          30.000    24356684.892    99736503.742        -777.774          33.000  
> 2025 05 14 07 47 32.0030000  0 10                     
G05  21709743.774   114085478.017        -246.661          37.000    21709747.220    88897796.879        -192.401          38.000  
G06  24741377.209   130016768.010       -1289.209          30.000    24741395.592   101311823.837       -1004.065          33.000  
G11  22949182.054   120598749.884        -414.578          36.000    22949186.548    93973067.714        -323.251          38.000  
G12  23949194.841   125853855.742       -2161.383          31.000    23949206.832    98067966.166       -1684.070          35.000  
G13  21897892.655   115074215.193        2454.223          37.000                                                                  
G19  24978918.629   131265108.379       -3582.322          28.000                                                                  
G20  22393597.012   117679139.372       -1542.311          37.000                                                                  
G15  23606962.421   124055437.820        3555.533          32.000    23606973.878    96666625.041        2770.831          34.000  
G29  24371093.975   128070973.459        3324.401          32.000    24371102.522    99795604.811        2590.874          34.000  
G25  24356857.971   127996150.160        -998.701          31.000    24356874.789    99737281.283        -778.412          33.000  
> 2025 05 14 07 47 33.0030000  0 10                     
G05  21709790.649   114085724.079        -245.691          38.000    21709793.986    88897988.616        -191.418          38.000  
G06  24741622.450   130018056.775       -1288.342          30.000    24741640.861   101312828.082       -1004.364          34.000  
G11  22949261.048   120599164.220        -414.316          36.000    22949265.466    93973390.545        -322.534          38.000  
G12  23949605.979   125856016.616       -2160.590          32.000    23949618.125    98069649.966       -1683.382          35.000  
G13  21897425.626   115071760.833        2454.351          37.000                                                                  
G19  24979600.274   131268690.614       -3581.887          29.000                                                                  
G20  22393890.350   117680680.555       -1540.446          37.000                                                                  
G15  23606285.893   124051882.214        3555.515          32.000    23606297.264    96663854.439        2770.862          34.000  
G29  24370461.311   128067648.324        3324.734          32.000    24370469.745    99793013.787        2591.432          34.000  
G25  24357047.798   127997148.393        -998.611          30.000    24357064.910    99738059.095        -778.080          34.000  
> 2025 05 14 07 47 34.0030000  0 10                     
G05  21709837.409   114085970.514        -246.423          38.000    21709840.878    88898180.633        -191.956          38.000  
G06  24741867.697   130019345.667       -1289.038          30.000    24741886.168   101313832.405       -1004.108          33.000  
G11  22949339.813   120599578.638        -413.854          36.000    22949344.358    93973713.498        -322.794          38.000  
G12  23950017.245   125858177.704       -2161.332          32.000    23950029.379    98071333.951       -1683.907          35.000  
G13  21896958.738   115069306.934        2453.863          37.000                                                                  
G19  24980281.979   131272272.970       -3582.328          29.000                                                                  
G20  22394183.635   117682221.890       -1541.335          37.000                                                                  
G15  23605609.193   124048326.785        3555.071          32.000    23605620.744    96661083.994        2770.268          34.000  
G29  24369828.760   128064323.320        3325.507          32.000    24369837.087    99790422.907        2590.991          34.000  
G25  24357237.773   127998146.943        -999.409          30.000    24357254.958    99738837.187        -777.810          33.000  
> 2025 05 14 07 47 35.0030000  0 10                     
G05  21709884.338   114086217.245        -247.046          38.000    21709887.880    88898372.930        -193.243          38.000  
G06  24742112.961   130020634.693       -1288.483          30.000    24742131.425   101314836.857       -1005.353          33.000  
G11  22949418.585   120599993.225        -414.662          36.000    22949423.268    93974036.542        -323.520          38.000  
G12  23950428.707   125860339.023       -2161.925          32.000    23950440.597    98073018.082       -1684.877          35.000  
G13  21896491.899   115066853.514        2452.058          37.000                                                                  
G19  24980963.645   131275855.512       -3582.144          28.000                                                                  
G20  22394476.941   117683763.259       -1541.724          37.000                                                                  
G15  23604932.661   124044771.549        3554.422          32.000    23604944.264    96658313.688        2769.752          34.000  
G29  24369196.128   128060998.586        3323.796          32.000    24369204.386    99787832.222        2589.583          34.000  
G25  24357427.811   127999145.933        -999.281          30.000    24357445.089    99739615.610        -778.873          33.000  
> 2025 05 14 07 47 36.0030000  0 10                     
G05  21709931.445   114086464.476        -247.559          37.000    21709934.860    88898565.552        -192.749          38.000  
G06  24742358.258   130021924.053       -1289.258          30.000    24742376.810   101315841.505       -1004.596          33.000  
G11  22949497.611   120600408.080        -414.699          36.000    22949502.163    93974359.790        -323.098          38.000  
G12  23950840.086   125862500.685       -2161.698          32.000    23950851.962    98074702.511       -1684.901          35.000  
G13  21896025.063   115064400.638        2452.355          37.000                                                                  
G19  24981645.437   131279438.442       -3582.584          28.000                                                                  
G20  22394770.384   117685304.847       -1541.389          37.000                                                                  
G15  23604256.139   124041216.614        3555.334          32.000    23604267.827    96655543.645        2770.033          34.000  
G29  24368563.515   128057674.135        3323.979          32.000    24368571.720    99785241.713        2590.507          34.000  
G25  24357617.730   128000145.421        -999.970          31.000    24357635.184    99740394.440        -779.333          33.000  
> 2025 05 14 07 47 37.0030000  0 10                     
G05  21709978.404   114086711.985        -247.156          38.000    21709981.978    88898758.413        -192.529          38.000  
G06  24742603.543   130023213.508       -1289.728          30.000    24742622.268   101316846.279       -1004.773          33.000  
G11  22949576.612   120600823.030        -414.638          36.000    22949581.155    93974683.138        -323.175          38.000  
G12  23951251.600   125864662.543       -2161.629          32.000    23951263.282    98076387.006       -1683.791          35.000  
G13  21895558.419   115061948.215        2452.250          37.000                                                                  
G19  24982327.362   131283021.575       -3582.852          28.000                                                                  
G20  22395063.708   117686846.494       -1540.984          37.000                                                                  
G15  23603579.727   124037661.898        3555.541          33.000    23603591.269    96652773.758        2770.245          34.000  
G29  24367930.805   128054349.794        3325.021          33.000    24367939.022    99782651.373        2590.537          34.000  
G25  24357808.123   128001145.249       -1000.207          30.000    24357825.081    99741173.533        -779.333          33.000  
> 2025 05 14 07 47 38.0030000  0 10                     
G05  21710025.600   114086959.800        -248.297          37.000    21710029.218    88898951.531        -193.756          38.000  
G06  24742848.855   130024503.001       -1290.271          30.000    24742867.685   101317851.078       -1004.913          33.000  
G11  22949655.714   120601238.073        -415.856          36.000    22949660.102    93975006.545        -324.072          38.000  
G12  23951663.185   125866824.589       -2163.023          32.000    23951674.659    98078071.739       -1685.359          35.000  
G13  21895091.921   115059496.186        2451.538          37.000                                                                  
G19  24983009.169   131286604.721       -3582.003          28.000                                                                  
G20  22395357.158   117688388.189       -1542.285          37.000                                                                  
G15  23602903.372   124034107.392        3553.812          33.000    23602914.824    96650003.971        2769.516          34.000  
G29  24367298.294   128051025.693        3323.670          32.000    24367306.454    99780061.127        2590.038          34.000  
G25  24357998.437   128002145.454       -1000.973          30.000    24358015.244    99741952.888        -780.161          33.000  
> 2025 05 14 07 47 39.0030000  0 10                     
G05  21710072.866   114087208.008        -248.712          38.000    21710076.374    88899144.943        -194.025          38.000  
G06  24743094.158   130025792.729       -1289.838          30.000    24743113.018   101318856.013       -1004.431          33.000  
G11  22949734.727   120601653.300        -415.666          36.000    22949739.007    93975330.074        -323.637          38.000  
G12  23952074.602   125868986.861       -2162.741          32.000    23952086.215    98079756.636       -1685.319          35.000  
G13  21894625.377   115057044.714        2450.986          37.000                                                                  
G19  24983691.202   131290188.244       -3583.226          28.000                                                                  
G20  22395650.523   117689930.026       -1541.954          37.000                                                                  
G15  23602227.063   124030553.113        3554.098          33.000    23602238.521    96647234.414        2769.280          34.000  
G29  24366665.918   128047701.808        3323.594          32.000    24366674.032    99777471.099        2589.734          34.000  
G25  24358188.738   128003146.118       -1001.131          30.000    24358205.530    99742732.623        -780.177          33.000  
> 2025 05 14 07 47 40.0030000  0 10                     
G05  21710120.147   114087456.680        -248.596          37.000    21710123.680    88899338.708        -194.238          38.000  
G06  24743339.633   130027082.737       -1289.148          30.000    24743358.515   101319861.227       -1004.724          33.000  
G11  22949813.779   120602068.773        -415.544          36.000    22949817.995    93975653.819        -323.643          38.000  
G12  23952485.993   125871149.491       -2162.635          32.000    23952497.655    98081441.806       -1685.297          35.000  
G13  21894158.964   115054593.777        2451.210          37.000                                                                  
G19  24984373.223   131293772.113       -3583.970          28.000                                                                  
G20  22395943.923   117691472.064       -1541.779          37.000                                                                  
G15  23601550.962   124026999.213        3552.692          33.000    23601562.192    96644465.103        2769.161          34.000  
G29  24366033.414   128044378.226        3323.444          32.000    24366041.529    99774881.327        2589.677          34.000  
G25  24358379.211   128004147.251       -1001.150          30.000    24358396.243    99743512.694        -779.798          33.000  
> 2025 05 14 07 47 41.0030000  0 10                     
G05  21710167.461   114087705.554        -249.164          38.000    21710170.974    88899532.638        -194.202          38.000  
G06  24743585.033   130028372.771       -1290.234          30.000    24743604.013   101320866.448       -1005.634          33.000  
G11  22949892.905   120602484.261        -415.539          36.000    22949897.151    93975977.578        -323.597          38.000  
G12  23952897.467   125873312.214       -2162.320          32.000    23952909.222    98083127.043       -1685.115          35.000  
G13  21893692.605   115052143.245        2450.580          37.000                                                                  
G19  24985055.009   131297355.969       -3583.403          28.000                                                                  
G20  22396237.268   117693014.051       -1541.687          37.000                                                                  
G15  23600874.611   124023445.281        3554.178          33.000    23600885.861    96641695.833        2769.946          34.000  
G29  24365401.032   128041054.732        3323.237          32.000    24365409.151    99772291.581        2590.034          34.000  
G25  24358569.523   128005148.681       -1000.948          30.000    24358586.790    99744293.047        -780.726          33.000  
> 2025 05 14 07 47 42.0030000  0 10                     
G05  21710214.994   114087954.881        -249.207          37.000    21710218.467    88899726.917        -194.196          38.000  
G06  24743830.531   130029663.110       -1291.296          30.000    24743849.552   101321871.876       -1005.225          33.000  
G11  22949971.960   120602900.035        -415.836          36.000    22949976.315    93976301.542        -323.726          38.000  
G12  23953308.987   125875475.337       -2163.278          32.000    23953320.841    98084812.568       -1685.805          35.000  
G13  21893226.403   115049693.285        2449.885          37.000                                                                  
G19  24985736.984   131300940.169       -3584.340          28.000                                                                  
G20  22396530.840   117694556.275       -1542.302          37.000                                                                  
G15  23600198.298   124019891.791        3553.537          33.000    23600209.670    96638926.878        2769.365          34.000  
G29  24364768.611   128037731.562        3323.232          32.000    24364776.712    99769702.099        2589.813          33.000  
G25  24358760.176   128006150.601       -1001.796          30.000    24358777.773    99745073.742        -780.336          33.000  
> 2025 05 14 07 47 43.0030000  0 10                     
G05  21710262.552   114088204.432        -249.500          37.000    21710265.969    88899921.371        -194.592          38.000  
G06  24744076.158   130030953.393       -1291.022          30.000    24744095.076   101322877.293       -1005.341          33.000  
G11  22950051.021   120603315.802        -415.903          36.000    22950055.468    93976625.533        -324.342          38.000  
G12  23953720.506   125877638.456       -2162.472          32.000    23953732.364    98086498.170       -1685.927          35.000  
G13  21892760.314   115047243.647        2449.352          37.000                                                                  
G19  24986419.222   131304524.471       -3584.229          28.000                                                                  
G20  22396824.309   117696098.427       -1542.108          37.000                                                                  
G15  23599521.950   124016338.360        3553.364          33.000    23599533.388    96636157.994        2769.095          34.000  
G29  24364136.121   128034408.463        3322.990          32.000    24364144.376    99767112.672        2589.504          33.000  
G25  24358950.941   128007152.777       -1001.914          30.000    24358968.638    99745854.701        -781.183          33.000  
> 2025 05 14 07 47 44.0030000  0 10                     
G05  21710310.073   114088454.430        -249.310          38.000    21710313.529    88900116.163        -194.330          38.000  
G06  24744321.691   130032243.934       -1289.978          30.000    24744340.662   101323882.921       -1005.225          33.000  
G11  22950130.159   120603731.790        -415.021          36.000    22950134.587    93976949.669        -323.512          38.000  
G12  23954132.080   125879801.969       -2162.425          32.000    23954144.093    98088183.975       -1685.260          35.000  
G13  21892294.243   115044794.581        2449.408          37.000                                                                  
G19  24987101.380   131308109.065       -3584.454          28.000                                                                  
G20  22397117.838   117697640.804       -1542.216          37.000                                                                  
G15  23598845.836   124012785.249        3553.455          33.000    23598857.134    96633389.334        2768.946          34.000  
G29  24363503.629   128031085.648        3323.529          32.000    24363512.057    99764523.471        2589.823          34.000  
G25  24359141.832   128008155.514       -1002.725          30.000    24359159.593    99746636.011        -781.081          34.000  
> 2025 05 14 07 47 45.0030000  0 10                     
G05  21710357.759   114088704.419        -249.902          38.000    21710361.109    88900310.969        -194.812          38.000  
G06  24744567.343   130033534.353       -1290.094          30.000    24744586.215   101324888.434       -1005.829          33.000  
G11  22950209.251   120604147.656        -415.921          36.000    22950213.852    93977273.708        -323.962          38.000  
G12  23954543.804   125881965.400       -2163.154          32.000    23954555.793    98089869.748       -1685.785          35.000  
G13  21891828.181   115042345.668        2448.895          37.000                                                                  
G19  24987783.494   131311693.539       -3584.702          28.000                                                                  
G20  22397411.243   117699182.914       -1541.884          37.000                                                                  
G15  23598169.673   124009231.976        3553.994          32.000    23598180.966    96630620.588        2768.554          34.000  
G29  24362871.433   128027762.727        3322.979          32.000    24362879.720    99761934.225        2589.392          33.000  
G25  24359332.746   128009158.237       -1002.848          30.000    24359350.519    99747417.389        -781.660          33.000  
> 2025 05 14 07 47 46.0030000  0 10                     
G05  21710405.418   114088955.109        -250.873          38.000    21710408.791    88900506.286        -194.897          38.000  
G06  24744812.980   130034825.256       -1291.211          30.000    24744831.834   101325894.271       -1005.225          33.000  
G11  22950288.514   120604563.966        -415.979          36.000    22950293.049    93977598.127        -324.559          38.000  
G12  23954955.813   125884129.394       -2164.163          32.000    23954967.578    98091555.959       -1686.032          35.000  
G13  21891362.301   115039897.604        2447.666          37.000                                                                  
G19  24988465.893   131315278.607       -3585.913          27.000                                                                  
G20  22397704.620   117700725.470       -1542.405          37.000                                                                  
G15  23597493.643   124005679.341        3553.112          33.000    23597504.935    96627852.289        2768.490          34.000  
G29  24362239.138   128024440.370        3322.589          32.000    24362247.425    99759345.347        2589.118          33.000  
G25  24359523.751   128010161.795       -1003.451          30.000    24359541.615    99748199.318        -781.813          34.000  
> 2025 05 14 07 47 47.0030000  0 10                     
G05  21710453.068   114089205.792        -250.677          37.000    21710456.385    88900701.657        -195.483          38.000  
G06  24745058.527   130036115.951       -1290.961          30.000    24745077.509   101326900.003       -1005.255          33.000  
G11  22950367.684   120604980.107        -416.251          35.000    22950372.256    93977922.362        -324.287          38.000  
G12  23955367.586   125886293.213       -2163.111          32.000    23955379.364    98093242.090       -1686.180          36.000  
G13  21890896.388   115037449.643        2447.363          37.000                                                                  
G19  24989147.828   131318863.367       -3584.355          27.000                                                                  
G20  22397998.074   117702267.786       -1542.349          37.000                                                                  
G15  23596817.793   124002126.553        3552.765          32.000    23596828.885    96625083.889        2768.968          34.000  
G29  24361606.622   128021117.813        3323.638          31.000    24361615.157    99756756.362        2589.260          34.000  
G25  24359714.721   128011165.335       -1003.625          30.000    24359732.764    99748981.315        -782.131          34.000  
> 2025 05 14 07 47 48.0030000  0 10                     
G05  21710500.886   114089457.120        -251.532          37.000    21710504.341    88900897.502        -196.399          38.000  
G06  24745304.198   130037407.097       -1291.669          30.000    24745323.238   101327906.088       -1006.085          33.000  
G11  22950446.845   120605396.653        -416.868          35.000    22950451.605    93978246.940        -324.468          38.000  
G12  23955779.461   125888457.595       -2164.320          32.000    23955791.168    98094928.601       -1686.641          36.000  
G13  21890430.651   115035002.415        2446.772          37.000                                                                  
G19  24989830.259   131322448.763       -3584.938          27.000                                                                  
G20  22398291.705   117703810.486       -1542.710          37.000                                                                  
G15  23596141.751   123998574.297        3551.801          33.000    23596152.864    96622315.904        2768.051          34.000  
G29  24360974.428   128017795.856        3321.606          31.000    24360982.966    99754167.822        2588.340          33.000  
G25  24359905.815   128012169.595       -1004.707          30.000    24359923.937    99749763.819        -782.649          34.000  
> 2025 05 14 07 47 49.0030000  0 10                     
G05  21710548.811   114089708.809        -251.733          37.000    21710552.294    88901093.612        -196.191          38.000  
G06  24745549.844   130038698.367       -1290.973          30.000    24745569.088   101328912.314       -1006.549          33.000  
G11  22950526.131   120605813.329        -416.085          35.000    22950530.809    93978571.647        -325.000          38.000  
G12  23956191.579   125890622.204       -2164.394          33.000    23956203.080    98096615.286       -1686.563          36.000  
G13  21889965.065   115032555.698        2446.509          37.000                                                                  
G19  24990512.681   131326034.355       -3584.928          28.000                                                                  
G20  22398585.343   117705353.271       -1542.566          37.000                                                                  
G15  23595465.855   123995022.178        3552.759          33.000    23595476.889    96619548.073        2767.600          34.000  
G29  24360342.303   128014474.049        3321.828          32.000    24360350.897    99751579.419        2588.318          34.000  
G25  24360096.988   128013174.206       -1004.529          30.000    24360115.167    99750546.688        -783.322          33.000  
> 2025 05 14 07 47 50.0030000  0 10                     
G05  21710596.786   114089960.720        -252.026          38.000    21710600.350    88901289.900        -196.283          38.000  
G06  24745795.576   130039989.708       -1290.485          30.000    24745814.841   101329918.540       -1007.269          33.000  
G11  22950605.427   120606230.081        -417.074          36.000    22950610.092    93978896.375        -324.932          38.000  
G12  23956603.653   125892786.908       -2164.225          33.000    23956615.084    98098302.072       -1686.688          35.000  
G13  21889499.468   115030109.314        2446.191          37.000                                                                  
G19  24991195.059   131329620.072       -3585.715          28.000                                                                  
G20  22398878.837   117706896.045       -1542.877          37.000                                                                  
G15  23594789.914   123991470.234        3552.219          33.000    23594800.989    96616780.288        2767.559          34.000  
G29  24359710.254   128011152.321        3321.699          32.000    24359718.680    99748991.069        2587.912          33.000  
G25  24360288.268   128014179.177       -1005.446          30.000    24360306.302    99751329.664        -782.798          33.000  
> 2025 05 14 07 47 51.0030000  0 10                     
G05  21710644.683   114090212.994        -252.625          38.000    21710648.367    88901486.479        -196.869          38.000  
G06  24746041.226   130041281.217       -1292.255          30.000    24746060.580   101330924.882       -1006.836          34.000  
G11  22950684.715   120606646.961        -416.988          36.000    22950689.361    93979221.216        -325.094          38.000  
G12  23957015.539   125894951.847       -2164.972          33.000    23957027.048    98099989.045       -1687.140          36.000  
G13  21889033.883   115027663.420        2445.726          37.000                                                                  
G19  24991877.499   131333205.978       -3586.130          28.000                                                                  
G20  22399172.437   117708438.917       -1543.147          37.000                                                                  
G15  23594114.211   123987918.519        3551.960          33.000    23594125.049    96614012.720        2767.731          34.000  
G29  24359078.220   128007830.857        3321.384          32.000    24359086.616    99746402.859        2588.849          33.000  
G25  24360479.719   128015184.490       -1005.525          31.000    24360497.661    99752113.076        -783.669          33.000  
> 2025 05 14 07 47 52.0030000  0 10                     
G05  21710692.888   114090465.630        -252.417          38.000    21710696.516    88901683.367        -197.076          38.000  
G06  24746287.007   130042572.926       -1292.383          30.000    24746306.439   101331931.365       -1006.055          34.000  
G11  22950764.191   120607064.054        -417.662          36.000    22950768.753    93979546.181        -324.829          38.000  
G12  23957427.672   125897117.073       -2165.783          33.000    23957439.029    98101676.196       -1686.942          35.000  
G13  21888568.529   115025218.033        2445.613          37.000                                                                  
G19  24992559.780   131336792.076       -3585.539          28.000                                                                  
G20  22399466.141   117709981.912       -1542.955          37.000                                                                  
G15  23593438.304   123984367.113        3550.699          32.000    23593449.306    96611245.349        2767.228          34.000  
G29  24358446.339   128004509.602        3321.133          32.000    24358454.577    99743814.928        2587.573          33.000  
G25  24360670.957   128016190.258       -1005.781          30.000    24360689.011    99752896.773        -783.316          33.000  
> 2025 05 14 07 47 53.0030000  0 10                     
G05  21710741.135   114090718.771        -252.795          38.000    21710744.740    88901880.600        -196.930          38.000  
G06  24746532.875   130043864.863       -1291.632          30.000    24746552.219   101332938.100       -1006.512          34.000  
G11  22950843.608   120607481.382        -417.312          36.000    22950848.223    93979871.400        -325.483          38.000  
G12  23957839.730   125899282.670       -2166.210          32.000    23957851.108    98103363.639       -1686.854          35.000  
G13  21888103.313   115022773.286        2444.384          37.000                                                                  
G19  24993242.208   131340378.599       -3586.620          28.000                                                                  
G20  22399759.867   117711525.124       -1542.642          37.000                                                                  
G15  23592762.334   123980815.949        3551.272          32.000    23592773.541    96608478.271        2767.315          34.000  
G29  24357814.345   128001188.675        3321.214          32.000    24357822.619    99741227.200        2587.584          33.000  
G25  24360862.557   128017196.569       -1006.632          30.000    24360880.574    99753680.892        -783.593          33.000  
> 2025 05 14 07 47 54.0030000  0 10                     
G05  21710789.294   114090972.159        -253.436          38.000    21710792.974    88902078.054        -197.449          38.000  
G06  24746778.671   130045156.937       -1292.639          31.000    24746798.145   101333944.868       -1007.001          34.000  
G11  22950923.130   120607898.758        -416.902          36.000    22950927.804    93980196.612        -325.082          38.000  
G12  23958251.858   125901448.300       -2164.874          32.000    23958263.237    98105051.214       -1687.362          35.000  
G13  21887638.092   115020328.850        2444.698          38.000                                                                  
G19  24993924.764   131343965.170       -3586.568          28.000                                                                  
G20  22400053.439   117713068.362       -1543.108          37.000                                                                  
G15  23592086.965   123977264.956        3550.959          33.000    23592097.823    96605711.266        2766.683          34.000  
G29  24357182.497   127997867.878        3321.022          32.000    24357190.690    99738639.565        2587.685          33.000  
G25  24361054.075   128018203.149       -1006.669          30.000    24361072.286    99754465.262        -784.202          33.000  
> 2025 05 14 07 47 55.0030000  0 10                     
G05  21710837.668   114091225.942        -253.882          38.000    21710841.341    88902275.810        -198.169          38.000  
G06  24747024.334   130046449.138       -1292.181          30.000    24747044.100   101334951.795       -1006.982          34.000  
G11  22951002.497   120608316.335        -417.436          36.000    22951007.304    93980522.018        -325.833          38.000  
G12  23958664.002   125903614.292       -2166.012          32.000    23958675.463    98106738.961       -1687.632          35.000  
G13  21887172.919   115017885.001        2443.326          37.000                                                                  
G19  24994607.533   131347551.966       -3586.623          28.000                                                                  
G20  22400347.202   117714611.733       -1543.616          37.000                                                                  
G15  23591411.172   123973714.239        3550.921          33.000    23591422.195    96602944.441        2767.178          34.000  
G29  24356550.406   127994547.336        3320.447          32.000    24356558.733    99736052.112        2587.596          33.000  
G25  24361245.729   128019210.208       -1007.496          30.000    24361264.031    99755249.959        -785.029          33.000  
> 2025 05 14 07 47 56.0030000  0 10                     
G05  21710886.014   114091479.960        -254.022          37.000    21710889.758    88902473.741        -197.955          38.000  
G06  24747270.289   130047741.433       -1292.352          30.000    24747290.080   101335958.762       -1007.153          34.000  
G11  22951081.900   120608733.971        -417.486          36.000    22951086.757    93980847.438        -325.573          38.000  
G12  23959076.317   125905780.404       -2165.887          32.000    23959087.639    98108426.850       -1687.512          35.000  
G13  21886708.076   115015441.497        2443.407          37.000                                                                  
G19  24995289.991   131351138.979       -3587.430          28.000                                                                  
G20  22400640.746   117716155.078       -1543.142          37.000                                                                  
G15  23590735.518   123970163.643        3550.189          33.000    23590746.533    96600177.748        2766.913          34.000  
G29  24355918.561   127991226.913        3320.177          32.000    24355926.953    99733464.757        2587.316          33.000  
G25  24361437.282   128020217.526       -1006.236          30.000    24361455.766    99756034.910        -785.349          33.000  
> 2025 05 14 07 47 57.0030000  0 10                     
G05  21710934.402   114091734.341        -254.681          38.000    21710938.104    88902671.953        -198.035          38.000  
G06  24747516.512   130049033.871       -1292.255          30.000    24747536.017   101336965.830       -1006.555          34.000  
G11  22951161.504   120609151.764        -417.694          36.000    22951166.253    93981172.941        -324.861          38.000  
G12  23959488.730   125907946.704       -2166.094          32.000    23959499.883    98110114.897       -1688.096          35.000  
G13  21886243.164   115012998.483        2442.740          37.000                                                                  
G19  24995972.412   131354726.100       -3587.490          28.000                                                                  
G20  22400934.484   117717698.529       -1543.229          37.000                                                                  
G15  23590060.089   123966613.251        3550.562          33.000    23590070.832    96597411.235        2766.717          34.000  
G29  24355286.803   127987906.656        3319.814          32.000    24355295.092    99730877.574        2587.666          34.000  
G25  24361629.002   128021225.261       -1007.199          30.000    24361647.105    99756820.156        -785.530          33.000  
> 2025 05 14 07 47 58.0030000  0 10                     
G05  21710982.896   114091989.334        -254.688          38.000    21710986.591    88902870.661        -198.560          38.000  
G06  24747762.536   130050326.769       -1292.987          31.000    24747782.033   101337973.276       -1006.738          34.000  
G11  22951241.118   120609569.962        -417.743          36.000    22951245.933    93981498.836        -325.599          38.000  
G12  23959901.207   125910113.573       -2166.745          32.000    23959912.193    98111803.347       -1688.034          35.000  
G13  21885778.416   115010556.216        2442.483          37.000                                                                  
G19  24996655.093   131358313.796       -3587.842          28.000                                                                  
G20  22401228.330   117719242.361       -1542.693          37.000                                                                  
G15  23589384.574   123963063.395        3550.612          33.000    23589395.240    96594645.102        2766.576          34.000  
G29  24354655.056   127984586.912        3320.153          32.000    24354663.336    99728290.798        2586.860          33.000  
G25  24361821.135   128022233.692       -1007.462          30.000    24361839.040    99757605.916        -785.397          33.000  
> 2025 05 14 07 47 59.0030000  0 10                     
G05  21711031.469   114092244.552        -254.590          38.000    21711035.081    88903069.534        -198.694          38.000  
G06  24748008.566   130051619.630       -1291.467          31.000    24748027.968   101338980.698       -1006.531          34.000  
G11  22951320.711   120609988.180        -417.455          36.000    22951325.544    93981824.709        -325.141          38.000  
G12  23960313.489   125912280.509       -2166.145          32.000    23960324.492    98113491.875       -1688.756          35.000  
G13  21885313.744   115008114.306        2442.138          37.000                                                                  
G19  24997337.779   131361901.529       -3587.968          28.000                                                                  
G20  22401522.102   117720786.143       -1542.725          37.000                                                                  
G15  23588708.859   123959513.587        3550.590          32.000    23588719.706    96591879.028        2766.954          34.000  
G29  24354023.377   127981267.268        3320.110          32.000    24354031.570    99725704.019        2587.705          33.000  
G25  24362013.304   128023242.397       -1008.221          30.000    24362031.196    99758391.924        -785.786          33.000  
> 2025 05 14 07 48 00.0030000  0 10                     
G05  21711080.029   114092500.122        -255.859          38.000    21711083.758    88903268.670        -199.310          38.000  
G06  24748254.529   130052912.748       -1293.793          31.000    24748274.056   101339988.287       -1007.880          34.000  
G11  22951400.388   120610406.556        -418.419          36.000    22951405.193    93982150.719        -326.191          38.000  
G12  23960726.003   125914447.694       -2168.191          32.000    23960736.874    98115180.563       -1689.469          35.000  
G13  21884849.192   115005672.849        2441.071          37.000                                                                  
G19  24998020.499   131365489.421       -3588.378          27.000                                                                  
G20  22401815.822   117722330.047       -1544.224          37.000                                                                  
G15  23588033.352   123955964.031        3549.546          33.000    23588044.404    96589113.154        2765.891          34.000  
G29  24353391.982   127977947.786        3319.249          32.000    24353399.953    99723117.440        2586.463          33.000  
G25  24362205.360   128024251.496       -1009.789          30.000    24362223.429    99759178.195        -786.362          33.000  
> 2025 05 14 07 48 01.0030000  0 10                     
G05  21711128.835   114092756.272        -256.470          38.000    21711132.489    88903468.267        -200.116          38.000  
G06  24748500.592   130054206.169       -1293.823          30.000    24748520.310   101340996.174       -1008.447          34.000  
G11  22951480.132   120610825.315        -419.303          36.000    22951484.891    93982477.019        -326.864          38.000  
G12  23961138.408   125916615.293       -2167.770          32.000    23961149.351    98116869.612       -1689.260          35.000  
G13  21884384.756   115003232.102        2440.112          37.000                                                                  
G19  24998703.446   131369077.799       -3588.792          28.000                                                                  
G20  22402109.719   117723874.269       -1544.384          37.000                                                                  
G15  23587358.126   123952414.944        3548.771          32.000    23587368.988    96586347.633        2765.553          34.000  
G29  24352760.526   127974628.780        3318.477          32.000    24352768.357    99720531.230        2585.325          33.000  
G25  24362397.563   128025261.243       -1010.500          30.000    24362415.737    99759965.001        -787.616          34.000  
> 2025 05 14 07 48 02.0030000  0 10                     
G05  21711177.623   114093012.496        -256.458          38.000    21711181.259    88903667.930        -199.915          38.000  
G06  24748746.727   130055499.532       -1293.689          31.000    24748766.447   101342003.969       -1007.953          34.000  
G11  22951559.737   120611243.930        -418.344          36.000    22951564.585    93982803.208        -326.219          38.000  
G12  23961550.882   125918782.925       -2168.051          32.000    23961561.839    98118558.638       -1689.243          35.000  
G13  21883920.432   115000791.589        2440.295          37.000                                                                  
G19  24999386.263   131372666.146       -3588.525          28.000                                                                  
G20  22402403.469   117725418.311       -1544.063          37.000                                                                  
G15  23586682.640   123948865.818        3548.985          33.000    23586693.632    96583582.090        2764.881          34.000  
G29  24352129.006   127971309.728        3318.782          32.000    24352136.783    99717944.948        2585.883          34.000  
G25  24362589.528   128026271.069       -1010.364          30.000    24362608.264    99760751.889        -787.257          34.000  
> 2025 05 14 07 48 03.0030000  0 10                     
G05  21711226.500   114093269.135        -256.958          38.000    21711230.073    88903867.919        -200.659          38.000  
G06  24748993.034   130056793.097       -1293.805          31.000    24749012.572   101343011.911       -1007.904          34.000  
G11  22951639.316   120611662.801        -419.323          36.000    22951644.346    93983129.582        -326.668          38.000  
G12  23961963.494   125920950.778       -2168.342          32.000    23961974.307    98120247.869       -1689.315          35.000  
G13  21883456.110   114998351.597        2439.532          37.000                                                                  
G19  25000069.149   131376254.684       -3588.962          27.000                                                                  
G20  22402697.360   117726962.521       -1545.013          37.000                                                                  
G15  23586007.244   123945316.940        3548.412          33.000    23586018.328    96580816.720        2765.309          34.000  
G29  24351497.487   127967990.937        3318.291          32.000    24351505.305    99715358.879        2585.896          33.000  
G25  24362781.835   128027281.358       -1010.502          30.000    24362800.742    99761539.122        -787.759          34.000  
> 2025 05 14 07 48 04.0030000  0 10                     
G05  21711275.468   114093526.100        -256.964          38.000    21711278.997    88904068.147        -200.659          38.000  
G06  24749239.485   130058086.757       -1292.340          31.000    24749258.697   101344019.982       -1007.819          34.000  
G11  22951719.071   120612081.737        -418.671          36.000    22951724.131    93983456.042        -326.493          38.000  
G12  23962376.061   125923118.870       -2168.624          32.000    23962386.876    98121937.292       -1689.556          35.000  
G13  21882991.865   114995912.078        2439.209          37.000                                                                  
G19  25000752.053   131379843.460       -3589.095          27.000                                                                  
G20  22402991.268   117728506.780       -1544.206          37.000                                                                  
G15  23585331.941   123941768.262        3548.720          33.000    23585343.144    96578051.560        2765.230          34.000  
G29  24350866.071   127964672.334        3318.252          32.000    24350873.786    99712772.938        2585.673          34.000  
G25  24362974.255   128028292.075       -1011.588          30.000    24362993.385    99762326.665        -787.875          34.000  
> 2025 05 14 07 48 05.0030000  0 10                     
G05  21711324.665   114093783.693        -258.331          38.000    21711327.927    88904268.868        -201.123          38.000  
G06  24749485.780   130059380.942       -1294.958          30.000    24749505.008   101345028.393       -1008.661          34.000  
G11  22951798.860   120612501.143        -419.866          36.000    22951803.893    93983782.850        -327.177          38.000  
G12  23962788.454   125925287.447       -2168.813          32.000    23962799.555    98123627.126       -1690.717          36.000  
G13  21882527.769   114993473.315        2438.007          37.000                                                                  
G19  25001435.115   131383432.696       -3589.169          28.000                                                                  
G20  22403285.292   117730051.451       -1545.383          37.000                                                                  
G15  23584656.811   123938220.116        3547.822          33.000    23584667.914    96575286.787        2763.815          34.000  
G29  24350234.821   127961354.230        3317.442          32.000    24350242.407    99710187.428        2584.289          33.000  
G25  24363166.634   128029303.404       -1011.128          30.000    24363186.132    99763114.731        -788.422          34.000  
> 2025 05 14 07 48 06.0030000  0 10                     
G05  21711373.726   114094041.464        -257.745          37.000    21711376.980    88904469.728        -200.757          38.000  
G06  24749732.034   130060675.062       -1294.183          31.000    24749751.298   101346036.814       -1008.960          34.000  
G11  22951878.538   120612920.523        -419.294          36.000    22951883.612    93984109.645        -327.048          38.000  
G12  23963201.080   125927456.143       -2168.928          32.000    23963212.242    98125316.963       -1689.934          36.000  
G13  21882063.806   114991034.857        2438.141          37.000                                                                  
G19  25002117.798   131387021.987       -3588.805          27.000                                                                  
G20  22403579.149   117731596.040       -1545.295          37.000                                                                  
G15  23583981.567   123934672.025        3548.096          33.000    23583992.813    96572522.027        2764.555          34.000  
G29  24349603.373   127958036.161        3317.938          32.000    24349610.990    99707601.907        2585.585          33.000  
G25  24363359.159   128030315.019       -1011.790          30.000    24363378.915    99763902.976        -787.990          34.000  
> 2025 05 14 07 48 07.0030000  0 10                     
G05  21711422.869   114094299.473        -256.848          37.000    21711426.104    88904670.768        -200.421          38.000  
G06  24749978.248   130061969.222       -1293.719          31.000    24749997.537   101347045.243       -1007.983          34.000  
G11  22951958.346   120613339.937        -418.591          36.000    22951963.484    93984436.439        -326.194          38.000  
G12  23963613.661   125929624.865       -2168.013          32.000    23963624.912    98127006.868       -1688.838          36.000  
G13  21881599.834   114988596.742        2438.483          37.000                                                                  
G19  25002800.754   131390611.458       -3589.499          27.000                                                                  
G20  22403872.963   117733140.563       -1543.651          37.000                                                                  
G15  23583306.351   123931124.022        3549.384          33.000    23583317.646    96569757.403        2764.224          34.000  
G29  24348972.072   127954718.188        3318.691          32.000    24348979.638    99705016.493        2585.950          34.000  
G25  24363551.569   128031326.941       -1011.883          30.000    24363571.589    99764691.458        -788.323          34.000  
> 2025 05 14 07 48 08.0030000  0 10                     
G05  21711471.932   114094557.779        -258.630          38.000    21711475.190    88904872.057        -201.410          38.000  
G06  24750224.695   130063263.503       -1294.476          31.000    24750243.980   101348053.744       -1008.557          34.000  
G11  22952038.224   120613759.463        -420.017          36.000    22952043.366    93984763.334        -327.188          38.000  
G12  23964026.395   125931793.791       -2169.271          32.000    23964037.665    98128696.964       -1690.139          35.000  
G13  21881135.936   114986159.069        2437.354          37.000                                                                  
G19  25003483.707   131394200.920       -3589.116          27.000                                                                  
G20  22404166.810   117734685.156       -1544.391          37.000                                                                  
G15  23582631.404   123927576.205        3547.886          33.000    23582642.507    96566992.821        2764.561          34.000  
G29  24348340.829   127951400.347        3317.560          32.000    24348348.217    99702431.167        2584.839          34.000  
G25  24363744.205   128032339.160       -1012.635          30.000    24363764.263    99765480.162        -788.348          34.000  
> 2025 05 14 07 48 09.0030000  0 10                     
G05  21711521.155   114094816.478        -259.027          38.000    21711524.464    88905073.630        -201.880          38.000  
G06  24750471.184   130064557.989       -1295.422          30.000    24750490.303   101349062.418       -1008.972          34.000  
G11  22952118.105   120614179.158        -420.217          36.000    22952123.267    93985090.333        -326.749          38.000  
G12  23964439.227   125933963.011       -2169.853          32.000    23964450.490    98130387.230       -1690.055          35.000  
G13  21880672.149   114983721.897        2437.146          38.000                                                                  
G19  25004166.676   131397790.821       -3590.026          28.000                                                                  
G20  22404460.701   117736229.877       -1544.344          37.000                                                                  
G15  23581956.357   123924028.688        3546.946          33.000    23581967.556    96564228.504        2764.403          34.000  
G29  24347709.755   127948082.766        3317.438          32.000    24347716.949    99699846.020        2585.437          34.000  
G25  24363936.732   128033351.799       -1012.945          30.000    24363956.735    99766269.271        -789.742          33.000  
> 2025 05 14 07 48 10.0030000  0 10                     
G05  21711570.434   114095075.485        -258.551          37.000    21711573.822    88905275.438        -201.324          38.000  
G06  24750717.550   130065852.549       -1294.440          31.000    24750736.674   101350071.192       -1008.624          34.000  
G11  22952198.034   120614598.969        -419.418          36.000    22952203.033    93985417.486        -326.919          38.000  
G12  23964852.177   125936132.387       -2168.606          32.000    23964863.285    98132077.693       -1690.292          35.000  
G13  21880208.579   114981285.214        2437.012          37.000                                                                  
G19  25004849.752   131401380.790       -3590.033          27.000                                                                  
G20  22404754.686   117737774.714       -1544.659          37.000                                                                  
G15  23581281.316   123920481.330        3547.521          33.000    23581292.504    96561464.346        2764.461          34.000  
G29  24347078.582   127944765.411        3317.747          32.000    24347085.756    99697261.077        2585.460          34.000  
G25  24364129.658   128034364.858       -1012.482          30.000    24364149.481    99767058.625        -789.072          33.000  
> 2025 05 14 07 48 11.0030000  0 10                     
G05  21711619.780   114095334.710        -259.790          37.000    21711623.101    88905477.448        -202.411          38.000  
G06  24750964.022   130067147.157       -1295.129          31.000    24750983.067   101351079.958       -1009.210          34.000  
G11  22952277.865   120615018.782        -420.163          36.000    22952282.927    93985744.614        -327.585          38.000  
G12  23965265.248   125938301.889       -2170.090          32.000    23965276.161    98133768.179       -1690.635          35.000  
G13  21879745.044   114978848.854        2435.669          38.000                                                                  
G19  25005533.138   131404970.824       -3590.617          28.000                                                                  
G20  22405048.773   117739319.452       -1544.930          37.000                                                                  
G15  23580606.182   123916934.046        3546.916          32.000    23580617.520    96558700.249        2763.722          34.000  
G29  24346447.335   127941448.090        3316.762          32.000    24346454.452    99694676.152        2584.665          34.000  
G25  24364322.407   128035378.127       -1013.977          30.000    24364341.997    99767848.187        -789.740          33.000  
> 2025 05 14 07 48 12.0030000  0 10                     
G05  21711669.236   114095594.365        -259.918          38.000    21711672.495    88905679.773        -202.258          38.000  
G06  24751210.466   130068442.022       -1295.282          31.000    24751229.355   101352088.943       -1009.106          34.000  
G11  22952357.834   120615438.857        -420.804          36.000    22952362.840    93986071.908        -327.203          38.000  
G12  23965678.189   125940471.673       -2169.541          32.000    23965689.166    98135458.943       -1690.841          35.000  
G13  21879281.473   114976413.037        2435.498          37.000                                                                  
G19  25006216.374   131408561.164       -3590.880          28.000                                                                  
G20  22405342.626   117740864.377       -1544.918          37.000                                                                  
G15  23579931.149   123913387.095        3546.978          32.000    23579942.567    96555936.386        2763.824          34.000  
G29  24345816.118   127938131.059        3316.920          32.000    24345823.229    99692091.498        2584.522          34.000  
G25  24364515.467   128036391.919       -1014.362          30.000    24364534.685    99768638.141        -790.013          33.000  
> 2025 05 14 07 48 13.0030000  0 10                     
G05  21711718.706   114095854.521        -261.121          38.000    21711722.018    88905882.508        -203.381          38.000  
G06  24751457.143   130069737.197       -1296.381          31.000    24751475.895   101353098.133       -1010.010          34.000  
G11  22952437.841   120615859.178        -421.066          36.000    22952442.808    93986399.446        -327.962          38.000  
G12  23966091.036   125942641.840       -2170.495          32.000    23966102.095    98137150.000       -1691.824          35.000  
G13  21878818.060   114973977.839        2434.198          37.000                                                                  
G19  25006899.700   131412151.786       -3591.146          28.000                                                                  
G20  22405636.630   117742409.565       -1545.962          37.000                                                                  
G15  23579256.234   123909840.497        3546.150          32.000    23579267.738    96553172.836        2762.804          34.000  
G29  24345184.996   127934814.374        3316.312          32.000    24345192.124    99689507.076        2583.869          34.000  
G25  24364708.450   128037406.245       -1015.268          31.000    24364727.643    99769428.541        -791.054          33.000  
> 2025 05 14 07 48 14.0030000  0 10                     
G05  21711768.189   114096114.956        -261.212          38.000    21711771.530    88906085.438        -203.741          38.000  
G06  24751703.518   130071032.457       -1296.588          31.000    24751722.364   101354107.425       -1010.254          34.000  
G11  22952517.631   120616279.615        -421.323          36.000    22952522.836    93986727.056        -328.127          38.000  
G12  23966504.015   125944812.192       -2170.842          32.000    23966515.112    98138841.143       -1691.426          35.000  
G13  21878354.680   114971543.066        2434.003          37.000                                                                  
G19  25007583.096   131415742.615       -3591.250          28.000                                                                  
G20  22405930.749   117743954.766       -1545.829          37.000                                                                  
G15  23578581.518   123906294.100        3545.321          33.000    23578592.861    96550409.339        2763.545          34.000  
G29  24344553.846   127931497.847        3316.335          32.000    24344560.929    99686922.763        2584.265          34.000  
G25  24364901.723   128038420.791       -1014.246          30.000    24364920.621    99770219.154        -791.705          33.000  
> 2025 05 14 07 48 15.0030000  0 10                     
G05  21711817.812   114096375.659        -260.693          38.000    21711821.149    88906288.588        -203.479          38.000  
G06  24751949.997   130072327.706       -1294.934          31.000    24751968.852   101355116.714       -1008.936          34.000  
G11  22952597.691   120616700.122        -420.601          36.000    22952602.855    93987054.707        -327.480          38.000  
G12  23966917.095   125946982.662       -2169.843          32.000    23966928.126    98140532.437       -1691.105          35.000  
G13  21877891.442   114969108.703        2434.387          37.000                                                                  
G19  25008266.381   131419333.600       -3591.065          28.000                                                                  
G20  22406224.741   117745499.978       -1545.026          37.000                                                                  
G15  23577906.693   123902747.815        3546.216          33.000    23577918.009    96547646.076        2762.983          34.000  
G29  24343922.602   127928181.454        3317.152          32.000    24343929.810    99684338.590        2584.346          34.000  
G25  24365094.969   128039435.790       -1014.575          30.000    24365113.649    99771010.035        -791.115          33.000  
> 2025 05 14 07 48 16.0030000  0 10                     
G05  21711867.502   114096636.991        -261.298          38.000    21711870.952    88906492.223        -203.705          38.000  
G06  24752196.453   130073623.499       -1295.508          31.000    24752215.493   101356126.393       -1009.576          33.000  
G11  22952677.872   120617121.046        -421.073          36.000    22952682.957    93987382.710        -327.909          38.000  
G12  23967330.188   125949153.661       -2170.588          32.000    23967341.255    98142224.104       -1691.436          35.000  
G13  21877428.457   114966675.085        2433.826          37.000                                                                  
G19  25008949.860   131422925.021       -3591.776          28.000                                                                  
G20  22406518.869   117747045.563       -1545.320          37.000                                                                  
G15  23577231.881   123899202.025        3546.016          33.000    23577243.217    96544883.112        2763.168          34.000  
G29  24343291.659   127924865.565        3316.450          32.000    24343298.854    99681754.767        2583.924          34.000  
G25  24365288.344   128040451.479       -1015.789          30.000    24365306.950    99771801.439        -791.507          33.000  
> 2025 05 14 07 48 17.0030000  0 10                     
G05  21711917.214   114096898.486        -261.603          38.000    21711920.639    88906695.980        -203.784          38.000  
G06  24752443.172   130074919.239       -1295.789          31.000    24752462.090   101357136.012       -1009.076          33.000  
G11  22952757.965   120617541.911        -420.563          36.000    22952763.003    93987710.649        -327.652          38.000  
G12  23967743.306   125951324.703       -2170.521          32.000    23967754.467    98143915.813       -1691.666          35.000  
G13  21876965.521   114964241.770        2433.252          37.000                                                                  
G19  25009633.210   131426516.518       -3591.848          28.000                                                                  
G20  22406812.992   117748591.056       -1545.135          37.000                                                                  
G15  23576557.211   123895656.286        3545.837          33.000    23576568.444    96542120.204        2762.988          34.000  
G29  24342660.814   127921549.700        3316.338          32.000    24342667.997    99679170.980        2584.021          34.000  
G25  24365481.620   128041467.307       -1015.705          30.000    24365500.278    99772592.985        -790.887          34.000  
> 2025 05 14 07 48 18.0030000  0 10                     
G05  21711967.002   114097160.418        -262.408          38.000    21711970.567    88906900.070        -204.382          38.000  
G06  24752689.704   130076215.227       -1296.729          30.000    24752708.759   101358145.882       -1010.193          33.000  
G11  22952838.153   120617963.038        -421.445          36.000    22952843.093    93988038.794        -328.217          38.000  
G12  23968156.454   125953496.016       -2171.087          32.000    23968167.591    98145607.765       -1692.173          35.000  
G13  21876502.485   114961809.009        2432.385          37.000                                                                  
G19  25010316.717   131430108.212       -3592.361          27.000                                                                  
G20  22407107.288   117750136.739       -1546.006          37.000                                                                  
G15  23575882.620   123892110.881        3544.918          33.000    23575893.831    96539357.542        2762.297          35.000  
G29  24342029.603   127918234.171        3314.484          32.000    24342037.092    99676587.434        2583.012          34.000  
G25  24365675.145   128042483.690       -1017.365          30.000    24365693.758    99773384.952        -792.487          34.000  
> 2025 05 14 07 48 19.0030000  0 10                     
G05  21712016.988   114097422.498        -262.408          38.000    21712020.476    88907104.301        -204.559          38.000  
G06  24752936.142   130077511.131       -1295.721          30.000    24752955.350   101359155.678       -1009.625          33.000  
G11  22952918.260   120618384.102        -420.936          36.000    22952923.257    93988366.915        -328.323          38.000  
G12  23968569.805   125955667.420       -2171.337          33.000    23968580.832    98147299.734       -1692.143          35.000  
G13  21876039.598   114959376.553        2432.111          37.000                                                                  
G19  25011000.065   131433699.995       -3591.926          27.000                                                                  
G20  22407401.481   117751682.304       -1545.273          37.000                                                                  
G15  23575207.962   123888565.474        3545.478          32.000    23575219.156    96536594.879        2763.073          34.000  
G29  24341398.651   127914918.560        3315.904          32.000    24341406.189    99674003.888        2583.327          34.000  
G25  24365868.690   128043500.201       -1016.485          30.000    24365887.425    99774177.078        -792.864          33.000  
> 2025 05 14 07 48 20.0030000  0 10                     
G05  21712067.001   114097685.023        -263.263          38.000    21712070.370    88907308.871        -205.042          38.000  
G06  24753182.656   130078807.293       -1296.722          30.000    24753201.923   101360165.691       -1010.376          33.000  
G11  22952998.368   120618805.398        -421.217          36.000    22953003.540    93988695.191        -328.400          38.000  
G12  23968983.096   125957839.109       -2172.332          33.000    23968994.132    98148991.947       -1692.384          35.000  
G13  21875576.841   114956944.644        2431.311          37.000                                                                  
G19  25011683.590   131437292.031       -3591.343          27.000                                                                  
G20  22407695.692   117753228.066       -1545.795          37.000                                                                  
G15  23574533.304   123885020.376        3544.415          32.000    23574544.467    96533832.501        2761.724          34.000  
G29  24340767.741   127911603.342        3314.130          32.000    24340775.348    99671420.547        2583.142          34.000  
G25  24366062.046   128044517.246       -1017.673          30.000    24366080.795    99774969.500        -792.556          34.000  
> 2025 05 14 07 48 21.0030000  0 10                     
G05  21712117.149   114097947.916        -262.842          38.000    21712120.322    88907513.723        -204.871          38.000  
G06  24753429.462   130080103.620       -1295.508          30.000    24753448.704   101361175.810       -1010.413          34.000  
G11  22953078.520   120619226.891        -421.181          36.000    22953083.679    93989023.595        -328.199          38.000  
G12  23969396.648   125960011.022       -2171.404          32.000    23969407.450    98150684.379       -1692.952          35.000  
G13  21875114.131   114954513.233        2431.268          37.000                                                                  
G19  25012367.224   131440884.267       -3591.682          27.000                                                                  
G20  22407989.784   117754773.942       -1545.481          37.000                                                                  
G15  23573858.662   123881475.523        3544.865          32.000    23573869.972    96531070.304        2761.754          34.000  
G29  24340136.718   127908288.270        3315.454          32.000    24340144.547    99668837.425        2583.321          34.000  
G25  24366255.570   128045534.654       -1017.431          30.000    24366274.571    99775762.317        -793.055          34.000  
> 2025 05 14 07 48 22.0030000  0 10                     
G05  21712167.252   114098211.151        -263.629          38.000    21712170.342    88907718.848        -205.670          38.000  
G06  24753676.275   130081400.195       -1297.424          30.000    24753695.481   101362186.073       -1010.461          33.000  
G11  22953158.784   120619648.523        -422.101          36.000    22953163.912    93989352.159        -329.204          38.000  
G12  23969809.932   125962183.160       -2172.203          32.000    23969820.871    98152376.940       -1693.082          35.000  
G13  21874651.428   114952082.325        2430.377          37.000                                                                  
G19  25013050.754   131444476.807       -3592.945          27.000                                                                  
G20  22408283.982   117756319.906       -1545.945          37.000                                                                  
G15  23573183.958   123877930.917        3544.020          32.000    23573195.476    96528308.245        2761.867          34.000  
G29  24339506.042   127904973.443        3314.390          32.000    24339513.755    99666254.455        2582.665          34.000  
G25  24366449.200   128046552.489       -1018.015          30.000    24366468.529    99776555.423        -793.897          34.000  
> 2025 05 14 07 48 23.0030000  0 10                     
G05  21712217.516   114098474.927        -263.940          38.000    21712220.573    88907924.380        -205.389          38.000  
G06  24753923.084   130082697.017       -1297.296          31.000    24753942.275   101363196.586       -1010.199          34.000  
G11  22953239.087   120620070.478        -422.046          36.000    22953244.114    93989680.950        -329.228          38.000  
G12  23970223.456   125964355.706       -2172.268          33.000    23970234.359    98154069.834       -1693.217          35.000  
G13  21874188.910   114949652.053        2430.115          37.000                                                                  
G19  25013734.476   131448069.671       -3592.812          27.000                                                                  
G20  22408578.254   117757866.168       -1546.455          37.000                                                                  
G15  23572509.569   123874386.679        3543.985          32.000    23572520.990    96525546.533        2761.962          34.000  
G29  24338875.349   127901659.061        3313.952          32.000    24338883.039    99663671.793        2582.919          34.000  
G25  24366642.777   128047570.915       -1018.848          30.000    24366662.762    99777348.952        -793.553          34.000  
> 2025 05 14 07 48 24.0030000  0 10                     
G05  21712267.717   114098738.994        -264.825          38.000    21712270.737    88908130.132        -205.920          38.000  
G06  24754169.758   130083993.928       -1297.833          31.000    24754189.129   101364207.180       -1010.999          34.000  
G11  22953319.509   120620492.496        -422.627          36.000    22953324.429    93990009.795        -329.302          38.000  
G12  23970636.989   125966528.461       -2173.583          32.000    23970647.884    98155762.832       -1693.161          35.000  
G13  21873726.563   114947222.213        2429.242          37.000                                                                  
G19  25014418.241   131451662.684       -3593.289          27.000                                                                  
G20  22408872.478   117759412.392       -1546.108          37.000                                                                  
G15  23571835.126   123870842.633        3543.664          33.000    23571846.519    96522784.937        2760.834          34.000  
G29  24338244.876   127898344.749        3314.086          32.000    24338252.371    99661089.239        2582.235          34.000  
G25  24366836.726   128048589.628       -1020.008          30.000    24366856.890    99778142.756        -794.028          34.000  
> 2025 05 14 07 48 25.0030000  0 10                     
G05  21712318.089   114099003.620        -265.070          38.000    21712321.078    88908336.368        -206.836          38.000  
G06  24754416.754   130085291.268       -1297.791          30.000    24754436.102   101365218.072       -1010.773          34.000  
G11  22953400.005   120620914.928        -422.628          36.000    22953404.849    93990338.954        -329.558          38.000  
G12  23971050.478   125968701.653       -2174.092          32.000    23971061.512    98157456.223       -1693.530          35.000  
G13  21873264.351   114944793.085        2428.461          37.000                                                                  
G19  25015102.024   131455256.154       -3593.849          27.000                                                                  
G20  22409166.948   117760959.030       -1546.990          37.000                                                                  
G15  23571160.752   123867299.073        3542.807          33.000    23571172.015    96520023.720        2760.967          34.000  
G29  24337614.422   127895030.971        3312.810          32.000    24337621.783    99658507.032        2582.382          34.000  
G25  24367030.855   128049609.011       -1019.759          30.000    24367051.087    99778937.121        -795.135          34.000  
> 2025 05 14 07 48 26.0030000  0 10                     
G05  21712368.396   114099268.544        -265.094          38.000    21712371.446    88908542.786        -206.744          38.000  
G06  24754663.529   130086588.672       -1297.223          30.000    24754683.002   101366229.062       -1011.206          34.000  
G11  22953480.604   120621337.427        -422.721          36.000    22953485.299    93990668.159        -329.201          38.000  
G12  23971464.241   125970874.986       -2174.009          32.000    23971475.057    98159149.774       -1694.545          35.000  
G13  21872802.274   114942364.371        2428.094          38.000                                                                  
G19  25015785.866   131458849.769       -3593.943          27.000                                                                  
G20  22409461.160   117762505.647       -1546.946          37.000                                                                  
G15  23570486.409   123863755.615        3543.356          33.000    23570497.710    96517262.626        2759.962          33.000  
G29  24336983.997   127891717.282        3313.254          32.000    24336991.147    99655924.982        2581.611          34.000  
G25  24367224.880   128050628.715       -1019.929          30.000    24367245.225    99779731.644        -795.068          34.000  
> 2025 05 14 07 48 27.0030000  0 10                     
G05  21712418.828   114099533.800        -265.283          38.000    21712421.999    88908749.491        -207.050          38.000  
G06  24754910.309   130087886.224       -1296.521          31.000    24754929.803   101367240.119       -1010.883          34.000  
G11  22953561.133   120621760.060        -422.785          36.000    22953565.722    93990997.469        -329.057          38.000  
G12  23971877.876   125973048.499       -2173.316          32.000    23971888.667    98160843.401       -1693.785          35.000  
G13  21872340.169   114939936.091        2428.320          37.000                                                                  
G19  25016469.744   131462443.524       -3593.737          27.000                                                                  
G20  22409755.422   117764052.335       -1546.517          37.000                                                                  
G15  23569812.196   123860212.417        3542.999          33.000    23569823.461    96514501.641        2760.931          33.000  
G29  24336353.452   127888403.750        3313.844          32.000    24336360.591    99653343.014        2582.164          34.000  
G25  24367418.966   128051648.817       -1020.904          30.000    24367439.339    99780526.511        -795.381          34.000  
> 2025 05 14 07 48 28.0030000  0 10                     
G05  21712469.300   114099799.362        -264.819          38.000    21712472.512    88908956.408        -206.311          38.000  
G06  24755157.233   130089183.941       -1297.003          31.000    24755176.906   101368251.326       -1010.870          34.000  
G11  22953641.646   120622182.828        -422.510          36.000    22953646.112    93991326.906        -329.348          38.000  
G12  23972291.488   125975222.261       -2173.662          32.000    23972302.277    98162537.227       -1693.487          35.000  
G13  21871878.159   114937508.282        2428.265          37.000                                                                  
G19  25017153.485   131466037.498       -3593.816          27.000                                                                  
G20  22410049.787   117765599.115       -1546.191          37.000                                                                  
G15  23569138.129   123856669.404        3543.584          33.000    23569149.215    96511740.850        2761.346          34.000  
G29  24335723.002   127885090.472        3313.406          33.000    24335730.102    99650761.254        2582.037          34.000  
G25  24367613.362   128052669.262       -1020.177          30.000    24367633.644    99781321.647        -795.108          34.000  
> 2025 05 14 07 48 29.0030000  0 10                     
G05  21712519.773   114100065.343        -265.765          38.000    21712523.067    88909163.658        -207.153          38.000  
G06  24755404.338   130090481.802       -1296.503          31.000    24755423.789   101369262.638       -1011.243          34.000  
G11  22953722.098   120622605.753        -422.647          36.000    22953726.540    93991656.475        -329.663          38.000  
G12  23972705.428   125977396.265       -2173.781          33.000    23972716.075    98164231.265       -1693.969          36.000  
G13  21871416.223   114935080.985        2427.667          37.000                                                                  
G19  25017837.399   131469631.715       -3594.154          27.000                                                                  
G20  22410344.106   117767146.025       -1546.865          37.000                                                                  
G15  23568464.121   123853126.653        3542.863          33.000    23568475.006    96508980.288        2760.231          34.000  
G29  24335092.606   127881777.423        3313.395          33.000    24335099.621    99648179.705        2581.126          34.000  
G25  24367807.403   128053690.124       -1020.797          30.000    24367827.899    99782117.173        -796.409          34.000  
> 2025 05 14 07 48 30.0030000  0 10                     
G05  21712570.475   114100331.698        -265.845          38.000    21712573.899    88909371.222        -207.397          38.000  
G06  24755651.326   130091780.019       -1298.676          31.000    24755670.756   101370274.121       -1010.693          34.000  
G11  22953802.597   120623028.912        -422.517          36.000    22953807.098    93991986.186        -329.400          38.000  
G12  23973119.312   125979570.494       -2172.910          33.000    23973129.806    98165925.512       -1694.090          36.000  
G13  21870954.348   114932654.254        2427.277          37.000                                                                  
G19  25018521.479   131473226.213       -3594.919          27.000                                                                  
G20  22410638.530   117768693.073       -1546.810          37.000                                                                  
G15  23567790.126   123849584.205        3542.485          33.000    23567800.925    96506219.917        2760.833          34.000  
G29  24334462.345   127878464.654        3313.164          33.000    24334469.071    99645598.279        2582.191          34.000  
G25  24368001.708   128054711.505       -1021.435          30.000    24368022.114    99782913.007        -796.003          33.000  
> 2025 05 14 07 48 31.0030000  0 10                     
G05  21712621.241   114100598.482        -266.168          38.000    21712624.681    88909579.104        -207.477          38.000  
G06  24755898.268   130093078.301       -1297.241          30.000    24755917.786   101371285.825       -1011.096          34.000  
G11  22953883.084   120623452.298        -423.097          36.000    22953887.713    93992316.068        -329.197          38.000  
G12  23973533.020   125981745.146       -2174.255          33.000    23973543.511    98167619.974       -1693.746          35.000  
G13  21870492.700   114930228.053        2426.514          37.000                                                                  
G19  25019205.474   131476820.954       -3595.248          28.000                                                                  
G20  22410932.983   117770240.285       -1546.748          37.000                                                                  
G15  23567116.063   123846042.040        3542.499          32.000    23567126.848    96503459.817        2760.366          34.000  
G29  24333832.203   127875152.144        3313.091          33.000    24333838.675    99643017.125        2581.857          34.000  
G25  24368196.164   128055733.279       -1021.318          31.000    24368216.440    99783709.218        -796.001          33.000  
> 2025 05 14 07 48 32.0030000  0 10                     
G05  21712672.030   114100865.510        -267.688          38.000    21712675.523    88909787.181        -208.453          38.000  
G06  24756145.349   130094376.697       -1298.431          30.000    24756164.852   101372297.528       -1011.969          34.000  
G11  22953963.683   120623875.717        -423.580          36.000    22953968.272    93992646.014        -330.045          38.000  
G12  23973946.902   125983919.876       -2175.444          32.000    23973957.350    98169314.560       -1694.635          36.000  
G13  21870031.160   114927802.239        2425.378          37.000                                                                  
G19  25019889.785   131480415.751       -3595.077          28.000                                                                  
G20  22411227.404   117771787.478       -1547.251          36.000                                                                  
G15  23566441.959   123842499.960        3541.824          32.000    23566452.900    96500699.757        2760.196          34.000  
G29  24333202.159   127871839.775        3312.542          33.000    24333208.353    99640436.086        2580.465          34.000  
G25  24368390.538   128056755.384       -1022.729          30.000    24368410.669    99784505.619        -796.609          33.000  
> 2025 05 14 07 48 33.0030000  0 10                     
G05  21712722.916   114101132.984        -267.572          38.000    21712726.377    88909995.598        -208.441          38.000  
G06  24756392.564   130095675.336       -1298.138          30.000    24756411.994   101373309.472       -1011.835          34.000  
G11  22954044.375   120624299.367        -423.110          36.000    22954048.940    93992976.152        -330.201          38.000  
G12  23974360.862   125986094.870       -2174.528          32.000    23974371.290    98171009.405       -1695.034          36.000  
G13  21869569.583   114925376.999        2425.232          37.000                                                                  
G19  25020574.016   131484010.905       -3594.324          28.000                                                                  
G20  22411521.962   117773334.901       -1547.156          36.000                                                                  
G15  23565767.945   123838958.269        3542.507          33.000    23565779.019    96497940.003        2759.846          34.000  
G29  24332571.948   127868527.723        3312.147          33.000    24332578.062    99637855.253        2580.765          34.000  
G25  24368584.947   128057777.991       -1022.876          30.000    24368605.130    99785302.456        -796.410          33.000  
> 2025 05 14 07 48 34.0030000  0 10                     
G05  21712773.878   114101400.776        -268.268          38.000    21712777.257    88910204.270        -208.777          38.000  
G06  24756639.816   130096974.179       -1299.139          31.000    24756659.116   101374321.492       -1011.749          34.000  
G11  22954124.970   120624723.188        -423.998          36.000    22954129.564    93993306.383        -330.508          38.000  
G12  23974774.698   125988270.161       -2175.373          32.000    23974785.257    98172704.380       -1695.071          36.000  
G13  21869108.116   114922952.238        2424.493          37.000                                                                  
G19  25021258.263   131487606.309       -3596.074          27.000                                                                  
G20  22411816.393   117774882.387       -1547.521          36.000                                                                  
G15  23565094.177   123835416.764        3541.413          32.000    23565105.066    96495180.388        2759.556          34.000  
G29  24331941.929   127865215.839        3312.474          33.000    24331947.832    99635274.565        2580.688          34.000  
G25  24368779.600   128058801.002       -1023.659          30.000    24368799.439    99786099.612        -797.529          33.000  
> 2025 05 14 07 48 35.0030000  0 10                     
G05  21712824.875   114101668.856        -268.372          38.000    21712828.330    88910413.179        -209.381          38.000  
G06  24756886.903   130098273.026       -1298.816          31.000    24756906.259   101375333.642       -1012.701          34.000  
G11  22954205.599   120625147.085        -424.355          36.000    22954210.297    93993636.693        -330.709          38.000  
G12  23975188.628   125990445.559       -2175.638          32.000    23975199.206    98174399.500       -1695.650          36.000  
G13  21868646.776   114920527.873        2424.219          37.000                                                                  
G19  25021942.366   131491201.732       -3595.381          27.000                                                                  
G20  22412110.857   117776429.901       -1547.826          36.000                                                                  
G15  23564420.415   123831875.447        3540.992          32.000    23564431.210    96492420.931        2759.161          34.000  
G29  24331311.890   127861904.147        3311.363          33.000    24331317.640    99632694.032        2579.685          34.000  
G25  24368974.293   128059824.297       -1023.970          30.000    24368994.159    99786896.976        -797.460          33.000  
> 2025 05 14 07 48 36.0030000  0 10                     
G05  21712875.925   114101937.228        -268.329          38.000    21712879.426    88910622.279        -209.027          38.000  
G06  24757133.966   130099572.028       -1298.572          31.000    24757153.576   101376345.823       -1012.268          34.000  
G11  22954286.242   120625571.059        -424.190          36.000    22954290.951    93993967.061        -330.278          38.000  
G12  23975602.662   125992621.173       -2175.986          32.000    23975613.176    98176094.749       -1695.155          35.000  
G13  21868185.566   114918103.964        2423.914          37.000                                                                  
G19  25022626.631   131494797.401       -3595.645          28.000                                                                  
G20  22412405.384   117777977.470       -1548.075          37.000                                                                  
G15  23563746.558   123828334.318        3540.741          32.000    23563757.324    96489661.585        2759.799          34.000  
G29  24330681.644   127858592.592        3311.501          32.000    24330687.427    99630113.601        2580.456          34.000  
G25  24369169.042   128060847.957       -1023.175          30.000    24369188.819    99787694.657        -798.639          33.000  
> 2025 05 14 07 48 37.0030000  0 10                     
G05  21712926.972   114102205.956        -268.884          38.000    21712930.525    88910831.694        -209.698          38.000  
G06  24757381.221   130100871.247       -1300.287          30.000    24757400.788   101377358.159       -1012.402          33.000  
G11  22954366.962   120625995.210        -424.244          36.000    22954371.662    93994297.560        -330.544          38.000  
G12  23976016.620   125994796.938       -2175.767          32.000    23976027.239    98177790.190       -1695.833          35.000  
G13  21867724.329   114915680.543        2423.065          38.000                                                                  
G19  25023310.698   131498393.230       -3595.863          27.000                                                                  
G20  22412699.841   117779525.093       -1547.679          37.000                                                                  
G15  23563072.656   123824793.359        3541.276          32.000    23563083.493    96486902.418        2759.333          34.000  
G29  24330051.371   127855281.247        3310.908          32.000    24330057.283    99627533.313        2580.527          34.000  
G25  24369363.978   128061872.088       -1025.096          30.000    24369383.865    99788492.595        -797.860          33.000  
> 2025 05 14 07 48 38.0030000  0 10                     
G05  21712978.211   114102474.940        -268.237          38.000    21712981.725    88911041.313        -209.399          38.000  
G06  24757628.553   130102170.463       -1298.676          30.000    24757648.059   101378370.551       -1011.768          33.000  
G11  22954447.767   120626419.429        -423.341          36.000    22954452.451    93994628.128        -330.241          38.000  
G12  23976430.732   125996972.933       -2175.601          32.000    23976441.427    98179485.742       -1695.003          35.000  
G13  21867263.199   114913257.518        2423.645          37.000                                                                  
G19  25023995.199   131501989.328       -3596.846          27.000                                                                  
G20  22412994.250   117781072.779       -1547.012          37.000                                                                  
G15  23562398.876   123821252.606        3541.189          32.000    23562409.742    96484143.419        2759.408          34.000  
G29  24329421.437   127851970.065        3311.363          32.000    24329427.167    99624953.162        2580.781          34.000  
G25  24369558.878   128062896.446       -1023.919          30.000    24369578.867    99789290.812        -797.891          33.000  
> 2025 05 14 07 48 39.0030000  0 10                     
G05  21713029.440   114102744.097        -269.000          38.000    21713032.961    88911251.029        -209.711          38.000  
G06  24757875.901   130103469.697       -1299.908          31.000    24757895.291   101379382.932       -1012.860          33.000  
G11  22954528.464   120626843.623        -424.335          36.000    22954533.090    93994958.650        -330.716          38.000  
G12  23976844.824   125999148.932       -2176.476          32.000    23976855.553    98181181.339       -1695.762          35.000  
G13  21866802.140   114910834.786        2422.876          37.000                                                                  
G19  25024679.460   131505585.211       -3595.527          27.000                                                                  
G20  22413288.655   117782620.361       -1547.695          37.000                                                                  
G15  23561725.102   123817711.849        3540.914          33.000    23561735.956    96481384.418        2758.954          34.000  
G29  24328791.391   127848658.856        3311.295          32.000    24328796.985    99622373.054        2580.045          34.000  
G25  24369752.385   128063912.5453      -1025.469          30.000    24369773.939    99790089.162        -798.126          34.000  
> 2025 05 14 07 48 40.0030000  0 10                     
G05  21713080.713   114103013.775        -269.647          38.000    21713084.245    88911461.159        -210.230          38.000  
G06  24758123.119   130104769.233       -1299.969          30.000    24758142.568   101380395.538       -1012.915          33.000  
G11  22954609.258   120627268.138        -425.135          36.000    22954613.888    93995289.416        -330.799          38.000  
G12  23977259.014   126001325.335       -2176.991          32.000    23977269.718    98182877.194       -1695.550          35.000  
G13  21866341.275   114908412.712        2422.211          38.000                                                                  
G19  25025363.861   131509181.613       -3596.591          28.000                                                                  
G20  22413583.163   117784168.180       -1547.877          37.000                                                                  
G15  23561051.405   123814171.573        3539.615          33.000    23561062.285    96478625.710        2758.782          34.000  
G29  24328161.602   127845348.098        3310.540          32.000    24328166.891    99619793.244        2579.521          34.000  
G25  24369950.939   128064937.6792      -1026.150          30.000    24369969.141    99790888.002        -799.066          34.000  
> 2025 05 14 07 48 41.0030000  0 10                     
G05  21713131.978   114103283.801        -270.502          38.000    21713135.595    88911671.555        -210.400          38.000  
G06  24758370.668   130106068.917       -1300.226          31.000    24758389.942   101381408.249       -1012.592          33.000  
G11  22954690.076   120627692.771        -424.738          36.000    22954694.711    93995620.326        -331.161          38.000  
G12  23977673.189   126003501.940       -2176.675          32.000    23977683.950    98184573.289       -1696.416          35.000  
G13  21865880.394   114905991.141        2421.155          38.000                                                                  
G19  25026048.248   131512778.164       -3596.188          27.000                                                                  
G20  22413877.791   117785716.122       -1548.164          37.000                                                                  
G15  23560377.985   123810631.439        3540.038          32.000    23560388.615    96475867.227        2757.812          34.000  
G29  24327531.710   127842037.502        3310.862          32.000    24327536.896    99617213.557        2580.008          34.000  
G25  24370145.241   128065963.2272      -1025.604          30.000    24370164.331    99791687.136        -799.093          34.000  
> 2025 05 14 07 48 42.0030000  0 10                     
G05  21713183.434   114103554.230        -270.996          38.000    21713187.031    88911882.294        -210.919          38.000  
G06  24758618.237   130107368.819       -1300.476          30.000    24758637.299   101382421.197       -1012.915          33.000  
G11  22954771.025   120628117.643        -425.124          36.000    22954775.528    93995951.385        -331.418          38.000  
G12  23978087.545   126005678.853       -2176.934          32.000    23978098.269    98186269.582       -1696.912          35.000  
G13  21865419.727   114903570.099        2420.618          38.000                                                                  
G19  25026732.761   131516375.057       -3596.645          27.000                                                                  
G20  22414172.432   117787264.223       -1548.572          37.000                                                                  
G15  23559704.376   123807091.613        3540.240          32.000    23559715.024    96473108.923        2757.687          34.000  
G29  24326901.688   127838727.211        3310.539          32.000    24326906.940    99614634.138        2579.349          34.000  
G25  24370338.529   128066989.2532      -1026.104          30.000    24370359.661    99792486.637        -800.018          34.000  
> 2025 05 14 07 48 43.0030000  0 10                     
G05  21713234.997   114103824.941        -270.862          38.000    21713238.518    88912093.220        -210.419          38.000  
G06  24758865.552   130108668.870       -1299.622          30.000    24758884.590   101383434.164       -1012.518          33.000  
G11  22954851.967   120628542.616        -425.092          36.000    22954856.343    93996282.520        -331.089          38.000  
G12  23978501.934   126007855.932       -2177.248          32.000    23978512.606    98187965.997       -1696.156          35.000  
G13  21864959.102   114901149.463        2420.746          38.000                                                                  
G19  25027417.180   131519972.019       -3596.909          27.000                                                                  
G20  22414466.957   117788812.337       -1548.098          37.000                                                                  
G15  23559030.818   123803552.020        3539.466          32.000    23559041.408    96470350.784        2757.993          34.000  
G29  24326271.725   127835417.084        3310.574          32.000    24326277.083    99612054.820        2579.512          34.000  
G25  24370534.468   128068015.0891      -1026.106          30.000    24370554.951    99793286.354        -799.405          34.000  
> 2025 05 14 07 48 44.0030000  0 10                     
G05  21713286.502   114104095.986        -271.661          38.000    21713290.090    88912304.423        -211.499          38.000  
G06  24759113.095   130109969.040       -1300.409          30.000    24759132.021   101384447.271       -1012.976          33.000  
G11  22954932.789   120628967.661        -425.094          36.000    22954937.203    93996613.738        -331.460          38.000  
G12  23978916.297   126010033.196       -2177.632          32.000    23978926.889    98189662.540       -1696.389          35.000  
G13  21864498.585   114898729.283        2419.916          38.000                                                                  
G19  25028101.877   131523569.203       -3597.492          27.000                                                                  
G20  22414761.552   117790360.533       -1548.467          37.000                                                                  
G15  23558357.256   123800012.556        3539.771          32.000    23558367.768    96467592.767        2757.698          34.000  
G29  24325641.829   127832107.112        3310.048          32.000    24325647.247    99609475.628        2579.052          35.000  
G25  24370729.669   128069041.776       -1026.853          30.000    24370750.399    99794086.379        -799.966          34.000  
> 2025 05 14 07 48 45.0030000  0 10                     
G05  21713338.401   114104367.189        -271.118          38.000    21713341.735    88912515.769        -211.353          38.000  
G06  24759360.489   130111269.175       -1299.835          31.000    24759379.374   101385460.406       -1013.458          33.000  
G11  22955013.778   120629392.774        -425.505          36.000    22955018.169    93996944.962        -331.360          38.000  
G12  23979330.510   126012210.535       -2177.219          32.000    23979341.245    98191359.201       -1696.939          35.000  
G13  21864038.246   114896309.452        2419.653          37.000                                                                  
G19  25028786.497   131527166.453       -3597.603          27.000                                                                  
G20  22415056.251   117791908.670       -1548.623          37.000                                                                  
G15  23557684.017   123796473.226        3538.833          32.000    23557694.197    96464834.831        2757.602          34.000  
G29  24325012.004   127828797.274        3309.343          32.000    24325017.374    99606896.521        2579.423          35.000  
G25  24370925.495   128070068.763       -1027.026          30.000    24370945.999    99794886.614        -800.507          34.000  
> 2025 05 14 07 48 46.0030000  0 10                     
G05  21713390.112   114104638.932        -271.954          38.000    21713393.404    88912727.518        -211.688          38.000  
G06  24759607.938   130112569.662       -1300.494          30.000    24759626.949   101386473.734       -1013.043          33.000  
G11  22955094.656   120629818.125        -424.889          36.000    22955099.138    93997276.430        -331.229          38.000  
G12  23979745.027   126014388.207       -2176.777          32.000    23979755.758    98193056.096       -1696.755          35.000  
G13  21863577.885   114893890.257        2419.312          38.000                                                                  
G19  25029470.990   131530764.056       -3597.996          27.000                                                                  
G20  22415350.975   117793457.050       -1548.422          37.000                                                                  
G15  23557010.502   123792934.253        3539.087          32.000    23557020.752    96462077.184        2757.845          34.000  
G29  24324382.053   127825487.742        3309.812          32.000    24324387.588    99604317.702        2578.605          34.000  
G25  24371121.175   128071096.267       -1026.760          30.000    24371141.729    99795687.255        -800.337          34.000  
> 2025 05 14 07 48 47.0030000  0 10                     
G05  21713441.948   114104911.001        -272.015          38.000    21713445.201    88912939.534        -212.238          38.000  
G06  24759855.759   130113870.347       -1300.214          30.000    24759874.424   101387487.215       -1013.458          33.000  
G11  22955175.666   120630243.690        -425.432          36.000    22955180.155    93997608.036        -331.688          38.000  
G12  23980159.470   126016566.214       -2177.634          32.000    23980170.231    98194753.189       -1696.990          35.000  
G13  21863117.493   114891471.562        2418.622          38.000                                                                  
G19  25030155.381   131534361.875       -3598.118          27.000                                                                  
G20  22415645.701   117795005.543       -1548.639          37.000                                                                  
G15  23556337.191   123789395.518        3538.999          33.000    23556347.285    96459319.727        2757.990          34.000  
G29  24323752.426   127822178.480        3308.809          32.000    24323757.894    99601739.051        2578.348          34.000  
G25  24371316.847   128072124.214       -1027.654          30.000    24371337.419    99796488.251        -802.025          34.000  
> 2025 05 14 07 48 48.0030000  0 10                     
G05  21713493.776   114105183.486        -272.760          38.000    21713497.001    88913151.842        -212.384          38.000  
G06  24760103.235   130115171.181       -1300.909          31.000    24760121.919   101388500.872       -1013.599          33.000  
G11  22955256.717   120630669.430        -425.430          36.000    22955261.107    93997939.765        -331.635          38.000  
G12  23980574.027   126018744.411       -2177.767          33.000    23980584.678    98196450.525       -1697.828          35.000  
G13  21862657.354   114889053.388        2418.060          37.000                                                                  
G19  25030840.194   131537959.876       -3597.917          27.000                                                                  
G20  22415940.402   117796554.159       -1548.768          37.000                                                                  
G15  23555663.792   123785857.088        3538.136          33.000    23555673.929    96456562.547        2756.730          34.000  
G29  24323122.697   127818869.498        3308.551          32.000    24323128.147    99599160.595        2578.248          34.000  
G25  24371512.749   128073152.620       -1029.054          30.000    24371533.058    99797289.562        -801.266          33.000  
> 2025 05 14 07 48 49.0030000  0 10                     
G05  21713545.815   114105456.436        -273.492          38.000    21713548.980    88913364.524        -212.659          38.000  
G06  24760350.806   130116472.319       -1301.019          31.000    24760369.528   101389514.734       -1013.599          33.000  
G11  22955337.844   120631095.467        -426.011          37.000    22955342.268    93998271.731        -331.860          38.000  
G12  23980988.559   126020922.979       -2177.976          32.000    23980999.217    98198148.103       -1697.715          35.000  
G13  21862197.196   114886635.789        2417.810          37.000                                                                  
G19  25031525.089   131541558.290       -3598.185          27.000                                                                  
G20  22416235.161   117798103.017       -1549.125          36.000                                                                  
G15  23554990.461   123782318.984        3537.606          33.000    23555000.701    96453805.599        2756.459          34.000  
G29  24322493.114   127815560.780        3308.906          33.000    24322498.613    99596582.410        2577.876          34.000  
G25  24371708.457   128074181.498       -1028.812          30.000    24371728.852    99798091.263        -801.327          33.000  
> 2025 05 14 07 48 50.0030000  0 10                     
G05  21713597.855   114105729.751        -273.407          38.000    21713600.953    88913577.516        -213.196          38.000  
G06  24760598.373   130117773.691       -1301.825          31.000    24760617.159   101390528.758       -1014.044          34.000  
G11  22955418.851   120631521.673        -425.915          36.000    22955423.353    93998603.828        -331.830          38.000  
G12  23981403.315   126023101.821       -2178.958          32.000    23981413.809    98199845.880       -1697.999          35.000  
G13  21861737.194   114884218.767        2416.925          38.000                                                                  
G19  25032209.943   131545156.907       -3598.787          27.000                                                                  
G20  22416529.971   117799651.988       -1549.007          36.000                                                                  
G15  23554317.183   123778781.119        3537.880          33.000    23554327.494    96451048.824        2756.823          34.000  
G29  24321863.491   127812252.352        3308.087          33.000    24321869.108    99594004.427        2577.979          34.000  
G25  24371904.389   128075210.813       -1029.505          30.000    24371924.605    99798893.329        -801.488          33.000  
> 2025 05 14 07 48 51.0030000  0 10                     
G05  21713649.844   114106003.370        -273.853          38.000    21713652.936    88913790.702        -213.123          38.000  
G06  24760845.808   130119075.029       -1300.116          30.000    24760864.818   101391542.845       -1014.270          34.000  
G11  22955500.106   120631947.965        -426.365          36.000    22955504.402    93998936.019        -332.399          38.000  
G12  23981817.861   126025280.783       -2178.174          32.000    23981828.446    98201543.795       -1698.261          35.000  
G13  21861277.280   114881802.138        2415.967          38.000                                                                  
G19  25032894.706   131548755.694       -3598.464          27.000                                                                  
G20  22416824.667   117801200.974       -1548.695          36.000                                                                  
G15  23553644.084   123775243.441        3537.944          33.000    23553654.317    96448292.204        2756.399          34.000  
G29  24321233.925   127808944.104        3307.549          33.000    24321239.499    99591426.550        2577.360          34.000  
G25  24372100.247   128076240.469       -1030.680          30.000    24372120.530    99799695.649        -802.400          33.000  
> 2025 05 14 07 48 52.0030000  0 10                     
G05  21713702.044   114106277.337        -274.573          37.000    21713705.117    88914004.186        -213.611          38.000  
G06  24761093.493   130120376.667       -1301.392          30.000    24761112.466   101392557.052       -1014.288          34.000  
G11  22955581.271   120632374.435        -427.109          36.000    22955585.629    93999268.294        -332.468          38.000  
G12  23982232.410   126027460.064       -2179.991          32.000    23982243.121    98203241.858       -1698.048          35.000  
G13  21860817.432   114879385.992        2415.601          37.000                                                                  
G19  25033579.723   131552354.640       -3598.750          27.000                                                                  
G20  22417119.530   117802750.092       -1549.491          37.000                                                                  
G15  23552970.993   123771706.042        3536.782          33.000    23552981.133    96445535.793        2755.388          34.000  
G29  24320604.666   127805636.034        3306.791          33.000    24320609.957    99588848.843        2577.229          34.000  
G25  24372296.270   128077270.533       -1031.124          30.000    24372316.600    99800498.285        -803.004          33.000  
> 2025 05 14 07 48 53.0030000  0 10                     
G05  21713754.202   114106551.553        -274.408          38.000    21713757.272    88914217.864        -213.446          38.000  
G06  24761341.266   130121678.320       -1300.897          30.000    24761360.312   101393571.317       -1013.879          34.000  
G11  22955662.447   120632800.894        -425.986          36.000    22955666.828    93999600.632        -332.350          38.000  
G12  23982647.031   126029639.361       -2179.056          32.000    23982657.806    98204940.021       -1697.854          35.000  
G13  21860357.775   114876970.225        2415.936          37.000                                                                  
G19  25034264.607   131555953.736       -3598.323          27.000                                                                  
G20  22417414.337   117804299.183       -1549.094          37.000                                                                  
G15  23552297.935   123768168.717        3537.080          33.000    23552308.026    96442779.432        2756.248          34.000  
G29  24319975.271   127802328.071        3308.321          33.000    24319980.469    99586271.205        2577.862          34.000  
G25  24372492.250   128078300.822       -1030.725          30.000    24372512.791    99801301.144        -803.195          33.000  
> 2025 05 14 07 48 54.0030000  0 10                     
G05  21713806.553   114106826.238        -274.817          38.000    21713809.580    88914431.894        -213.409          38.000  
G06  24761588.979   130122980.233       -1301.306          31.000    24761607.950   101394585.790       -1013.953          34.000  
G11  22955743.721   120633227.661        -426.117          36.000    22955748.066    93999933.177        -332.322          38.000  
G12  23983061.579   126031819.047       -2179.200          32.000    23983072.536    98206638.490       -1697.791          35.000  
G13  21859898.261   114874555.070        2415.179          38.000                                                                  
G19  25034949.605   131559553.180       -3599.250          27.000                                                                  
G20  22417709.167   117805848.467       -1548.666          37.000                                                                  
G15  23551624.913   123764631.774        3536.626          33.000    23551634.960    96440023.371        2755.829          34.000  
G29  24319346.019   127799020.438        3308.318          33.000    24319351.081    99583693.880        2577.176          34.000  
G25  24372688.372   128079331.675       -1030.984          30.000    24372708.870    99802104.364        -803.052          33.000  
> 2025 05 14 07 48 55.0030000  0 10                     
G05  21713858.960   114107101.254        -274.713          38.000    21713862.005    88914646.228        -214.111          38.000  
G06  24761836.624   130124282.329       -1301.392          30.000    24761855.769   101395600.412       -1014.240          34.000  
G11  22955824.907   120633654.625        -426.872          36.000    22955829.292    94000265.844        -332.301          38.000  
G12  23983476.349   126033998.927       -2178.869          32.000    23983487.377    98208337.098       -1698.020          35.000  
G13  21859438.781   114872140.407        2415.167          38.000                                                                  
G19  25035634.634   131563152.824       -3599.994          27.000                                                                  
G20  22418003.968   117807397.895       -1549.119          37.000                                                                  
G15  23550951.748   123761095.024        3537.311          32.000    23550961.939    96437267.466        2756.266          34.000  
G29  24318716.772   127795713.096        3307.409          33.000    24318721.687    99581116.709        2576.931          34.000  
G25  24372884.547   128080362.959       -1030.831          30.000    24372905.233    99802907.954        -803.420          34.000  
> 2025 05 14 07 48 56.0030000  0 10                     
G05  21713911.354   114107376.582        -275.250          38.000    21713914.375    88914860.751        -214.490          38.000  
G06  24762084.489   130125584.575       -1303.015          31.000    24762103.521   101396615.099       -1014.685          34.000  
G11  22955906.147   120634081.623        -427.213          36.000    22955910.572    94000598.568        -332.454          38.000  
G12  23983891.237   126036179.021       -2179.663          32.000    23983902.305    98210035.848       -1698.517          35.000  
G13  21858979.512   114869726.173        2414.386          38.000                                                                  
G19  25036319.711   131566752.572       -3600.013          27.000                                                                  
G20  22418298.739   117808947.340       -1549.466          36.000                                                                  
G15  23550278.592   123757558.454        3536.835          32.000    23550288.976    96434511.677        2756.530          33.000  
G29  24318087.517   127792405.874        3306.944          33.000    24318092.417    99578539.618        2577.449          34.000  
G25  24373080.900   128081394.513       -1031.436          30.000    24373101.698    99803711.746        -803.484          33.000  
> 2025 05 14 07 48 57.0030000  0 10                     
G05  21713963.602   114107652.174        -276.215          38.000    21713966.664    88915075.515        -215.137          38.000  
G06  24762332.121   130126886.807       -1302.032          31.000    24762351.321   101397629.860       -1014.954          34.000  
G11  22955987.460   120634508.706        -427.373          36.000    22955991.768    94000931.384        -333.478          38.000  
G12  23984306.024   126038359.292       -2182.143          32.000    23984317.202    98211734.713       -1698.895          35.000  
G13  21858520.295   114867312.347        2413.239          38.000                                                                  
G19  25037004.776   131570352.379       -3599.804          27.000                                                                  
G20  22418593.756   117810496.792       -1550.000          36.000                                                                  
G15  23549605.534   123754022.041        3536.050          32.000    23549616.036    96431756.066        2755.429          33.000  
G29  24317458.247   127789098.777        3306.847          33.000    24317463.112    99575962.712        2576.053          34.000  
G25  24373277.288   128082426.440       -1032.859          30.000    24373298.123    99804515.853        -804.934          33.000  
> 2025 05 14 07 48 58.0030000  0 10                     
G05  21714016.156   114107928.287        -275.549          38.000    21714019.235    88915290.674        -214.825          38.000  
G06  24762579.922   130128189.387       -1301.221          30.000    24762599.154   101398644.872       -1014.246          34.000  
G11  22956068.759   120634936.159        -427.072          36.000    22956073.046    94001264.412        -332.309          38.000  
G12  23984720.875   126040539.877       -2180.418          32.000    23984732.235    98213433.909       -1698.644          35.000  
G13  21858060.989   114864899.199        2413.385          38.000                                                                  
G19  25037689.898   131573952.761       -3601.175          27.000                                                                  
G20  22418888.679   117812046.496       -1548.530          36.000                                                                  
G15  23548932.609   123750486.089        3535.810          32.000    23548943.217    96429000.752        2756.387          34.000  
G29  24316828.960   127785792.095        3307.183          33.000    24316833.965    99573386.065        2577.126          34.000  
G25  24373473.815   128083458.887       -1031.272          30.000    24373494.658    99805320.363        -803.997          33.000  
> 2025 05 14 07 48 59.0030000  0 10                     
G05  21714068.747   114108204.711        -275.751          38.000    21714071.851    88915506.061        -214.551          38.000  
G06  24762827.962   130129492.239       -1302.405          31.000    24762846.994   101399659.996       -1014.307          33.000  
G11  22956150.119   120635363.700        -426.650          36.000    22956154.456    94001597.582        -332.456          38.000  
G12  23985135.840   126042720.647       -2179.604          32.000    23985147.177    98215133.267       -1699.433          35.000  
G13  21857601.759   114862486.517        2413.068          38.000                                                                  
G19  25038374.896   131577553.168       -3600.283          27.000                                                                  
G20  22419183.474   117813596.337       -1549.354          36.000                                                                  
G15  23548259.782   123746950.271        3536.932          32.000    23548270.338    96426245.619        2755.569          34.000  
G29  24316199.665   127782485.604        3306.640          33.000    24316204.834    99570809.571        2576.727          35.000  
G25  24373670.282   128084491.767       -1032.607          30.000    24373691.042    99806125.202        -804.507          33.000  
> 2025 05 14 07 49 00.0030000  0 10                     
G05  21714121.519   114108481.454        -277.679          38.000    21714124.531    88915721.693        -216.449          38.000  
G06  24763075.867   130130795.064       -1303.375          31.000    24763094.867   101400675.210       -1016.071          33.000  
G11  22956231.560   120635791.355        -428.470          36.000    22956235.851    94001930.825        -334.112          38.000  
G12  23985550.875   126044901.673       -2182.038          32.000    23985562.146    98216832.711       -1700.289          35.000  
G13  21857142.676   114860074.232        2411.365          38.000                                                                  
G19  25039059.999   131581153.723       -3601.032          27.000                                                                  
G20  22419478.363   117815146.172       -1550.615          36.000                                                                  
G15  23547586.911   123743414.664        3535.490          32.000    23547597.538    96423490.594        2754.713          34.000  
G29  24315570.596   127779179.273        3305.605          33.000    24315575.609    99568233.230        2575.631          34.000  
G25  24373866.949   128085524.956       -1034.396          30.000    24373887.493    99806930.244        -805.346          33.000  
> 2025 05 14 07 49 01.0030000  0 10                     
G05  21714174.223   114108758.382        -276.727          38.000    21714177.204    88915937.487        -215.576          38.000  
G06  24763323.717   130132097.944       -1302.289          31.000    24763342.780   101401690.463       -1015.485          33.000  
G11  22956313.063   120636219.021        -427.524          36.000    22956317.185    94002264.072        -333.283          38.000  
G12  23985965.765   126047082.764       -2181.038          32.000    23985977.107    98218532.268       -1699.471          35.000  
G13  21856683.788   114857662.320        2411.981          38.000                                                                  
G19  25039745.199   131584754.404       -3599.979          27.000                                                                  
G20  22419773.339   117816695.982       -1549.541          37.000                                                                  
G15  23546914.089   123739879.181        3535.380          32.000    23546924.733    96420735.677        2755.107          34.000  
G29  24314941.546   127775873.048        3306.166          33.000    24314946.450    99565656.951        2576.260          34.000  
G25  24374063.384   128086558.462       -1033.225          30.000    24374084.193    99807735.582        -805.464          33.000  
