     3.04           OBSERVATION DATA    G: GPS              RINEX VERSION / TYPE
RTKCONV demo5 b34i                      20250515 063303 UTC PGM / RUN BY / DATE 
format: u-blox UBX                                          COMMENT             
log: D:\20242\NGUYENDS\GNSS_DOA_Spoofing\hai\ngoc\SP-2025-04COMMENT             
                                                            MARKER NAME         
                                                            MARKER NUMBER       
                                                            MARKER TYPE         
                                                            OBSERVER / AGENCY   
                                                            REC # / TYPE / VERS 
                                                            ANT # / TYPE        
 -1626587.9128  5730538.6933  2271875.8747                  APPROX POSITION XYZ 
        0.0000        0.0000        0.0000                  ANTENNA: DELTA H/E/N
G    8 C1C L1C D1C S1C C2X L2X D2X S2X                      SYS / # / OBS TYPES 
  2025    04    27    02    30   49.9960000     GPS         TIME OF FIRST OBS   
  2025    04    27    02    34   26.9960000     GPS         TIME OF LAST OBS    
G L1C                                                       SYS / PHASE SHIFT   
G L2X  0.00000                                              SYS / PHASE SHIFT   
  0                                                         GLONASS SLOT / FRQ #
                                                            GLONASS COD/PHS/BIS 
                                                            END OF HEADER       
> 2025 04 27 02 30 49.9960000  0 12                     
G30  19528477.200   102622798.2101       -467.535          41.000    19528482.694    79965839.7121       -364.325          38.000  
G13  23896181.572   125575235.2941       -628.790          28.000                                                                  
G08  23876701.938   125472913.8241      -1994.583          31.000    23876721.626    97770961.8261      -1553.490          32.000  
G01  20208271.727   106195157.1241      -1971.954          41.000    20208276.149    82749417.6931      -1536.831          39.000  
G19  21828721.387   114710703.1161       1569.752          35.000                                                                  
G22  21760086.587   114350028.6901       2370.800          37.000                                                                  
G03  21663766.596   113843872.7571       1775.859          35.000    21663779.985    88709598.3871       1383.466          34.000  
G07  20069409.696   105465409.9091      -2322.043          39.000    20069415.609    82180810.7081      -1809.335          38.000  
G06  22615302.111   118844249.7601       3648.620          32.000    22615316.850    92605988.3751       2843.177          33.000  
G02  23035035.399   121049850.0481      -3212.927          34.000                                                                  
G14  20103055.648   105642268.8211       2264.225          39.000    20103059.908    82318692.2781       1764.335          40.000  
G17  20519936.693   107832973.7091        215.836          39.000    20519940.174    84025733.7781        167.692          38.000  
> 2025 04 27 02 30 50.9960000  0 12                     
G30  19528566.224   102623266.003        -468.036          41.000    19528571.681    79966204.218        -364.514          38.000  
G13  23896301.168   125575864.032        -628.446          28.000                                                                  
G08  23877081.491   125474908.420       -1995.303          30.000    23877101.199    97772516.030       -1554.285          32.000  
G01  20208646.935   106197129.180       -1972.070          40.000    20208651.430    82750954.338       -1536.783          39.000  
G19  21828422.693   114709133.637        1569.458          35.000                                                                  
G22  21759635.344   114347657.751        2370.891          37.000                                                                  
G03  21663428.728   113842097.086        1775.180          35.000    21663442.128    88708214.705        1383.657          34.000  
G07  20069851.624   105467732.174       -2322.262          38.000    20069857.549    82182620.269       -1810.164          38.000  
G06  22614607.734   118840600.841        3649.304          32.000    22614622.472    92603145.061        2843.280          33.000  
G02  23035646.698   121053062.380       -3212.451          34.000                                                                  
G14  20102624.863   105640004.946        2263.838          39.000    20102629.037    82316928.220        1764.020          40.000  
G17  20519895.744   107832758.415         215.473          39.000    20519899.163    84025565.993         167.934          38.000  
> 2025 04 27 02 30 51.9960000  0 12                     
G30  19528655.409   102623734.401        -468.933          41.000    19528660.733    79966569.191        -365.155          38.000  
G13  23896420.691   125576493.130        -629.132          28.000                                                                  
G08  23877461.178   125476902.784       -1994.305          31.000    23877480.661    97774070.099       -1553.304          32.000  
G01  20209022.317   106199101.683       -1972.739          40.000    20209026.809    82752491.372       -1537.532          39.000  
G19  21828124.030   114707564.266        1569.259          35.000                                                                  
G22  21759184.149   114345286.767        2370.785          37.000                                                                  
G03  21663090.935   113840321.717        1774.840          35.000    21663104.268    88706831.318        1383.386          34.000  
G07  20070293.659   105470054.877       -2323.109          38.000    20070299.541    82184430.124       -1810.122          38.000  
G06  22613913.520   118836952.160        3647.955          32.000    22613928.224    92600301.903        2843.231          34.000  
G02  23036257.984   121056274.796       -3213.121          34.000                                                                  
G14  20102194.080   105637741.164        2264.008          39.000    20102198.227    82315164.246        1763.849          40.000  
G17  20519854.794   107832543.228         215.426          40.000    20519858.199    84025398.311         167.744          38.000  
> 2025 04 27 02 30 52.9960000  0 12                     
G30  19528744.675   102624203.504        -469.714          41.000    19528750.180    79966934.738        -366.003          38.000  
G13  23896540.416   125577122.606        -629.755          28.000                                                                  
G08  23877840.669   125478897.207       -1995.184          30.000    23877860.189    97775624.143       -1553.584          32.000  
G01  20209397.773   106201074.754       -1973.479          40.000    20209402.304    82754028.814       -1537.897          39.000  
G19  21827825.484   114705995.133        1569.115          35.000                                                                  
G22  21758733.031   114342915.824        2370.821          37.000                                                                  
G03  21662753.209   113838546.774        1774.801          35.000    21662766.503    88705448.290        1382.547          34.000  
G07  20070735.704   105472378.072       -2323.621          38.000    20070741.557    82186240.407       -1810.544          38.000  
G06  22613219.146   118833303.736        3648.590          32.000    22613233.861    92597458.997        2843.207          34.000  
G02  23036869.221   121059487.346       -3213.090          34.000                                                                  
G14  20101763.307   105635477.650        2263.098          40.000    20101767.561    82313400.460        1763.656          40.000  
G17  20519813.916   107832328.260         214.945          40.000    20519817.293    84025230.827         167.173          38.000  
> 2025 04 27 02 30 53.9960000  0 12                     
G30  19528834.018   102624673.289        -470.074          41.000    19528839.631    79967300.791        -366.205          38.000  
G13  23896660.271   125577752.450        -629.973          28.000                                                                  
G08  23878219.959   125480891.516       -1994.135          31.000    23878239.703    97777178.187       -1553.994          31.000  
G01  20209773.425   106203048.357       -1974.032          40.000    20209777.841    82755566.691       -1538.330          39.000  
G19  21827526.877   114704426.284        1568.578          35.000                                                                  
G22  21758281.775   114340544.939        2371.304          37.000                                                                  
G03  21662415.614   113836772.299        1774.507          35.000    21662428.867    88704065.556        1382.641          34.000  
G07  20071177.817   105474701.793       -2323.733          38.000    20071183.738    82188051.110       -1810.913          38.000  
G06  22612525.010   118829655.669        3647.833          33.000    22612539.610    92594616.364        2842.798          35.000  
G02  23037480.578   121062699.982       -3212.140          34.000                                                                  
G14  20101332.572   105633214.320        2263.257          40.000    20101336.952    82311636.852        1763.172          40.000  
G17  20519772.984   107832113.524         214.552          40.000    20519776.427    84025063.487         167.224          38.000  
> 2025 04 27 02 30 54.9960000  0 12                     
G30  19528923.466   102625143.753        -470.831          41.000    19528929.126    79967667.380        -366.913          38.000  
G13  23896780.444   125578382.752        -630.520          28.000                                                                  
G08  23878599.345   125482885.764       -1993.833          30.000    23878619.220    97778732.156       -1554.637          31.000  
G01  20210149.151   106205022.479       -1974.592          40.000    20210153.453    82757104.943       -1538.447          39.000  
G19  21827228.333   114702857.580        1568.690          35.000                                                                  
G22  21757830.587   114338174.085        2370.870          37.000                                                                  
G03  21662077.910   113834998.213        1773.789          35.000    21662091.294    88702683.132        1382.813          34.000  
G07  20071620.050   105477026.015       -2324.546          39.000    20071626.128    82189862.173       -1811.359          38.000  
G06  22611831.107   118826007.893        3647.675          33.000    22611845.482    92591773.931        2842.303          35.000  
G02  23038092.018   121065912.827       -3212.803          34.000                                                                  
G14  20100901.888   105630951.208        2262.842          39.000    20100906.243    82309873.355        1763.505          40.000  
G17  20519732.146   107831898.945         214.356          40.000    20519735.557    84024896.263         167.517          38.000  
> 2025 04 27 02 30 55.9960000  0 12                     
G30  19529013.129   102625614.823        -471.704          41.000    19529018.741    79968034.439        -367.310          38.000  
G13  23896900.313   125579013.329        -630.905          28.000                                                                  
G08  23878978.768   125484879.888       -1994.544          31.000    23878998.770    97780285.961       -1552.943          31.000  
G01  20210524.837   106206997.053       -1975.027          41.000    20210529.266    82758643.588       -1538.866          39.000  
G19  21826929.852   114701289.057        1568.437          35.000                                                                  
G22  21757379.408   114335803.204        2370.747          37.000                                                                  
G03  21661740.409   113833224.457        1773.453          35.000    21661753.742    88701301.030        1381.654          34.000  
G07  20072062.381   105479350.647       -2324.959          39.000    20072068.534    82191673.584       -1812.186          37.000  
G06  22611137.050   118822360.315        3647.302          33.000    22611151.368    92588931.665        2842.273          34.000  
G02  23038703.422   121069125.684       -3212.666          34.000                                                                  
G14  20100471.310   105628688.196        2262.958          39.000    20100475.663    82308110.013        1762.827          40.000  
G17  20519691.333   107831684.493         214.339          40.000    20519694.788    84024729.178         166.911          38.000  
> 2025 04 27 02 30 56.9960000  0 12                     
G30  19529102.854   102626086.522        -471.820          41.000    19529108.507    79968402.024        -367.804          38.000  
G13  23897020.251   125579644.260        -630.844          28.000                                                                  
G08  23879357.912   125486873.826       -1992.206          31.000    23879378.141    97781839.736       -1553.455          31.000  
G01  20210900.719   106208972.138       -1975.186          41.000    20210905.123    82760182.589       -1538.782          39.000  
G19  21826631.432   114699720.731        1568.300          35.000                                                                  
G22  21756928.297   114333432.299        2371.215          37.000                                                                  
G03  21661402.885   113831451.095        1773.128          35.000    21661416.205    88699919.170        1382.037          34.000  
G07  20072504.808   105481675.741       -2325.021          39.000    20072510.976    82193485.340       -1812.151          38.000  
G06  22610442.888   118818713.011        3647.729          32.000    22610457.213    92586089.581        2842.505          34.000  
G02  23039314.840   121072338.639       -3212.437          34.000                                                                  
G14  20100040.638   105626425.408        2262.532          39.000    20100045.123    82306346.761        1763.220          40.000  
G17  20519650.602   107831470.218         214.302          40.000    20519653.939    84024562.206         166.681          38.000  
> 2025 04 27 02 30 57.9960000  0 12                     
G30  19529192.710   102626558.783        -472.540          41.000    19529198.326    79968769.984        -367.908          38.000  
G13  23897140.437   125580275.447        -630.814          28.000                                                                  
G08  23879737.389   125488867.684       -1993.221          31.000    23879757.615    97783393.361       -1553.573          31.000  
G01  20211276.522   106210947.605       -1975.981          41.000    20211281.026    82761721.890       -1538.970          39.000  
G19  21826332.923   114698152.455        1568.207          35.000                                                                  
G22  21756477.006   114331061.284        2371.019          37.000                                                                  
G03  21661065.527   113829677.970        1773.368          35.000    21661078.809    88698537.574        1380.559          34.000  
G07  20072947.334   105484001.200       -2325.612          39.000    20072953.417    82195297.344       -1811.802          38.000  
G06  22609748.592   118815065.800        3646.899          32.000    22609763.190    92583247.620        2841.895          34.000  
G02  23039926.395   121075551.597       -3212.490          33.000                                                                  
G14  20099610.065   105624162.643        2262.350          39.000    20099614.527    82304583.573        1762.870          40.000  
G17  20519609.852   107831256.000         213.746          40.000    20519613.263    84024395.258         166.885          38.000  
> 2025 04 27 02 30 58.9960000  0 12                     
G30  19529282.655   102627031.603        -473.315          41.000    19529288.350    79969138.437        -368.964          38.000  
G13  23897260.544   125580906.973        -631.658          28.000                                                                  
G08  23880116.768   125490861.364       -1994.375          31.000    23880137.049    97784946.818       -1553.045          31.000  
G01  20211652.613   106212923.488       -1976.354          41.000    20211657.063    82763261.573       -1540.167          39.000  
G19  21826034.461   114696584.335        1567.229          35.000                                                                  
G22  21756025.852   114328690.213        2371.063          37.000                                                                  
G03  21660728.066   113827905.180        1772.557          35.000    21660741.471    88697156.158        1381.107          35.000  
G07  20073389.898   105486327.054       -2326.260          39.000    20073396.012    82197109.708       -1812.446          38.000  
G06  22609054.353   118811418.837        3646.759          32.000    22609069.254    92580405.799        2841.681          34.000  
G02  23040537.753   121078764.555       -3212.640          34.000                                                                  
G14  20099179.449   105621899.985        2262.340          39.000    20099184.034    82302820.448        1763.073          40.000  
G17  20519569.048   107831041.830         214.200          40.000    20519572.486    84024228.404         166.851          38.000  
> 2025 04 27 02 30 59.9960000  0 12                     
G30  19529372.736   102627505.118        -473.932          41.000    19529378.459    79969507.390        -369.061          38.000  
G13  23897380.678   125581538.868        -632.052          28.000                                                                  
G08  23880496.243   125492854.924       -1993.690          31.000    23880516.589    97786500.253       -1552.794          32.000  
G01  20212028.658   106214899.930       -1976.775          41.000    20212033.198    82764801.626       -1540.087          39.000  
G19  21825735.992   114695016.386        1567.902          35.000                                                                  
G22  21755574.610   114326319.177        2371.123          37.000                                                                  
G03  21660390.803   113826132.840        1772.299          35.000    21660404.170    88695775.111        1380.702          34.000  
G07  20073832.580   105488653.403       -2326.628          39.000    20073838.715    82198922.464       -1813.151          38.000  
G06  22608360.429   118807772.155        3646.240          32.000    22608375.197    92577564.238        2841.425          34.000  
G02  23041149.145   121081977.643       -3212.779          34.000                                                                  
G14  20098748.886   105619637.522        2262.300          39.000    20098753.527    82301057.519        1762.894          40.000  
G17  20519528.361   107830827.907         214.242          40.000    20519531.745    84024061.693         167.009          38.000  
> 2025 04 27 02 31 00.9960000  0 12                     
G30  19529463.007   102627979.396        -474.878          41.000    19529468.742    79969876.976        -370.154          38.000  
G13  23897501.065   125582171.293        -633.231          28.000                                                                  
G08  23880875.679   125494848.519       -1993.657          30.000    23880895.907    97788053.708       -1552.959          32.000  
G01  20212404.928   106216876.955       -1977.371          41.000    20212409.494    82766342.196       -1541.113          39.000  
G19  21825437.741   114693448.794        1567.259          35.000                                                                  
G22  21755123.532   114323948.269        2370.646          37.000                                                                  
G03  21660053.534   113824360.987        1771.580          35.000    21660067.000    88694394.444        1380.241          34.000  
G07  20074275.399   105490980.344       -2327.360          39.000    20074281.578    82200735.637       -1813.467          38.000  
G06  22607666.645   118804125.831        3646.063          32.000    22607681.314    92574722.968        2841.125          35.000  
G02  23041760.713   121085190.985       -3213.541          34.000                                                                  
G14  20098318.438   105617375.379        2261.669          39.000    20098323.049    82299294.796        1762.528          40.000  
G17  20519487.746   107830614.285         213.092          39.000    20519491.039    84023895.216         166.436          38.000  
> 2025 04 27 02 31 01.9960000  0 12                     
G30  19529553.340   102628454.298        -475.189          41.000    19529559.173    79970247.024        -370.642          38.000  
G13  23897621.469   125582803.960        -633.038          28.000                                                                  
G08  23881254.973   125496842.034       -1993.763          30.000    23881275.242    97789607.105       -1553.945          31.000  
G01  20212781.284   106218854.479       -1977.836          41.000    20212785.753    82767883.119       -1541.177          39.000  
G19  21825139.622   114691881.345        1567.131          35.000                                                                  
G22  21754672.253   114321577.299        2371.137          37.000                                                                  
G03  21659716.331   113822589.472        1771.301          35.000    21659729.927    88693014.038        1380.626          35.000  
G07  20074718.328   105493307.749       -2327.984          39.000    20074724.395    82202549.178       -1813.995          38.000  
G06  22606972.767   118800479.790        3645.825          32.000    22606987.529    92571881.920        2840.326          35.000  
G02  23042372.248   121088404.368       -3213.557          34.000                                                                  
G14  20097888.045   105615113.369        2262.070          39.000    20097892.539    82297532.191        1762.650          40.000  
G17  20519447.144   107830400.784         213.019          39.000    20519450.501    84023728.844         166.349          38.000  
> 2025 04 27 02 31 02.9960000  0 12                     
G30  19529643.922   102628929.902        -475.555          41.000    19529649.609    79970617.630        -371.088          38.000  
G13  23897742.008   125583437.134        -633.181          28.000                                                                  
G08  23881634.406   125498835.471       -1993.018          30.000    23881654.778    97791160.407       -1553.375          32.000  
G01  20213157.716   106220832.564       -1978.571          41.000    20213162.136    82769424.452       -1541.165          39.000  
G19  21824841.332   114690314.168        1566.861          35.000                                                                  
G22  21754221.031   114319206.446        2370.748          37.000                                                                  
G03  21659379.273   113820818.441        1770.468          35.000    21659392.816    88691634.019        1379.628          35.000  
G07  20075161.283   105495635.639       -2328.154          39.000    20075167.368    82204363.132       -1814.402          38.000  
G06  22606278.884   118796834.031        3645.129          31.000    22606293.657    92569041.079        2840.314          35.000  
G02  23042983.862   121091617.932       -3213.829          34.000                                                                  
G14  20097457.674   105612851.620        2261.434          39.000    20097462.027    82295769.788        1762.297          40.000  
G17  20519406.575   107830187.502         212.893          39.000    20519409.928    84023562.670         166.010          38.000  
> 2025 04 27 02 31 03.9960000  0 12                     
G30  19529734.554   102629406.231        -476.727          41.000    19529740.263    79970988.773        -371.582          38.000  
G13  23897862.602   125584070.681        -633.624          28.000                                                                  
G08  23882013.685   125500828.874       -1993.682          30.000    23882034.090    97792713.715       -1554.032          32.000  
G01  20213534.174   106222811.171       -1978.777          41.000    20213538.827    82770966.234       -1541.845          39.000  
G19  21824543.202   114688747.205        1566.536          35.000                                                                  
G22  21753769.869   114316835.614        2370.985          37.000                                                                  
G03  21659042.317   113819047.787        1770.555          35.000    21659055.780    88690254.288        1379.617          34.000  
G07  20075604.382   105497964.083       -2328.742          38.000    20075610.552    82206177.479       -1814.749          38.000  
G06  22605584.883   118793188.544        3645.660          31.000    22605599.992    92566200.471        2840.900          35.000  
G02  23043595.479   121094831.619       -3214.663          34.000                                                                  
G14  20097027.341   105610590.067        2261.252          39.000    20097031.636    82294007.533        1762.186          40.000  
G17  20519366.015   107829974.401         213.068          39.000    20519369.416    84023396.632         166.004          38.000  
> 2025 04 27 02 31 04.9960000  0 12                     
G30  19529825.232   102629883.148        -477.191          41.000    19529831.073    79971360.385        -371.942          38.000  
G13  23897983.382   125584704.542        -633.720          27.000                                                                  
G08  23882392.889   125502822.131       -1993.004          29.000    23882413.469    97794266.855       -1552.818          31.000  
G01  20213910.741   106224790.261       -1979.534          40.000    20213915.545    82772508.396       -1542.698          39.000  
G19  21824245.036   114687180.380        1566.776          35.000                                                                  
G22  21753318.538   114314464.755        2370.796          38.000                                                                  
G03  21658705.443   113817277.500        1770.163          35.000    21658719.012    88688874.841        1379.490          34.000  
G07  20076047.579   105500292.926       -2328.797          38.000    20076053.699    82207992.153       -1814.953          38.000  
G06  22604891.103   118789543.352        3644.928          31.000    22604906.367    92563360.059        2840.143          34.000  
G02  23044207.049   121098045.333       -3213.928          34.000                                                                  
G14  20096597.062   105608328.647        2261.652          39.000    20096601.359    82292245.407        1762.188          40.000  
G17  20519325.499   107829761.460         213.058          39.000    20519328.908    84023230.711         165.701          38.000  
> 2025 04 27 02 31 05.9960000  0 12                     
G30  19529916.174   102630360.589        -477.808          41.000    19529921.914    79971732.431        -372.375          38.000  
G13  23898103.910   125585338.682        -634.430          27.000                                                                  
G08  23882772.086   125504815.183       -1992.828          29.000    23882792.931    97795819.921       -1553.468          31.000  
G01  20214287.439   106226769.725       -1979.857          40.000    20214292.106    82774050.822       -1542.758          39.000  
G19  21823946.938   114685613.649        1566.494          35.000                                                                  
G22  21752867.358   114312093.793        2370.759          37.000                                                                  
G03  21658368.563   113815507.457        1770.183          35.000    21658382.192    88687495.609        1379.087          34.000  
G07  20076490.742   105502622.140       -2329.587          38.000    20076496.848    82209807.118       -1815.214          38.000  
G06  22604197.526   118785898.266        3644.806          32.000    22604212.655    92560519.714        2840.198          34.000  
G02  23044818.574   121101259.000       -3213.101          34.000                                                                  
G14  20096166.679   105606067.282        2261.272          39.000    20096171.079    82290483.317        1761.661          40.000  
G17  20519285.007   107829548.568         212.758          39.000    20519288.347    84023064.801         165.822          38.000  
> 2025 04 27 02 31 06.9960000  0 12                     
G30  19530007.279   102630838.673        -478.589          41.000    19530012.767    79972104.938        -372.705          38.000  
G13  23898224.504   125585973.145        -634.587          27.000                                                                  
G08  23883151.352   125506808.122       -1992.819          30.000    23883172.233    97797372.783       -1552.542          31.000  
G01  20214664.158   106228749.661       -1980.231          40.000    20214668.835    82775593.616       -1542.930          39.000  
G19  21823648.862   114684047.055        1566.522          35.000                                                                  
G22  21752416.172   114309722.799        2370.858          37.000                                                                  
G03  21658031.776   113813737.823        1769.338          35.000    21658045.476    88686116.654        1378.652          34.000  
G07  20076934.130   105504951.801       -2330.059          39.000    20076940.262    82211622.428       -1815.379          37.000  
G06  22603504.084   118782253.452        3644.757          32.000    22603519.022    92557679.577        2840.198          34.000  
G02  23045429.965   121104472.809       -3213.527          34.000                                                                  
G14  20095736.426   105603806.110        2260.546          39.000    20095740.769    82288721.319        1762.079          40.000  
G17  20519244.545   107829335.816         212.575          40.000    20519247.843    84022899.007         165.858          38.000  
> 2025 04 27 02 31 07.9960000  0 12                     
G30  19530098.414   102631317.460        -479.040          41.000    19530103.956    79972478.022        -373.376          38.000  
G13  23898345.343   125586608.039        -634.927          27.000                                                                  
G08  23883530.376   125508801.028       -1992.744          29.000    23883551.502    97798925.736       -1553.486          31.000  
G01  20215041.060   106230730.155       -1980.593          41.000    20215045.731    82777136.862       -1543.337          39.000  
G19  21823350.699   114682480.728        1566.118          35.000                                                                  
G22  21751964.993   114307351.871        2370.933          37.000                                                                  
G03  21657695.090   113811968.611        1768.989          35.000    21657708.817    88684738.061        1378.180          35.000  
G07  20077377.597   105507281.978       -2330.342          39.000    20077383.625    82213438.173       -1816.465          37.000  
G06  22602810.788   118778608.959        3644.324          32.000    22602825.471    92554839.720        2840.106          34.000  
G02  23046041.514   121107686.788       -3214.569          34.000                                                                  
G14  20095306.178   105601545.134        2260.936          39.000    20095310.566    82286959.542        1761.763          40.000  
G17  20519204.036   107829123.289         212.172          39.000    20519207.373    84022733.402         165.705          38.000  
> 2025 04 27 02 31 08.9960000  0 12                     
G30  19530189.628   102631796.857        -480.121          41.000    19530195.224    79972851.581        -374.023          38.000  
G13  23898465.967   125587243.237        -635.524          27.000                                                                  
G08  23883909.491   125510793.756       -1992.239          29.000    23883930.745    97800478.542       -1552.583          32.000  
G01  20215418.047   106232711.136       -1981.752          41.000    20215422.684    82778680.471       -1543.929          39.000  
G19  21823052.697   114680914.532        1566.163          35.000                                                                  
G22  21751513.837   114304980.913        2370.869          37.000                                                                  
G03  21657358.452   113810199.737        1768.579          34.000    21657372.301    88683359.718        1378.156          34.000  
G07  20077821.129   105509612.585       -2330.975          39.000    20077827.183    82215254.214       -1816.592          37.000  
G06  22602117.287   118774964.695        3643.164          32.000    22602131.991    92552000.033        2839.764          35.000  
G02  23046653.144   121110900.750       -3214.191          34.000                                                                  
G14  20094875.886   105599284.309        2260.681          39.000    20094880.340    82285197.859        1761.464          40.000  
G17  20519163.613   107828910.854         212.578          39.000    20519166.925    84022567.892         165.300          38.000  
> 2025 04 27 02 31 09.9960000  0 12                     
G30  19530281.005   102632276.724        -480.084          41.000    19530286.593    79973225.475        -373.761          38.000  
G13  23898586.833   125587878.641        -635.487          27.000                                                                  
G08  23884288.520   125512786.320       -1992.561          29.000    23884309.880    97802031.105       -1552.372          31.000  
G01  20215795.014   106234692.392       -1981.428          41.000    20215799.756    82780224.316       -1543.986          39.000  
G19  21822754.739   114679348.367        1566.362          35.000                                                                  
G22  21751062.531   114302609.785        2371.302          37.000                                                                  
G03  21657021.880   113808431.068        1768.559          34.000    21657035.773    88681981.558        1377.800          34.000  
G07  20078264.666   105511943.497       -2331.133          39.000    20078270.758    82217070.487       -1816.547          37.000  
G06  22601423.683   118771320.441        3645.117          31.000    22601438.572    92549160.393        2839.697          35.000  
G02  23047264.682   121114114.667       -3214.037          34.000                                                                  
G14  20094445.655   105597023.478        2260.941          39.000    20094450.162    82283436.164        1761.664          40.000  
G17  20519123.197   107828698.456         212.069          39.000    20519126.449    84022402.365         165.428          38.000  
> 2025 04 27 02 31 10.9960000  0 12                     
G30  19530372.449   102632757.124        -480.780          41.000    19530378.010    79973599.858        -375.018          38.000  
G13  23898707.740   125588514.268        -635.632          28.000                                                                  
G08  23884667.735   125514778.605       -1992.142          29.000    23884689.092    97803583.502       -1551.542          32.000  
G01  20216172.173   106236674.068       -1982.119          41.000    20216176.911    82781768.471       -1544.437          39.000  
G19  21822456.777   114677782.268        1565.716          35.000                                                                  
G22  21750611.344   114300238.535        2371.206          37.000                                                                  
G03  21656685.242   113806662.707        1767.645          34.000    21656699.163    88680603.590        1377.744          34.000  
G07  20078708.413   105514274.742       -2331.650          39.000    20078714.331    82218887.028       -1816.671          38.000  
G06  22600730.020   118767676.476        3642.834          31.000    22600745.199    92546320.909        2839.496          35.000  
G02  23047876.255   121117328.581       -3214.088          34.000                                                                  
G14  20094015.484   105594762.705        2260.852          39.000    20094019.963    82281674.531        1761.639          40.000  
G17  20519082.742   107828486.083         212.102          39.000    20519086.083    84022236.888         165.345          38.000  
> 2025 04 27 02 31 11.9960000  0 12                     
G30  19530463.898   102633238.133        -481.445          41.000    19530469.539    79973974.646        -375.055          38.000  
G13  23898828.722   125589150.224        -635.850          27.000                                                                  
G08  23885046.725   125516770.715       -1991.695          29.000    23885068.191    97805135.823       -1551.813          31.000  
G01  20216549.378   106238656.182       -1982.484          41.000    20216554.034    82783312.970       -1544.722          39.000  
G19  21822158.806   114676216.325        1565.775          35.000                                                                  
G22  21750160.115   114297867.258        2371.101          37.000                                                                  
G03  21656348.686   113804894.601        1768.540          34.000    21656362.719    88679225.864        1377.953          34.000  
G07  20079152.052   105516606.412       -2331.967          39.000    20079158.054    82220703.906       -1817.076          38.000  
G06  22600036.453   118764032.577        3644.421          32.000    22600051.797    92543481.584        2839.117          35.000  
G02  23048487.835   121120542.516       -3214.505          34.000                                                                  
G14  20093585.330   105592502.076        2260.380          39.000    20093589.704    82279912.996        1761.571          40.000  
G17  20519042.395   107828273.844         212.194          39.000    20519045.702    84022071.500         165.198          38.000  
> 2025 04 27 02 31 12.9960000  0 12                     
G30  19530555.406   102633719.654        -481.885          41.000    19530561.042    79974349.863        -375.702          38.000  
G13  23898949.718   125589786.424        -636.617          28.000                                                                  
G08  23885425.695   125518762.701       -1991.772          29.000    23885447.217    97806687.983       -1552.139          31.000  
G01  20216926.551   106240638.678       -1983.083          41.000    20216931.211    82784857.755       -1544.918          39.000  
G19  21821860.798   114674650.389        1565.995          35.000                                                                  
G22  21749708.855   114295495.843        2371.273          38.000                                                                  
G03  21656012.259   113803126.839        1767.301          34.000    21656026.318    88677848.368        1377.111          34.000  
G07  20079595.824   105518938.431       -2332.427          39.000    20079601.878    82222521.055       -1817.203          38.000  
G06  22599343.230   118760388.916        3643.591          32.000    22599358.496    92540642.336        2838.983          35.000  
G02  23049099.400   121123756.429       -3214.205          34.000                                                                  
G14  20093155.170   105590241.499        2260.105          39.000    20093159.591    82278151.510        1761.260          40.000  
G17  20519001.968   107828061.652         211.867          39.000    20519005.389    84021906.158         165.011          38.000  
> 2025 04 27 02 31 13.9960000  0 12                     
G30  19530647.212   102634201.775        -482.648          41.000    19530652.789    79974725.534        -376.379          38.000  
G13  23899070.739   125590422.988        -637.887          28.000                                                                  
G08  23885804.747   125520754.452       -1991.842          30.000    23885826.290    97808240.004       -1551.491          31.000  
G01  20217304.102   106242621.572       -1983.185          41.000    20217308.563    82786402.916       -1545.792          39.000  
G19  21821562.835   114673084.659        1565.391          35.000                                                                  
G22  21749257.496   114293124.387        2371.035          37.000                                                                  
G03  21655675.875   113801359.370        1766.961          34.000    21655690.040    88676471.137        1377.028          34.000  
G07  20080039.681   105521270.833       -2332.735          39.000    20080045.754    82224338.514       -1817.717          38.000  
G06  22598650.052   118756745.440        3643.732          33.000    22598665.155    92537803.278        2838.397          35.000  
G02  23049710.945   121126970.323       -3213.739          34.000                                                                  
G14  20092725.017   105587981.019        2260.198          39.000    20092729.432    82276390.101        1761.161          40.000  
G17  20518961.635   107827849.546         211.622          39.000    20518965.051    84021740.874         165.209          38.000  
> 2025 04 27 02 31 14.9960000  0 12                     
G30  19530739.142   102634684.481        -482.916          41.000    19530744.612    79975101.678        -376.611          38.000  
G13  23899191.696   125591059.767        -637.198          28.000                                                                  
G08  23886183.848   125522746.115       -1991.764          30.000    23886205.293    97809791.928       -1551.672          31.000  
G01  20217681.516   106244604.971       -1984.009          41.000    20217686.068    82787948.385       -1545.930          39.000  
G19  21821264.852   114671519.043        1565.234          34.000                                                                  
G22  21748806.273   114290752.869        2371.490          37.000                                                                  
G03  21655339.596   113799592.247        1766.725          34.000    21655353.886    88675094.153        1376.536          34.000  
G07  20080483.649   105523603.692       -2333.492          38.000    20080489.735    82226156.315       -1818.243          38.000  
G06  22597956.924   118753102.197        3642.657          33.000    22597971.905    92534964.344        2839.185          35.000  
G02  23050322.612   121130184.356       -3214.728          34.000                                                                  
G14  20092294.933   105585720.689        2259.904          39.000    20092299.350    82274628.796        1761.082          40.000  
G17  20518921.192   107827637.575         211.669          39.000    20518924.693    84021575.692         165.083          38.000  
> 2025 04 27 02 31 15.9960000  0 12                     
G30  19530831.081   102635167.803        -483.612          41.000    19530836.565    79975478.260        -376.532          38.000  
G13  23899313.033   125591696.878        -637.044          28.000                                                                  
G08  23886562.881   125524737.592       -1990.966          30.000    23886584.310    97811343.735       -1551.615          31.000  
G01  20218059.040   106246588.793       -1984.213          41.000    20218063.619    82789494.236       -1546.376          39.000  
G19  21820966.947   114669953.570        1565.582          34.000                                                                  
G22  21748354.929   114288381.321        2371.627          37.000                                                                  
G03  21655003.394   113797825.434        1766.514          34.000    21655017.686    88673717.415        1376.993          34.000  
G07  20080927.610   105525936.950       -2333.634          38.000    20080933.848    82227974.418       -1818.103          38.000  
G06  22597263.698   118749459.103        3643.469          32.000    22597278.755    92532125.611        2838.568          35.000  
G02  23050934.335   121133398.372       -3214.134          34.000                                                                  
G14  20091864.770   105583460.459        2260.375          39.000    20091869.155    82272867.583        1761.139          40.000  
G17  20518880.818   107827425.698         211.456          39.000    20518884.415    84021410.611         165.009          38.000  
> 2025 04 27 02 31 16.9960000  0 12                     
G30  19530923.180   102635651.740        -484.448          41.000    19530928.681    79975855.381        -377.466          38.000  
G13  23899434.451   125592334.319        -637.854          28.000                                                                  
G08  23886941.831   125526728.952       -1990.731          31.000    23886963.377    97812895.450       -1551.846          31.000  
G01  20218436.602   106248573.076       -1984.470          41.000    20218441.224    82791040.407       -1546.096          39.000  
G19  21820669.163   114668388.263        1564.918          34.000                                                                  
G22  21747903.582   114286009.756        2371.591          37.000                                                                  
G03  21654667.254   113796058.986        1766.743          35.000    21654681.462    88672340.973        1376.418          34.000  
G07  20081371.762   105528270.637       -2333.919          38.000    20081378.111    82229792.883       -1818.627          38.000  
G06  22596570.524   118745816.312        3642.822          32.000    22596585.491    92529287.058        2838.525          35.000  
G02  23051545.977   121136612.463       -3213.911          34.000                                                                  
G14  20091434.793   105581200.380        2260.197          39.000    20091439.146    82271106.486        1761.152          40.000  
G17  20518840.529   107827213.964         211.805          39.000    20518844.103    84021245.602         165.529          38.000  
> 2025 04 27 02 31 17.9960000  0 12                     
G30  19531015.411   102636136.205        -484.650          41.000    19531020.879    79976232.864        -377.686          38.000  
G13  23899555.840   125592971.997        -637.573          28.000                                                                  
G08  23887320.675   125528720.117       -1990.726          31.000    23887342.352    97814446.973       -1551.632          31.000  
G01  20218814.193   106250557.751       -1984.674          41.000    20218818.835    82792586.916       -1546.547          39.000  
G19  21820371.275   114666823.042        1565.067          34.000                                                                  
G22  21747452.268   114283638.090        2371.635          37.000                                                                  
G03  21654331.046   113794292.832        1766.563          35.000    21654345.409    88670964.756        1376.115          35.000  
G07  20081815.928   105530604.691       -2334.272          38.000    20081822.316    82231611.607       -1818.759          38.000  
G06  22595877.273   118742173.634        3642.773          32.000    22595892.359    92526448.634        2837.842          35.000  
G02  23052157.611   121139826.545       -3213.858          34.000                                                                  
G14  20091004.768   105578940.370        2260.321          39.000    20091009.163    82269345.446        1761.016          40.000  
G17  20518800.284   107827002.289         211.725          39.000    20518803.833    84021080.675         164.783          38.000  
> 2025 04 27 02 31 18.9960000  0 12                     
G30  19531107.714   102636621.481        -485.663          41.000    19531113.250    79976611.005        -378.851          38.000  
G13  23899677.093   125593610.225        -638.309          28.000                                                                  
G08  23887699.559   125530711.360       -1991.403          31.000    23887721.364    97815998.594       -1552.102          31.000  
G01  20219191.843   106252543.100       -1985.731          41.000    20219196.663    82794133.917       -1546.969          39.000  
G19  21820073.383   114665258.129        1564.824          34.000                                                                  
G22  21747000.940   114281266.565        2371.074          37.000                                                                  
G03  21653994.916   113792527.206        1765.803          34.000    21654009.361    88669588.946        1375.364          35.000  
G07  20082260.154   105532939.357       -2334.939          39.000    20082266.565    82233430.814       -1819.228          38.000  
G06  22595184.314   118738531.407        3642.102          32.000    22595199.252    92523610.537        2837.524          35.000  
G02  23052769.287   121143040.855       -3213.746          34.000                                                                  
G14  20090574.703   105576680.724        2259.392          39.000    20090579.179    82267584.664        1760.714          40.000  
G17  20518760.012   107826790.939         210.851          39.000    20518763.658    84020915.975         164.733          38.000  
> 2025 04 27 02 31 19.9960000  0 12                     
G30  19531200.123   102637107.359        -486.212          41.000    19531205.711    79976989.605        -378.949          38.000  
G13  23899798.511   125594248.722        -638.475          28.000                                                                  
G08  23888078.609   125532702.418       -1991.486          31.000    23888100.297    97817550.047       -1551.437          31.000  
G01  20219569.803   106254528.877       -1985.952          41.000    20219574.554    82795681.283       -1547.370          39.000  
G19  21819775.645   114663693.378        1564.703          34.000                                                                  
G22  21746549.608   114278894.989        2371.955          37.000                                                                  
G03  21653658.971   113790761.905        1765.501          35.000    21653673.446    88668213.409        1375.138          35.000  
G07  20082704.510   105535274.434       -2335.063          39.000    20082710.969    82235250.358       -1819.255          38.000  
G06  22594491.387   118734889.351        3642.731          33.000    22594506.209    92520772.586        2837.860          35.000  
G02  23053381.099   121146255.233       -3213.859          34.000                                                                  
G14  20090144.721   105574421.167        2259.459          39.000    20090149.169    82265823.980        1760.632          40.000  
G17  20518719.801   107826579.701         210.940          39.000    20518723.461    84020751.366         164.869          38.000  
> 2025 04 27 02 31 20.9960000  0 12                     
G30  19531292.663   102637593.806        -486.755          41.000    19531298.196    79977368.660        -379.376          38.000  
G13  23899920.227   125594887.595        -639.047          28.000                                                                  
G08  23888457.501   125534693.297       -1990.453          31.000    23888479.158    97819101.408       -1551.749          31.000  
G01  20219947.785   106256515.082       -1986.223          41.000    20219952.601    82797228.982       -1548.029          39.000  
G19  21819477.953   114662128.716        1564.821          34.000                                                                  
G22  21746098.272   114276523.367        2371.464          37.000                                                                  
G03  21653323.058   113788996.952        1764.992          35.000    21653337.648    88666838.096        1375.247          35.000  
G07  20083148.996   105537609.941       -2335.833          39.000    20083155.410    82237070.230       -1820.388          38.000  
G06  22593798.432   118731247.538        3642.041          32.000    22593813.149    92517934.790        2837.817          35.000  
G02  23053992.784   121149469.618       -3213.992          34.000                                                                  
G14  20089714.758   105572161.724        2259.467          39.000    20089719.202    82264063.369        1760.805          40.000  
G17  20518679.669   107826368.545         211.237          39.000    20518683.191    84020586.841         164.594          38.000  
> 2025 04 27 02 31 21.9960000  0 12                     
G30  19531385.353   102638080.844        -487.415          41.000    19531390.979    79977748.176        -380.115          38.000  
G13  23900041.855   125595526.720        -639.619          28.000                                                                  
G08  23888836.461   125536684.075       -1991.038          31.000    23888858.074    97820652.610       -1550.686          31.000  
G01  20220325.853   106258501.727       -1987.036          41.000    20220330.668    82798776.997       -1547.844          39.000  
G19  21819180.242   114660564.199        1564.758          34.000                                                                  
G22  21745647.074   114274151.663        2371.685          37.000                                                                  
G03  21652987.218   113787232.293        1764.587          35.000    21653001.889    88665463.062        1374.724          35.000  
G07  20083593.520   105539945.834       -2336.398          39.000    20083599.904    82238890.407       -1820.689          38.000  
G06  22593105.294   118727605.892        3641.540          32.000    22593120.237    92515097.148        2837.567          34.000  
G02  23054604.367   121152684.060       -3214.566          34.000                                                                  
G14  20089284.796   105569902.406        2258.848          39.000    20089289.324    82262302.854        1760.569          40.000  
G17  20518639.561   107826157.531         210.308          39.000    20518643.072    84020422.415         164.046          38.000  
> 2025 04 27 02 31 22.9960000  0 12                     
G30  19531478.094   102638568.515        -488.000          41.000    19531483.863    79978128.166        -380.414          38.000  
G13  23900163.570   125596166.212        -639.972          28.000                                                                  
G08  23889215.236   125538674.696       -1990.164          31.000    23889236.938    97822203.757       -1551.060          31.000  
G01  20220703.942   106260488.832       -1987.201          41.000    20220708.799    82800325.419       -1548.821          39.000  
G19  21818882.476   114658999.870        1563.944          34.000                                                                  
G22  21745195.823   114271779.935        2372.050          37.000                                                                  
G03  21652651.359   113785468.034        1763.917          35.000    21652666.194    88664088.302        1374.563          35.000  
G07  20084038.111   105542282.154       -2336.417          39.000    20084044.342    82240710.919       -1820.680          38.000  
G06  22592412.168   118723964.513        3641.199          31.000    22592427.284    92512259.700        2836.993          34.000  
G02  23055216.150   121155898.576       -3214.910          34.000                                                                  
G14  20088854.964   105567643.235        2258.984          39.000    20088859.400    82260542.477        1760.026          40.000  
G17  20518599.426   107825946.611         210.936          39.000    20518602.850    84020258.060         164.296          38.000  
> 2025 04 27 02 31 23.9960000  0 12                     
G30  19531571.076   102639056.761        -488.483          41.000    19531576.841    79978508.625        -380.878          38.000  
G13  23900285.241   125596805.889        -639.763          28.000                                                                  
G08  23889594.000   125540665.253       -1991.249          31.000    23889615.909    97823754.782       -1550.920          31.000  
G01  20221082.283   106262476.380       -1987.550          41.000    20221086.903    82801874.144       -1548.801          39.000  
G19  21818584.785   114657435.612        1564.413          34.000                                                                  
G22  21744744.535   114269408.203        2371.699          37.000                                                                  
G03  21652315.646   113783704.086        1763.426          35.000    21652330.543    88662713.807        1374.384          34.000  
G07  20084482.804   105544618.891       -2336.928          39.000    20084488.964    82242531.722       -1821.034          38.000  
G06  22591719.148   118720323.283        3640.997          31.000    22591734.538    92509422.400        2836.841          34.000  
G02  23055827.797   121159113.106       -3214.646          34.000                                                                  
G14  20088425.129   105565384.155        2259.226          39.000    20088429.504    82258782.160        1760.258          40.000  
G17  20518559.310   107825735.834         210.344          39.000    20518562.734    84020093.800         164.282          38.000  
> 2025 04 27 02 31 24.9960000  0 12                     
G30  19531664.117   102639545.662        -489.178          41.000    19531669.894    79978889.581        -381.427          38.000  
G13  23900406.896   125597446.042        -640.326          28.000                                                                  
G08  23889972.726   125542655.532       -1989.064          31.000    23889994.925    97825305.694       -1550.785          31.000  
G01  20221460.559   106264464.436       -1988.230          41.000    20221465.186    82803423.271       -1549.266          39.000  
G19  21818287.094   114655871.578        1563.927          35.000                                                                  
G22  21744293.163   114267036.399        2371.629          37.000                                                                  
G03  21651979.894   113781940.468        1763.629          34.000    21651994.950    88661339.574        1373.982          34.000  
G07  20084927.522   105546956.065       -2337.016          38.000    20084933.621    82244352.906       -1821.420          38.000  
G06  22591025.963   118716682.362        3640.710          32.000    22591041.665    92506585.302        2836.725          35.000  
G02  23056439.540   121162327.730       -3215.211          34.000                                                                  
G14  20087995.278   105563125.273        2259.073          39.000    20087999.740    82257021.993        1760.002          40.000  
G17  20518519.232   107825525.150         210.949          39.000    20518522.532    84019929.662         164.070          38.000  
> 2025 04 27 02 31 25.9960000  0 12                     
G30  19531757.354   102640035.197        -489.996          41.000    19531763.131    79979271.017        -381.921          38.000  
G13  23900528.619   125598086.481        -640.081          27.000                                                                  
G08  23890351.451   125544645.796       -1989.383          31.000    23890373.612    97826856.563       -1550.974          32.000  
G01  20221839.057   106266452.953       -1988.845          40.000    20221843.579    82804972.756       -1549.589          39.000  
G19  21817989.464   114654307.717        1563.462          35.000                                                                  
G22  21743841.819   114264664.635        2371.424          37.000                                                                  
G03  21651644.424   113780177.257        1763.101          34.000    21651659.436    88659965.633        1373.806          34.000  
G07  20085372.436   105549293.730       -2337.968          38.000    20085378.561    82246174.443       -1821.991          38.000  
G06  22590333.059   118713041.661        3640.893          32.000    22590348.874    92503748.421        2836.469          35.000  
G02  23057051.248   121165542.383       -3214.397          34.000                                                                  
G14  20087565.460   105560866.536        2258.524          39.000    20087569.869    82255261.931        1759.951          40.000  
G17  20518479.190   107825314.672         210.380          39.000    20518482.494    84019765.654         163.591          38.000  
> 2025 04 27 02 31 26.9960000  0 12                     
G30  19531850.670   102640525.360        -490.338          41.000    19531856.404    79979652.974        -382.452          38.000  
G13  23900650.405   125598727.378        -641.428          27.000                                                                  
G08  23890730.259   125546636.015       -1989.777          31.000    23890752.581    97828407.337       -1550.534          32.000  
G01  20222217.605   106268441.979       -1989.144          41.000    20222222.120    82806522.643       -1550.197          39.000  
G19  21817691.957   114652744.045        1563.879          34.000                                                                  
G22  21743390.582   114262292.853        2371.591          37.000                                                                  
G03  21651309.029   113778414.449        1762.548          34.000    21651323.920    88658592.008        1373.732          34.000  
G07  20085817.395   105551631.834       -2338.212          38.000    20085823.503    82247996.344       -1822.233          38.000  
G06  22589640.247   118709401.284        3639.813          32.000    22589656.101    92500911.741        2836.804          35.000  
G02  23057662.889   121168757.166       -3214.274          34.000                                                                  
G14  20087135.607   105558607.995        2258.461          39.000    20087140.108    82253502.034        1759.733          40.000  
G17  20518439.141   107825104.344         210.379          39.000    20518442.537    84019601.748         164.177          38.000  
> 2025 04 27 02 31 27.9960000  0 12                     
G30  19531944.138   102641016.170        -491.089          41.000    19531949.951    79980035.406        -382.690          38.000  
G13  23900772.214   125599368.517        -641.266          27.000                                                                  
G08  23891108.749   125548626.059       -1989.585          31.000    23891131.363    97829958.000       -1549.949          32.000  
G01  20222596.053   106270431.463       -1989.790          40.000    20222600.736    82808072.892       -1550.536          39.000  
G19  21817394.525   114651180.518        1564.146          34.000                                                                  
G22  21742939.201   114259921.064        2371.202          37.000                                                                  
G03  21650973.729   113776651.976        1762.443          34.000    21650988.587    88657218.684        1372.996          34.000  
G07  20086262.401   105553970.401       -2339.147          38.000    20086268.532    82249818.565       -1822.511          38.000  
G06  22588947.539   118705761.086        3640.613          32.000    22588963.410    92498075.239        2836.353          35.000  
G02  23058274.698   121171972.071       -3215.142          34.000                                                                  
G14  20086705.831   105556349.601        2258.287          39.000    20086710.406    82251742.227        1759.793          40.000  
G17  20518399.153   107824894.156         210.246          39.000    20518402.548    84019437.963         164.025          38.000  
> 2025 04 27 02 31 28.9960000  0 12                     
G30  19532037.693   102641507.513        -491.595          41.000    19532043.418    79980418.268        -383.252          38.000  
G13  23900894.306   125600009.937        -641.866          27.000                                                                  
G08  23891487.551   125550615.905       -1989.985          31.000    23891510.082    97831508.547       -1550.794          32.000  
G01  20222974.735   106272421.361       -1990.374          40.000    20222979.423    82809623.458       -1550.879          39.000  
G19  21817097.041   114649617.124        1563.478          34.000                                                                  
G22  21742487.761   114257549.139        2371.729          37.000                                                                  
G03  21650638.452   113774889.805        1761.783          34.000    21650653.260    88655845.531        1373.087          34.000  
G07  20086707.460   105556309.311       -2339.447          39.000    20086713.673    82251641.106       -1823.018          38.000  
G06  22588255.005   118702121.068        3639.905          31.000    22588270.694    92495238.885        2835.840          35.000  
G02  23058886.439   121175186.897       -3214.958          34.000                                                                  
G14  20086276.011   105554091.257        2258.586          39.000    20086280.690    82249982.503        1759.596          40.000  
G17  20518359.178   107824684.037         210.012          39.000    20518362.668    84019274.238         163.418          38.000  
> 2025 04 27 02 31 29.9960000  0 12                     
G30  19532131.286   102641999.438        -492.407          41.000    19532136.972    79980801.572        -383.588          38.000  
G13  23901016.427   125600651.645        -641.666          27.000                                                                  
G08  23891866.258   125552605.602       -1988.975          31.000    23891888.615    97833058.939       -1550.654          32.000  
G01  20223353.382   106274411.677       -1990.771          40.000    20223358.135    82811174.355       -1551.332          39.000  
G19  21816799.598   114648053.814        1563.471          34.000                                                                  
G22  21742036.384   114255177.185        2371.838          36.000                                                                  
G03  21650303.246   113773127.948        1761.984          34.000    21650317.939    88654472.674        1372.520          35.000  
G07  20087152.622   105558648.616       -2339.783          39.000    20087158.832    82253463.909       -1822.783          38.000  
G06  22587562.182   118698481.232        3639.514          32.000    22587578.038    92492402.627        2835.968          35.000  
G02  23059498.240   121178401.771       -3215.130          34.000                                                                  
G14  20085846.313   105551833.064        2258.031          39.000    20085850.923    82248222.857        1759.184          40.000  
G17  20518319.211   107824474.004         210.155          39.000    20518322.735    84019110.594         163.043          38.000  
> 2025 04 27 02 31 30.9960000  0 12                     
G30  19532225.030   102642491.907        -492.596          41.000    19532230.727    79981185.329        -384.052          38.000  
G13  23901138.589   125601293.623        -641.423          27.000                                                                  
G08  23892245.036   125554595.139       -1988.450          31.000    23892267.242    97834609.207       -1550.121          31.000  
G01  20223732.181   106276402.405       -1990.935          41.000    20223736.915    82812725.569       -1551.426          39.000  
G19  21816502.140   114646490.641        1563.418          34.000                                                                  
G22  21741585.074   114252805.147        2372.177          37.000                                                                  
G03  21649967.986   113771366.376        1761.138          34.000    21649982.686    88653100.028        1371.867          35.000  
G07  20087597.880   105560988.290       -2339.489          39.000    20087604.110    82255287.050       -1823.237          38.000  
G06  22586869.702   118694841.557        3639.874          32.000    22586885.475    92489566.531        2836.517          35.000  
G02  23060110.043   121181616.655       -3215.090          34.000                                                                  
G14  20085416.611   105549574.941        2257.918          39.000    20085421.138    82246463.267        1759.514          40.000  
G17  20518279.251   107824264.048         210.255          39.000    20518282.713    84018946.974         163.662          38.000  
> 2025 04 27 02 31 31.9960000  0 12                     
G30  19532318.841   102642984.974        -493.396          41.000    19532324.569    79981569.531        -384.479          38.000  
G13  23901260.776   125601935.955        -642.617          27.000                                                                  
G08  23892623.571   125556584.488       -1989.106          31.000    23892645.771    97836159.334       -1550.353          32.000  
G01  20224110.870   106278393.541       -1991.204          41.000    20224115.896    82814277.119       -1552.075          39.000  
G19  21816204.559   114644927.586        1563.128          34.000                                                                  
G22  21741133.573   114250433.061        2371.735          37.000                                                                  
G03  21649632.874   113769605.138        1761.207          35.000    21649647.447    88651727.604        1372.638          35.000  
G07  20088043.246   105563328.358       -2340.195          39.000    20088049.409    82257110.474       -1823.307          38.000  
G06  22586177.300   118691202.120        3639.746          33.000    22586192.901    92486730.612        2836.090          35.000  
G02  23060721.782   121184831.558       -3215.035          34.000                                                                  
G14  20084986.904   105547316.921        2258.025          39.000    20084991.407    82244703.763        1759.700          40.000  
G17  20518239.322   107824054.205         209.816          39.000    20518242.735    84018783.454         163.579          38.000  
> 2025 04 27 02 31 32.9960000  0 12                     
G30  19532412.761   102643478.599        -494.312          41.000    19532418.479    79981954.153        -384.821          38.000  
G13  23901382.970   125602578.494        -642.521          27.000                                                                  
G08  23893002.165   125558573.650       -1989.136          31.000    23893024.298    97837709.319       -1550.649          32.000  
G01  20224489.922   106280385.109       -1992.223          41.000    20224494.825    82815828.954       -1551.909          39.000  
G19  21815907.139   114643364.623        1562.987          34.000                                                                  
G22  21740682.104   114248060.874        2372.156          37.000                                                                  
G03  21649297.670   113767844.200        1760.324          35.000    21649312.314    88650355.485        1371.578          35.000  
G07  20088488.620   105565668.830       -2340.906          39.000    20088494.870    82258934.207       -1823.828          38.000  
G06  22585484.982   118687562.929        3637.921          33.000    22585500.398    92483894.815        2835.626          35.000  
G02  23061333.544   121188046.473       -3215.127          34.000                                                                  
G14  20084557.181   105545058.982        2257.861          40.000    20084561.772    82242944.340        1759.508          40.000  
G17  20518199.458   107823844.438         209.051          39.000    20518202.861    84018619.980         163.476          38.000  
> 2025 04 27 02 31 33.9960000  0 12                     
G30  19532506.755   102643972.748        -494.458          41.000    19532512.529    79982339.226        -385.382          38.000  
G13  23901505.089   125603221.320        -643.267          26.000                                                                  
G08  23893380.806   125560562.632       -1989.641          31.000    23893402.696    97839259.148       -1549.759          32.000  
G01  20224869.044   106282377.061       -1992.455          41.000    20224873.893    82817381.135       -1552.859          39.000  
G19  21815609.678   114641801.745        1562.554          34.000                                                                  
G22  21740230.758   114245688.585        2372.289          37.000                                                                  
G03  21648962.656   113766083.523        1760.206          34.000    21648977.261    88648983.492        1372.053          35.000  
G07  20088934.046   105568009.654       -2341.168          39.000    20088940.311    82260758.227       -1824.675          38.000  
G06  22584792.629   118683923.838        3638.068          33.000    22584807.731    92481059.172        2835.211          35.000  
G02  23061945.418   121191261.384       -3215.296          34.000                                                                  
G14  20084127.497   105542801.141        2257.344          39.000    20084132.122    82241184.977        1759.205          40.000  
G17  20518159.507   107823634.724         209.253          39.000    20518162.858    84018456.564         163.293          38.000  
> 2025 04 27 02 31 34.9960000  0 12                     
G30  19532600.930   102644467.590        -495.172          41.000    19532606.807    79982724.804        -385.913          38.000  
G13  23901627.235   125603864.507        -643.141          26.000                                                                  
G08  23893759.386   125562551.516       -1989.094          31.000    23893781.058    97840808.932       -1550.043          32.000  
G01  20225248.247   106284369.522       -1992.767          40.000    20225253.023    82818933.703       -1552.975          39.000  
G19  21815312.291   114640239.084        1562.272          34.000                                                                  
G22  21739779.296   114243316.339        2372.216          37.000                                                                  
G03  21648627.612   113764323.284        1759.656          35.000    21648642.343    88647611.910        1371.233          35.000  
G07  20089379.665   105570350.951       -2341.432          39.000    20089385.837    82262582.608       -1824.821          38.000  
G06  22584100.241   118680284.973        3638.452          32.000    22584115.326    92478223.736        2835.510          35.000  
G02  23062557.135   121194476.343       -3214.652          34.000                                                                  
G14  20083697.861   105540543.479        2257.368          39.000    20083702.539    82239425.768        1758.977          40.000  
G17  20518119.638   107823425.181         208.991          39.000    20518123.055    84018293.277         163.326          38.000  
> 2025 04 27 02 31 35.9960000  0 12                     
G30  19532695.179   102644963.026        -495.801          41.000    19532701.129    79983110.855        -386.224          38.000  
G13  23901749.597   125604508.027        -643.729          26.000                                                                  
G08  23894137.884   125564540.283       -1989.189          31.000    23894159.252    97842358.587       -1549.597          32.000  
G01  20225627.495   106286362.445       -1993.190          41.000    20225632.319    82820486.620       -1553.417          39.000  
G19  21815014.955   114638676.552        1562.038          34.000                                                                  
G22  21739327.879   114240944.053        2372.032          37.000                                                                  
G03  21648292.736   113762563.375        1759.444          35.000    21648307.402    88646240.551        1370.608          35.000  
G07  20089825.309   105572692.717       -2342.751          39.000    20089831.380    82264407.313       -1825.007          38.000  
G06  22583407.825   118676646.360        3637.970          32.000    22583423.003    92475388.461        2834.961          35.000  
G02  23063169.084   121197691.433       -3215.067          34.000                                                                  
G14  20083268.247   105538285.949        2257.309          39.000    20083272.773    82237666.665        1758.856          40.000  
G17  20518079.706   107823215.745         209.285          39.000    20518083.222    84018130.112         162.865          38.000  
> 2025 04 27 02 31 36.9960000  0 12                     
G30  19532789.566   102645459.168        -496.613          41.000    19532795.543    79983497.442        -386.646          38.000  
G13  23901872.249   125605151.954        -643.995          26.000                                                                  
G08  23894516.422   125566528.986       -1988.949          31.000    23894537.703    97843908.231       -1549.803          32.000  
G01  20226006.870   106288355.908       -1993.830          41.000    20226011.649    82822039.982       -1553.939          39.000  
G19  21814717.713   114637114.278        1561.688          34.000                                                                  
G22  21738876.494   114238571.820        2371.886          37.000                                                                  
G03  21647957.898   113760803.904        1759.389          34.000    21647972.508    88644869.548        1370.291          35.000  
G07  20090271.032   105575034.948       -2342.740          39.000    20090277.189    82266232.464       -1825.828          38.000  
G06  22582715.420   118673008.068        3638.189          32.000    22582730.736    92472553.425        2835.138          35.000  
G02  23063780.842   121200906.642       -3215.272          35.000                                                                  
G14  20082838.764   105536028.655        2257.182          39.000    20082843.242    82235907.730        1758.787          40.000  
G17  20518039.834   107823006.533         209.442          39.000    20518043.320    84017967.096         162.673          37.000  
> 2025 04 27 02 31 37.9960000  0 12                     
G30  19532884.037   102645955.928        -497.058          41.000    19532890.063    79983884.557        -387.585          38.000  
G13  23901994.928   125605796.252        -644.719          26.000                                                                  
G08  23894894.916   125568517.551       -1988.352          31.000    23894916.164    97845457.777       -1549.724          32.000  
G01  20226386.302   106290349.839       -1993.872          41.000    20226391.095    82823593.694       -1554.193          39.000  
G19  21814420.455   114635552.175        1561.564          34.000                                                                  
G22  21738425.029   114236199.551        2372.364          37.000                                                                  
G03  21647623.175   113759044.788        1759.107          34.000    21647637.669    88643498.801        1370.924          35.000  
G07  20090716.873   105577377.601       -2342.310          39.000    20090722.976    82268057.903       -1825.704          38.000  
G06  22582023.083   118669370.044        3637.299          32.000    22582038.444    92469718.608        2835.004          34.000  
G02  23064392.791   121204121.909       -3215.477          35.000                                                                  
G14  20082409.201   105533771.528        2256.933          39.000    20082413.786    82234148.928        1758.576          40.000  
G17  20518000.094   107822797.506         208.638          39.000    20518003.579    84017804.200         162.699          38.000  
> 2025 04 27 02 31 38.9960000  0 12                     
G30  19532978.641   102646453.244        -497.479          41.000    19532984.700    79984272.045        -387.653          39.000  
G13  23902117.456   125606440.795        -644.908          26.000                                                                  
G08  23895273.518   125570506.007       -1988.497          31.000    23895294.464    97847007.153       -1549.147          32.000  
G01  20226765.860   106292344.195       -1994.287          41.000    20226770.560    82825147.703       -1553.999          39.000  
G19  21814123.183   114633990.135        1562.088          33.000                                                                  
G22  21737973.583   114233827.216        2372.554          37.000                                                                  
G03  21647288.572   113757285.973        1758.892          34.000    21647303.016    88642128.300        1370.388          35.000  
G07  20091162.838   105579720.706       -2343.307          39.000    20091168.871    82269883.657       -1825.853          38.000  
G06  22581330.991   118665732.170        3638.196          32.000    22581346.152    92466883.890        2835.010          34.000  
G02  23065004.626   121207337.157       -3215.386          35.000                                                                  
G14  20081979.654   105531514.451        2257.432          39.000    20081984.219    82232390.172        1758.716          40.000  
G17  20517960.318   107822588.499         209.115          39.000    20517963.789    84017641.317         163.377          38.000  
> 2025 04 27 02 31 39.9960000  0 12                     
G30  19533073.424   102646951.147        -498.712          41.000    19533079.380    79984660.034        -388.580          38.000  
G13  23902240.179   125607085.585        -645.060          27.000                                                                  
G08  23895651.861   125572494.223       -1988.069          31.000    23895672.685    97848556.422       -1549.278          31.000  
G01  20227145.527   106294338.973       -1995.258          40.000    20227150.121    82826702.074       -1554.830          39.000  
G19  21813825.954   114632428.232        1561.415          34.000                                                                  
G22  21737522.066   114231454.811        2372.116          37.000                                                                  
G03  21646953.891   113755527.476        1758.656          35.000    21646968.418    88640758.074        1369.610          35.000  
G07  20091608.811   105582064.136       -2343.893          39.000    20091614.846    82271709.720       -1826.560          38.000  
G06  22580638.717   118662094.525        3637.018          32.000    22580653.892    92464049.364        2834.149          34.000  
G02  23065616.423   121210552.426       -3215.105          34.000                                                                  
G14  20081550.158   105529257.521        2256.651          39.000    20081554.820    82230631.525        1758.245          40.000  
G17  20517920.511   107822379.617         208.266          39.000    20517923.980    84017478.569         162.400          38.000  
> 2025 04 27 02 31 40.9960000  0 12                     
G30  19533168.379   102647449.653        -498.834          41.000    19533174.182    79985048.469        -388.843          39.000  
G13  23902362.889   125607730.777        -645.457          27.000                                                                  
G08  23896030.194   125574482.353       -1988.331          30.000    23896051.008    97850105.615       -1549.607          31.000  
G01  20227525.163   106296334.217       -1995.599          41.000    20227529.787    82828256.807       -1555.243          39.000  
G19  21813528.669   114630866.480        1562.176          34.000                                                                  
G22  21737070.599   114229082.373        2372.375          37.000                                                                  
G03  21646619.203   113753769.357        1757.624          35.000    21646633.777    88639388.078        1369.852          35.000  
G07  20092054.884   105584408.039       -2344.315          39.000    20092060.878    82273536.106       -1826.265          37.000  
G06  22579946.501   118658457.068        3637.585          32.000    22579961.675    92461214.999        2834.106          35.000  
G02  23066228.320   121213767.820       -3215.344          34.000                                                                  
G14  20081120.836   105527000.712        2256.859          39.000    20081125.370    82228872.955        1758.661          40.000  
G17  20517880.777   107822170.860         208.482          39.000    20517884.177    84017315.878         162.655          38.000  
> 2025 04 27 02 31 41.9960000  0 12                     
G30  19533263.361   102647948.720        -499.384          41.000    19533269.210    79985437.363        -389.209          39.000  
G13  23902485.635   125608376.200        -645.812          27.000                                                                  
G08  23896408.531   125576470.334       -1988.329          30.000    23896429.367    97851654.709       -1550.179          31.000  
G01  20227904.904   106298329.855       -1995.942          40.000    20227909.550    82829811.861       -1555.532          39.000  
G19  21813231.365   114629304.869        1561.661          34.000                                                                  
G22  21736619.133   114226709.880        2372.617          37.000                                                                  
G03  21646284.623   113752011.498        1758.204          35.000    21646299.280    88638018.372        1369.056          35.000  
G07  20092501.012   105586752.312       -2344.398          39.000    20092506.994    82275362.824       -1827.009          38.000  
G06  22579254.415   118654819.803        3637.463          31.000    22579269.483    92458380.795        2833.899          35.000  
G02  23066840.187   121216983.180       -3215.719          34.000                                                                  
G14  20080691.441   105524744.023        2256.564          39.000    20080696.008    82227114.499        1758.557          40.000  
G17  20517841.065   107821962.171         208.484          39.000    20517844.484    84017153.285         162.432          38.000  
> 2025 04 27 02 31 42.9960000  0 12                     
G30  19533358.463   102648448.433        -499.890          41.000    19533364.259    79985826.742        -389.447          38.000  
G13  23902608.386   125609021.954        -645.844          27.000                                                                  
G08  23896786.678   125578458.163       -1988.136          31.000    23896807.618    97853203.619       -1549.113          31.000  
G01  20228284.933   106300326.004       -1996.553          41.000    20228289.342    82831367.277       -1555.709          39.000  
G19  21812934.126   114627743.394        1561.234          34.000                                                                  
G22  21736167.654   114224337.353        2372.899          37.000                                                                  
G03  21645950.323   113750254.074        1756.978          35.000    21645964.873    88636648.911        1368.936          35.000  
G07  20092947.153   105589097.025       -2344.995          39.000    20092953.122    82277189.856       -1826.945          37.000  
G06  22578562.290   118651182.824        3636.761          32.000    22578577.338    92455546.765        2833.905          35.000  
G02  23067452.084   121220198.622       -3215.741          34.000                                                                  
G14  20080262.046   105522487.498        2256.124          39.000    20080266.575    82225356.163        1758.287          40.000  
G17  20517801.355   107821753.639         208.539          39.000    20517804.803    84016990.799         162.131          38.000  
> 2025 04 27 02 31 43.9960000  0 12                     
G30  19533453.589   102648948.685        -500.519          41.000    19533459.451    79986216.542        -390.131          38.000  
G13  23902731.272   125609667.996        -646.179          28.000                                                                  
G08  23897164.827   125580445.741       -1986.729          30.000    23897185.710    97854752.411       -1549.179          31.000  
G01  20228664.975   106302322.499       -1996.553          41.000    20228669.333    82832922.976       -1555.549          39.000  
G19  21812636.951   114626182.017        1561.779          34.000                                                                  
G22  21735716.235   114221964.744        2372.433          37.000                                                                  
G03  21645615.984   113748496.886        1756.852          35.000    21645630.584    88635279.677        1369.362          35.000  
G07  20093393.394   105591442.119       -2345.421          39.000    20093399.401    82279017.189       -1827.279          38.000  
G06  22577870.153   118647545.970        3636.823          32.000    22577885.414    92452712.886        2833.307          35.000  
G02  23068063.938   121223414.052       -3215.522          34.000                                                                  
G14  20079832.671   105520231.006        2256.522          40.000    20079837.185    82223597.870        1758.318          40.000  
G17  20517761.727   107821545.159         208.561          40.000    20517765.100    84016828.347         162.591          38.000  
> 2025 04 27 02 31 44.9960000  0 12                     
G30  19533548.862   102649449.514        -501.208          41.000    19533554.879    79986606.802        -390.527          38.000  
G13  23902854.271   125610314.317        -646.789          27.000                                                                  
G08  23897543.055   125582433.272       -1987.862          30.000    23897563.878    97856301.036       -1548.227          31.000  
G01  20229044.977   106304319.448       -1997.147          41.000    20229049.269    82834479.059       -1556.536          39.000  
G19  21812339.787   114624620.775        1561.303          34.000                                                                  
G22  21735264.756   114219592.047        2372.818          37.000                                                                  
G03  21645281.656   113746740.038        1756.650          35.000    21645296.189    88633910.704        1368.898          35.000  
G07  20093839.795   105593787.572       -2345.640          39.000    20093845.746    82280844.831       -1827.792          38.000  
G06  22577178.164   118643909.335        3636.139          33.000    22577193.334    92449879.109        2833.807          35.000  
G02  23068675.777   121226629.504       -3215.708          33.000                                                                  
G14  20079403.278   105517974.641        2256.312          40.000    20079407.761    82221839.664        1758.064          40.000  
G17  20517722.137   107821336.802         207.918          40.000    20517725.468    84016665.971         162.352          38.000  
> 2025 04 27 02 31 45.9960000  0 12                     
G30  19533644.247   102649951.004        -501.941          41.000    19533650.295    79986997.549        -390.753          38.000  
G13  23902977.239   125610961.029        -647.313          27.000                                                                  
G08  23897921.051   125584420.685       -1987.863          30.000    23897942.054    97857849.656       -1548.493          32.000  
G01  20229425.055   106306316.898       -1997.917          40.000    20229429.356    82836035.500       -1556.505          39.000  
G19  21812042.704   114623059.741        1560.835          34.000                                                                  
G22  21734813.213   114217219.387        2372.864          37.000                                                                  
G03  21644947.419   113744983.568        1756.452          35.000    21644962.044    88632542.030        1368.785          35.000  
G07  20094286.200   105596133.541       -2346.285          39.000    20094292.179    82282672.824       -1827.926          38.000  
G06  22576486.186   118640272.969        3636.218          33.000    22576501.399    92447045.587        2833.466          35.000  
G02  23069287.703   121229845.071       -3216.127          33.000                                                                  
G14  20078973.927   105515718.485        2255.888          40.000    20078978.436    82220081.608        1757.926          40.000  
G17  20517682.542   107821128.581         208.093          40.000    20517685.865    84016503.756         161.824          38.000  
> 2025 04 27 02 31 46.9960000  0 12                     
G30  19533739.805   102650453.106        -502.344          41.000    19533745.857    79987388.822        -392.114          38.000  
G13  23903100.302   125611608.039        -647.331          28.000                                                                  
G08  23898299.223   125586407.916       -1987.349          30.000    23898320.238    97859398.152       -1548.414          32.000  
G01  20229805.401   106308314.809       -1998.240          41.000    20229809.572    82837592.293       -1556.626          39.000  
G19  21811745.655   114621498.833        1561.016          34.000                                                                  
G22  21734361.679   114214846.702        2372.512          37.000                                                                  
G03  21644613.259   113743227.500        1755.363          34.000    21644627.904    88631173.659        1367.991          35.000  
G07  20094732.709   105598479.918       -2346.481          39.000    20094738.638    82284501.192       -1828.583          38.000  
G06  22575794.225   118636636.849        3636.053          32.000    22575809.496    92444212.248        2833.075          35.000  
G02  23069899.613   121233060.682       -3215.912          34.000                                                                  
G14  20078544.686   105513462.474        2255.671          40.000    20078549.178    82218323.683        1757.760          40.000  
G17  20517643.001   107820920.524         207.937          40.000    20517646.324    84016341.612         161.859          38.000  
> 2025 04 27 02 31 47.9960000  0 12                     
G30  19533835.485   102650955.884        -503.204          41.000    19533841.500    79987780.577        -392.151          38.000  
G13  23903223.627   125612255.431        -647.526          28.000                                                                  
G08  23898677.370   125588395.087       -1987.486          30.000    23898698.439    97860946.571       -1547.219          32.000  
G01  20230185.644   106310313.223       -1998.356          40.000    20230189.850    82839149.536       -1557.673          39.000  
G19  21811448.562   114619938.110        1561.166          34.000                                                                  
G22  21733910.167   114212474.026        2373.057          37.000                                                                  
G03  21644279.252   113741471.793        1754.980          34.000    21644293.733    88629805.579        1367.579          35.000  
G07  20095179.205   105600826.778       -2346.881          39.000    20095185.194    82286329.912       -1829.227          38.000  
G06  22575102.219   118633001.017        3635.455          32.000    22575117.597    92441379.121        2833.112          35.000  
G02  23070511.587   121236276.368       -3215.660          34.000                                                                  
G14  20078115.365   105511206.634        2255.630          40.000    20078119.841    82216565.877        1757.802          40.000  
G17  20517603.383   107820712.640         207.791          39.000    20517606.770    84016179.617         161.986          38.000  
> 2025 04 27 02 31 48.9960000  0 12                     
G30  19533931.234   102651459.330        -503.693          41.000    19533937.360    79988172.853        -392.139          38.000  
G13  23903346.850   125612903.271        -648.785          28.000                                                                  
G08  23899055.622   125590382.235       -1987.865          31.000    23899076.768    97862494.988       -1547.716          31.000  
G01  20230565.970   106312312.199       -1999.493          40.000    20230570.188    82840707.148       -1558.010          39.000  
G19  21811151.501   114618377.662        1560.007          34.000                                                                  
G22  21733458.686   114210101.433        2372.019          37.000                                                                  
G03  21643945.178   113739716.515        1754.578          34.000    21643959.709    88628437.824        1367.968          35.000  
G07  20095625.889   105603174.133       -2347.871          39.000    20095631.878    82288158.997       -1829.635          38.000  
G06  22574410.233   118629365.453        3635.138          32.000    22574425.650    92438546.232        2832.715          35.000  
G02  23071123.586   121239492.195       -3215.186          34.000                                                                  
G14  20077686.074   105508951.000        2255.494          40.000    20077690.630    82214808.268        1757.290          40.000  
G17  20517563.862   107820504.941         207.346          40.000    20517567.216    84016017.761         161.662          38.000  
> 2025 04 27 02 31 49.9960000  0 12                     
G30  19534027.186   102651963.484        -504.517          41.000    19534033.272    79988565.711        -393.158          38.000  
G13  23903470.314   125613551.448        -648.400          28.000                                                                  
G08  23899433.774   125592369.293       -1986.922          31.000    23899454.889    97864043.416       -1549.068          32.000  
G01  20230946.451   106314311.719       -1999.875          40.000    20230950.793    82842265.226       -1558.488          39.000  
G19  21810854.511   114616817.468        1559.857          34.000                                                                  
G22  21733007.254   114207728.862        2372.325          37.000                                                                  
G03  21643611.229   113737961.704        1754.356          34.000    21643625.716    88627070.460        1366.735          35.000  
G07  20096072.721   105605522.046       -2348.555          39.000    20096078.682    82289988.506       -1829.686          38.000  
G06  22573718.568   118625730.236        3634.881          32.000    22573733.949    92435713.612        2832.361          35.000  
G02  23071735.538   121242708.237       -3216.085          34.000                                                                  
G14  20077256.895   105506695.642        2255.174          40.000    20077261.434    82213050.849        1757.065          40.000  
G17  20517524.398   107820297.478         207.161          39.000    20517527.765    84015856.117         161.435          38.000  
> 2025 04 27 02 31 50.9960000  0 12                     
G30  19534123.165   102652468.270        -505.127          41.000    19534129.347    79988959.037        -393.427          38.000  
G13  23903593.715   125614200.000        -648.677          28.000                                                                  
G08  23899811.927   125594356.312       -1987.383          31.000    23899833.167    97865591.637       -1547.639          32.000  
G01  20231327.054   106316311.704       -2000.500          40.000    20231331.366    82843823.642       -1558.737          39.000  
G19  21810557.646   114615257.358        1560.834          34.000                                                                  
G22  21732555.781   114205356.295        2372.309          37.000                                                                  
G03  21643277.363   113736207.223        1754.032          34.000    21643291.790    88625703.338        1366.404          35.000  
G07  20096519.532   105607870.345       -2348.313          39.000    20096525.539    82291818.344       -1829.742          38.000  
G06  22573026.951   118622095.275        3634.546          32.000    22573042.233    92432881.172        2832.153          35.000  
G02  23072347.575   121245924.279       -3215.400          35.000                                                                  
G14  20076827.773   105504440.414        2255.174          40.000    20076832.246    82211293.503        1757.459          40.000  
G17  20517484.950   107820090.171         207.063          39.000    20517488.281    84015694.570         161.511          38.000  
> 2025 04 27 02 31 51.9960000  0 12                     
G30  19534219.396   102652973.628        -505.817          41.000    19534225.519    79989352.818        -394.043          38.000  
G13  23903717.095   125614848.855        -649.187          28.000                                                                  
G08  23900190.029   125596343.083       -1986.770          31.000    23900211.201    97867139.803       -1548.313          32.000  
G01  20231707.943   106318312.091       -2000.873          40.000    20231712.159    82845382.391       -1559.008          39.000  
G19  21810260.891   114613697.446        1559.765          34.000                                                                  
G22  21732104.249   114202983.632        2372.549          37.000                                                                  
G03  21642943.418   113734453.085        1753.761          35.000    21642957.966    88624336.485        1366.155          35.000  
G07  20096966.451   105610219.050       -2349.102          39.000    20096972.518    82293648.515       -1830.277          38.000  
G06  22572335.514   118618460.484        3634.821          33.000    22572350.559    92430048.898        2831.903          35.000  
G02  23072959.663   121249140.385       -3216.150          34.000                                                                  
G14  20076398.591   105502185.297        2254.946          40.000    20076403.170    82209536.286        1756.887          40.000  
G17  20517445.502   107819882.909         207.255          39.000    20517448.862    84015533.084         161.175          38.000  
> 2025 04 27 02 31 52.9960000  0 12                     
G30  19534315.716   102653479.637        -506.384          41.000    19534321.752    79989747.132        -394.635          38.000  
G13  23903840.675   125615498.102        -649.896          28.000                                                                  
G08  23900567.986   125598329.756       -1985.760          31.000    23900589.412    97868687.852       -1547.026          32.000  
G01  20232088.636   106320312.998       -2001.028          40.000    20232092.882    82846941.520       -1558.959          39.000  
G19  21809964.111   114612137.686        1560.189          34.000                                                                  
G22  21731652.839   114200610.999        2372.855          36.000                                                                  
G03  21642609.617   113732699.349        1753.645          35.000    21642624.323    88622969.908        1366.542          35.000  
G07  20097413.521   105612568.232       -2349.147          39.000    20097419.512    82295479.063       -1830.907          38.000  
G06  22571643.962   118614826.000        3634.082          33.000    22571658.771    92427216.784        2832.660          35.000  
G02  23073571.748   121252356.558       -3215.894          34.000                                                                  
G14  20075969.416   105499930.369        2255.029          40.000    20075974.008    82207779.198        1757.135          40.000  
G17  20517406.092   107819675.846         207.124          39.000    20517409.510    84015371.739         161.080          38.000  
> 2025 04 27 02 31 53.9960000  0 12                     
G30  19534412.100   102653986.249        -506.653          41.000    19534418.046    79990141.867        -394.733          38.000  
G13  23903964.271   125616147.618        -649.713          29.000                                                                  
G08  23900945.931   125600316.375       -1986.480          31.000    23900967.419    97870235.884       -1548.283          32.000  
G01  20232469.390   106322314.356       -2001.346          41.000    20232473.752    82848501.033       -1559.420          39.000  
G19  21809667.359   114610578.107        1559.662          34.000                                                                  
G22  21731201.389   114198238.361        2372.313          37.000                                                                  
G03  21642276.086   113730945.958        1753.599          35.000    21642290.657    88621603.651        1366.024          35.000  
G07  20097860.569   105614917.864       -2349.669          39.000    20097866.630    82297309.905       -1830.663          38.000  
G06  22570952.470   118611191.712        3634.357          32.000    22570967.135    92424384.890        2832.385          35.000  
G02  23074183.839   121255572.797       -3215.844          34.000                                                                  
G14  20075540.407   105497675.580        2254.820          40.000    20075544.824    82206022.216        1756.948          40.000  
G17  20517366.707   107819468.902         207.222          39.000    20517370.243    84015210.459         161.599          38.000  
> 2025 04 27 02 31 54.9960000  0 12                     
G30  19534508.642   102654493.547        -507.605          41.000    19534514.711    79990537.164        -395.526          38.000  
G13  23904087.995   125616797.508        -649.885          29.000                                                                  
G08  23901323.929   125602302.915       -1985.804          31.000    23901345.346    97871783.767       -1547.796          32.000  
G01  20232850.259   106324316.245       -2001.984          41.000    20232854.633    82850060.934       -1560.031          39.000  
G19  21809370.601   114609018.709        1559.475          34.000                                                                  
G22  21730749.815   114195865.700        2372.733          36.000                                                                  
G03  21641942.545   113729192.976        1752.946          35.000    21641957.123    88620237.678        1365.944          35.000  
G07  20098307.816   105617267.951       -2350.090          39.000    20098313.878    82299141.156       -1831.411          38.000  
G06  22570261.073   118607557.745        3633.557          32.000    22570275.647    92421553.209        2831.879          35.000  
G02  23074795.897   121258789.165       -3215.944          34.000                                                                  
G14  20075111.419   105495420.991        2254.802          40.000    20075115.702    82204265.400        1756.837          40.000  
G17  20517327.388   107819262.159         206.894          39.000    20517330.949    84015049.369         161.122          38.000  
> 2025 04 27 02 31 55.9960000  0 12                     
G30  19534605.211   102655001.501        -508.313          41.000    19534611.279    79990932.968        -396.002          38.000  
G13  23904211.910   125617447.805        -650.462          29.000                                                                  
G08  23901701.861   125604289.357       -1986.589          31.000    23901723.266    97873331.642       -1547.871          32.000  
G01  20233231.247   106326318.642       -2002.733          41.000    20233235.685    82851621.256       -1560.686          39.000  
G19  21809073.855   114607459.541        1559.077          34.000                                                                  
G22  21730298.247   114193493.083        2372.738          37.000                                                                  
G03  21641609.023   113727440.423        1752.426          35.000    21641623.621    88618872.084        1365.028          34.000  
G07  20098755.162   105619618.552       -2350.942          39.000    20098761.237    82300972.770       -1831.953          38.000  
G06  22569569.777   118603924.038        3633.301          32.000    22569584.206    92418721.771        2831.403          35.000  
G02  23075407.927   121262005.645       -3216.891          34.000                                                                  
G14  20074682.510   105493166.623        2254.210          40.000    20074686.631    82202508.732        1756.635          40.000  
G17  20517288.071   107819055.590         206.395          39.000    20517291.683    84014888.414         160.776          38.000  
> 2025 04 27 02 31 56.9960000  0 12                     
G30  19534701.991   102655510.203        -509.235          41.000    19534708.098    79991329.354        -396.564          38.000  
G13  23904335.718   125618098.525        -650.676          29.000                                                                  
G08  23902079.927   125606275.830       -1987.466          31.000    23902101.240    97874879.529       -1548.302          31.000  
G01  20233612.496   106328321.622       -2003.564          40.000    20233616.761    82853181.993       -1560.936          39.000  
G19  21808777.238   114605900.676        1558.199          34.000                                                                  
G22  21729846.848   114191120.568        2372.315          37.000                                                                  
G03  21641275.579   113725688.331        1751.663          34.000    21641290.208    88617506.818        1364.610          34.000  
G07  20099202.545   105621969.675       -2351.367          39.000    20099208.690    82302804.822       -1832.483          38.000  
G06  22568878.587   118600290.700        3633.252          33.000    22568892.796    92415890.612        2830.841          35.000  
G02  23076019.915   121265222.293       -3216.794          35.000                                                                  
G14  20074253.571   105490912.505        2253.865          40.000    20074257.615    82200752.263        1756.409          39.000  
G17  20517248.850   107818849.280         206.063          39.000    20517252.437    84014727.645         160.520          38.000  
> 2025 04 27 02 31 57.9960000  0 12                     
G30  19534798.904   102656019.475        -509.473          41.000    19534805.103    79991726.208        -397.174          38.000  
G13  23904459.769   125618749.602        -650.837          29.000                                                                  
G08  23902457.778   125608262.048       -1985.475          31.000    23902479.189    97876427.260       -1547.543          31.000  
G01  20233993.717   106330325.038       -2003.396          40.000    20233997.933    82854743.119       -1561.344          39.000  
G19  21808480.692   114604341.911        1558.201          34.000                                                                  
G22  21729395.371   114188748.011        2372.423          37.000                                                                  
G03  21640942.215   113723936.577        1751.193          35.000    21640956.838    88616141.817        1364.673          34.000  
G07  20099649.960   105624321.228       -2351.919          39.000    20099656.194    82304637.171       -1832.539          38.000  
G06  22568187.281   118596657.580        3633.307          33.000    22568201.386    92413059.626        2830.854          35.000  
G02  23076631.918   121268438.993       -3217.298          35.000                                                                  
G14  20073824.631   105488658.525        2253.571          40.000    20073828.770    82198995.926        1756.313          40.000  
G17  20517209.589   107818643.088         205.892          39.000    20517213.175    84014566.969         160.608          38.000  
> 2025 04 27 02 31 58.9960000  0 12                     
G30  19534895.886   102656529.386        -510.266          41.000    19534902.039    79992123.543        -397.583          38.000  
G13  23904583.730   125619400.979        -651.218          29.000                                                                  
G08  23902835.780   125610248.222       -1985.708          31.000    23902857.085    97877974.920       -1547.497          31.000  
G01  20234375.013   106332328.930       -2004.055          40.000    20234379.237    82856304.573       -1561.592          39.000  
G19  21808184.279   114602783.272        1559.187          33.000                                                                  
G22  21728943.697   114186375.411        2372.905          37.000                                                                  
G03  21640608.952   113722185.193        1751.007          35.000    21640623.555    88614777.077        1364.701          35.000  
G07  20100097.536   105626673.198       -2352.300          39.000    20100103.709    82306469.867       -1832.925          38.000  
G06  22567495.966   118593024.716        3632.416          32.000    22567510.002    92410228.802        2830.506          35.000  
G02  23077244.166   121271655.746       -3217.275          34.000                                                                  
G14  20073395.735   105486404.679        2253.746          40.000    20073399.848    82197239.696        1756.010          40.000  
G17  20517170.344   107818437.032         205.762          39.000    20517174.005    84014406.395         160.631          38.000  
> 2025 04 27 02 31 59.9960000  0 12                     
G30  19534993.033   102657039.890        -510.675          41.000    19534999.291    79992521.324        -397.913          38.000  
G13  23904707.879   125620052.730        -652.202          29.000                                                                  
G08  23903213.753   125612234.256       -1986.125          31.000    23903234.895    97879522.436       -1547.350          31.000  
G01  20234756.324   106334333.245       -2004.199          41.000    20234760.701    82857866.391       -1562.070          39.000  
G19  21807887.595   114601224.833        1558.256          34.000                                                                  
G22  21728492.249   114184002.783        2372.831          37.000                                                                  
G03  21640275.821   113720434.137        1750.801          35.000    21640290.372    88613412.645        1364.120          35.000  
G07  20100545.243   105629025.583       -2352.374          39.000    20100551.363    82308302.908       -1833.512          38.000  
G06  22566804.752   118589391.996        3633.001          32.000    22566818.878    92407398.162        2830.701          35.000  
G02  23077856.341   121274872.514       -3216.863          34.000                                                                  
G14  20072966.890   105484150.969        2253.648          40.000    20072971.018    82195483.564        1755.911          40.000  
G17  20517131.123   107818231.074         205.904          39.000    20517134.840    84014245.922         160.535          38.000  
> 2025 04 27 02 32 00.9960000  0 12                     
G30  19535090.462   102657551.056        -511.499          41.000    19535096.494    79992919.635        -398.663          38.000  
G13  23904831.970   125620704.777        -652.512          29.000                                                                  
G08  23903591.723   125614220.195       -1985.975          31.000    23903612.848    97881069.946       -1547.526          31.000  
G01  20235137.697   106336338.101       -2005.012          41.000    20235142.197    82859428.606       -1562.518          39.000  
G19  21807591.021   114599666.558        1558.560          34.000                                                                  
G22  21728040.706   114181630.174        2372.865          37.000                                                                  
G03  21639942.661   113718683.479        1750.567          35.000    21639957.151    88612048.488        1364.104          35.000  
G07  20100992.940   105631378.456       -2352.988          39.000    20100999.062    82310136.254       -1833.069          38.000  
G06  22566113.386   118585759.619        3632.117          32.000    22566127.659    92404567.714        2830.402          35.000  
G02  23078468.479   121278089.409       -3217.099          34.000                                                                  
G14  20072538.035   105481897.449        2253.377          40.000    20072542.182    82193727.570        1755.917          40.000  
G17  20517091.988   107818025.280         205.974          39.000    20517095.593    84014085.573         160.052          38.000  
> 2025 04 27 02 32 01.9960000  0 12                     
G30  19535187.881   102658062.771        -512.164          41.000    19535193.845    79993318.389        -399.493          38.000  
G13  23904956.263   125621357.081        -652.339          28.000                                                                  
G08  23903969.627   125616205.959       -1985.972          31.000    23903990.695    97882617.264       -1547.504          31.000  
G01  20235519.272   106338343.342       -2005.326          41.000    20235523.797    82860991.130       -1562.925          39.000  
G19  21807294.520   114598108.418        1557.947          34.000                                                                  
G22  21727589.114   114179257.493        2372.811          37.000                                                                  
G03  21639609.537   113716933.130        1750.215          35.000    21639624.068    88610684.600        1364.041          35.000  
G07  20101440.738   105633731.687       -2353.428          39.000    20101446.843    82311969.981       -1834.114          38.000  
G06  22565422.036   118582127.410        3632.507          32.000    22565436.476    92401737.452        2829.974          35.000  
G02  23079080.694   121281306.322       -3217.222          34.000                                                                  
G14  20072109.274   105479644.025        2253.304          40.000    20072113.476    82191971.666        1755.683          40.000  
G17  20517052.796   107817819.586         205.714          39.000    20517056.416    84013925.292         159.926          38.000  
> 2025 04 27 02 32 02.9960000  0 12                     
G30  19535285.415   102658575.121        -512.866          41.000    19535291.299    79993717.579        -399.292          38.000  
G13  23905080.503   125622009.740        -652.692          28.000                                                                  
G08  23904347.489   125618191.624       -1986.331          31.000    23904368.556    97884164.493       -1547.392          31.000  
G01  20235900.932   106340349.053       -2005.938          41.000    20235905.433    82862554.027       -1563.390          39.000  
G19  21806998.140   114596550.375        1558.372          34.000                                                                  
G22  21727137.536   114176884.762        2373.034          37.000                                                                  
G03  21639276.551   113715183.124        1750.319          35.000    21639290.989    88609320.978        1363.507          35.000  
G07  20101888.624   105636085.375       -2354.202          39.000    20101894.723    82313803.983       -1834.083          38.000  
G06  22564730.969   118578495.447        3632.263          32.000    22564745.311    92398907.313        2830.274          35.000  
G02  23079692.895   121284523.220       -3216.439          34.000                                                                  
G14  20071680.454   105477390.758        2253.126          40.000    20071684.637    82190215.858        1755.688          40.000  
G17  20517013.659   107817614.030         205.183          39.000    20517017.310    84013765.112         160.009          38.000  
> 2025 04 27 02 32 03.9960000  0 12                     
G30  19535383.107   102659088.043        -513.330          41.000    19535389.008    79994117.257        -399.731          38.000  
G13  23905204.842   125622662.731        -653.181          28.000                                                                  
G08  23904725.308   125620177.080       -1986.046          31.000    23904746.328    97885711.643       -1547.378          31.000  
G01  20236282.769   106342355.211       -2006.625          40.000    20236287.035    82864117.233       -1563.435          39.000  
G19  21806701.676   114594992.531        1557.959          34.000                                                                  
G22  21726686.122   114174511.997        2372.970          37.000                                                                  
G03  21638943.635   113713433.512        1749.303          35.000    21638958.128    88607957.623        1363.207          35.000  
G07  20102336.626   105638439.436       -2354.103          39.000    20102342.753    82315638.327       -1834.326          38.000  
G06  22564039.886   118574863.755        3631.390          32.000    22564054.278    92396077.399        2829.468          35.000  
G02  23080305.009   121287740.235       -3216.778          34.000                                                                  
G14  20071251.733   105475137.606        2253.023          40.000    20071255.892    82188460.150        1755.839          40.000  
G17  20516974.600   107817408.559         205.535          39.000    20516978.231    84013605.016         159.942          38.000  
> 2025 04 27 02 32 04.9960000  0 12                     
G30  19535480.905   102659601.714        -513.879          41.000    19535486.720    79994517.549        -400.623          38.000  
G13  23905329.061   125623316.166        -653.554          28.000                                                                  
G08  23905103.325   125622162.571       -1984.917          31.000    23905124.160    97887258.737       -1547.029          31.000  
G01  20236664.524   106344361.948       -2006.794          40.000    20236668.907    82865680.939       -1564.066          39.000  
G19  21806405.189   114593434.949        1557.840          35.000                                                                  
G22  21726234.566   114172139.345        2372.766          37.000                                                                  
G03  21638610.785   113711684.365        1749.050          35.000    21638625.240    88606594.644        1362.693          35.000  
G07  20102784.705   105640794.093       -2354.861          39.000    20102790.752    82317473.135       -1835.190          37.000  
G06  22563348.717   118571232.369        3630.664          32.000    22563363.218    92393247.761        2829.486          35.000  
G02  23080917.309   121290957.399       -3216.501          34.000                                                                  
G14  20070823.061   105472884.741        2252.833          40.000    20070827.249    82186704.676        1755.484          40.000  
G17  20516935.542   107817203.373         204.889          39.000    20516939.249    84013445.098         160.234          38.000  
> 2025 04 27 02 32 05.9960000  0 12                     
G30  19535578.801   102660115.979        -514.685          41.000    19535584.616    79994918.260        -401.038          38.000  
G13  23905453.458   125623969.861        -654.056          28.000                                                                  
G08  23905481.383   125624147.924       -1986.326          31.000    23905501.965    97888805.719       -1546.350          31.000  
G01  20237046.571   106346369.108       -2007.347          40.000    20237050.912    82867244.978       -1564.609          39.000  
G19  21806108.922   114591877.500        1557.619          34.000                                                                  
G22  21725783.086   114169766.652        2372.448          37.000                                                                  
G03  21638278.075   113709935.522        1748.585          35.000    21638292.391    88605231.908        1362.572          35.000  
G07  20103232.852   105643149.133       -2355.365          39.000    20103239.005    82319308.210       -1835.533          37.000  
G06  22562657.740   118567601.154        3630.994          32.000    22562672.190    92390418.286        2829.114          35.000  
G02  23081529.491   121294174.657       -3217.566          34.000                                                                  
G14  20070394.361   105470631.983        2252.586          40.000    20070398.601    82184949.280        1755.250          40.000  
G17  20516896.463   107816998.269         204.900          39.000    20516900.298    84013285.287         159.748          38.000  
> 2025 04 27 02 32 06.9960000  0 12                     
G30  19535676.796   102660630.908        -514.966          41.000    19535682.613    79995319.494        -401.556          38.000  
G13  23905577.966   125624623.936        -653.900          28.000                                                                  
G08  23905859.039   125626133.187       -1985.571          31.000    23905879.759    97890352.690       -1546.268          31.000  
G01  20237428.686   106348376.811       -2007.994          40.000    20237432.981    82868809.390       -1564.757          39.000  
G19  21805812.613   114590320.256        1557.129          34.000                                                                  
G22  21725331.602   114167393.954        2372.604          37.000                                                                  
G03  21637945.200   113708187.129        1747.706          35.000    21637959.768    88603869.515        1362.290          35.000  
G07  20103681.133   105645504.661       -2356.008          39.000    20103687.146    82321143.666       -1835.597          38.000  
G06  22561966.518   118563970.247        3631.189          31.000    22561981.167    92387589.012        2828.796          35.000  
G02  23082141.767   121297391.954       -3216.987          34.000                                                                  
G14  20069965.697   105468379.438        2252.267          40.000    20069969.969    82183194.054        1755.100          40.000  
G17  20516857.439   107816793.360         204.491          39.000    20516861.360    84013125.609         159.815          38.000  
> 2025 04 27 02 32 07.9960000  0 12                     
G30  19535774.955   102661146.610        -515.906          41.000    19535780.703    79995721.349        -402.173          38.000  
G13  23905702.519   125625278.515        -654.570          29.000                                                                  
G08  23906236.713   125628118.477       -1985.373          30.000    23906257.569    97891899.663       -1546.951          31.000  
G01  20237810.810   106350385.098       -2008.212          40.000    20237815.149    82870374.310       -1565.245          39.000  
G19  21805516.297   114588763.326        1557.168          35.000                                                                  
G22  21724880.104   114165021.407        2372.775          37.000                                                                  
G03  21637612.573   113706439.216        1747.634          35.000    21637627.083    88602507.492        1362.291          35.000  
G07  20104129.459   105647860.754       -2355.978          39.000    20104135.497    82322979.624       -1836.582          37.000  
G06  22561275.642   118560339.771        3630.328          32.000    22561290.275    92384760.057        2828.888          35.000  
G02  23082754.028   121300609.512       -3217.553          34.000                                                                  
G14  20069537.154   105466127.191        2252.408          40.000    20069541.321    82181439.062        1754.973          40.000  
G17  20516818.495   107816588.705         204.939          39.000    20516822.380    84012966.158         159.455          38.000  
> 2025 04 27 02 32 08.9960000  0 12                     
G30  19535873.235   102661663.012        -516.602          41.000    19535879.032    79996123.737        -402.710          38.000  
G13  23905827.145   125625933.523        -654.681          29.000                                                                  
G08  23906614.479   125630103.722       -1985.612          30.000    23906635.417    97893446.555       -1546.410          31.000  
G01  20238193.144   106352393.948       -2008.927          40.000    20238197.463    82871939.608       -1565.208          39.000  
G19  21805220.009   114587206.637        1556.748          35.000                                                                  
G22  21724428.615   114162648.918        2372.197          37.000                                                                  
G03  21637280.086   113704691.715        1747.347          35.000    21637294.582    88601145.873        1360.936          34.000  
G07  20104578.011   105650217.399       -2356.793          39.000    20104584.014    82324815.926       -1836.409          38.000  
G06  22560584.730   118556709.554        3630.316          32.000    22560599.519    92381931.349        2828.333          35.000  
G02  23083366.349   121303827.170       -3217.758          34.000                                                                  
G14  20069108.570   105463875.167        2252.268          40.000    20069112.791    82179684.218        1755.253          40.000  
G17  20516779.604   107816384.296         204.279          39.000    20516783.519    84012806.869         159.197          38.000  
> 2025 04 27 02 32 09.9960000  0 12                     
G30  19535971.638   102662179.954        -517.102          41.000    19535977.383    79996526.545        -403.296          38.000  
G13  23905951.923   125626588.772        -655.284          29.000                                                                  
G08  23906992.207   125632088.767       -1984.939          30.000    23907013.255    97894993.418       -1547.208          31.000  
G01  20238575.487   106354403.190       -2009.303          40.000    20238579.790    82873505.253       -1565.718          39.000  
G19  21804923.792   114585650.050        1556.128          35.000                                                                  
G22  21723977.050   114160276.324        2372.548          37.000                                                                  
G03  21636947.736   113702944.551        1747.029          35.000    21636962.048    88599784.407        1361.095          34.000  
G07  20105026.532   105652574.426       -2358.002          39.000    20105032.576    82326652.554       -1836.865          38.000  
G06  22559894.030   118553079.544        3630.249          32.000    22559908.664    92379102.766        2828.375          35.000  
G02  23083978.629   121307044.834       -3217.844          34.000                                                                  
G14  20068680.091   105461623.242        2251.713          40.000    20068684.340    82177929.494        1754.592          40.000  
G17  20516740.709   107816179.954         204.060          39.000    20516744.600    84012647.616         159.481          38.000  
> 2025 04 27 02 32 10.9960000  0 12                     
G30  19536070.075   102662697.502        -517.871          41.000    19536075.928    79996929.813        -403.516          38.000  
G13  23906076.516   125627244.354        -655.705          28.000                                                                  
G08  23907369.844   125634073.698       -1984.900          30.000    23907391.167    97896540.091       -1547.247          31.000  
G01  20238957.946   106356412.882       -2010.129          40.000    20238962.278    82875071.253       -1566.208          39.000  
G19  21804627.572   114584093.581        1556.400          35.000                                                                  
G22  21723525.549   114157903.681        2372.869          37.000                                                                  
G03  21636615.291   113701197.760        1745.977          35.000    21636629.696    88598423.263        1360.783          34.000  
G07  20105475.122   105654931.812       -2358.038          39.000    20105481.113    82328489.476       -1836.884          38.000  
G06  22559203.348   118549449.807        3628.412          32.000    22559217.979    92376274.361        2828.741          35.000  
G02  23084590.922   121310262.541       -3217.645          35.000                                                                  
G14  20068251.580   105459371.437        2251.703          40.000    20068255.878    82176174.834        1754.599          40.000  
G17  20516701.812   107815975.716         204.078          39.000    20516705.822    84012488.494         158.954          38.000  
> 2025 04 27 02 32 11.9960000  0 12                     
G30  19536168.801   102663215.656        -518.359          41.000    19536174.592    79997333.567        -403.894          38.000  
G13  23906201.498   125627900.258        -655.966          28.000                                                                  
G08  23907747.602   125636058.483       -1984.622          30.000    23907769.076    97898086.668       -1546.843          31.000  
G01  20239340.443   106358423.029       -2010.525          40.000    20239344.770    82876637.591       -1566.484          39.000  
G19  21804331.361   114582537.264        1556.613          35.000                                                                  
G22  21723074.174   114155531.019        2372.648          37.000                                                                  
G03  21636282.946   113699451.258        1745.948          34.000    21636297.337    88597062.377        1360.653          34.000  
G07  20105923.860   105657289.621       -2357.806          39.000    20105929.716    82330326.740       -1837.496          38.000  
G06  22558512.604   118545820.222        3629.517          32.000    22558527.356    92373446.162        2827.704          35.000  
G02  23085203.343   121313480.268       -3217.416          35.000                                                                  
G14  20067822.979   105457119.782        2251.468          40.000    20067827.423    82174420.305        1754.267          40.000  
G17  20516662.905   107815771.609         203.946          39.000    20516666.972    84012329.421         159.292          38.000  
> 2025 04 27 02 32 12.9960000  0 12                     
G30  19536267.445   102663734.406        -519.189          41.000    19536273.217    79997737.763        -404.193          38.000  
G13  23906326.303   125628556.373        -655.834          28.000                                                                  
G08  23908125.141   125638043.060       -1983.789          30.000    23908146.740    97899633.110       -1546.331          31.000  
G01  20239722.954   106360433.610       -2011.050          40.000    20239727.358    82878204.287       -1567.195          39.000  
G19  21804035.276   114580981.081        1555.915          35.000                                                                  
G22  21722622.785   114153158.282        2372.659          37.000                                                                  
G03  21635950.667   113697705.115        1745.770          34.000    21635964.990    88595701.769        1360.332          34.000  
G07  20106372.684   105659647.863       -2358.158          39.000    20106378.484    82332164.310       -1837.656          38.000  
G06  22557821.937   118542190.850        3629.858          32.000    22557836.555    92370618.101        2827.735          35.000  
G02  23085815.742   121316698.062       -3217.720          35.000                                                                  
G14  20067394.526   105454868.242        2251.401          40.000    20067398.949    82172665.851        1754.301          40.000  
G17  20516624.072   107815567.593         203.693          39.000    20516628.017    84012170.454         159.004          38.000  
> 2025 04 27 02 32 13.9960000  0 12                     
G30  19536366.299   102664253.745        -519.653          41.000    19536372.022    79998142.460        -404.669          38.000  
G13  23906451.276   125629212.939        -656.952          28.000                                                                  
G08  23908502.637   125640027.601       -1984.132          30.000    23908524.521    97901179.469       -1546.737          31.000  
G01  20240105.509   106362444.635       -2011.158          40.000    20240109.937    82879771.291       -1566.890          39.000  
G19  21803739.193   114579425.081        1555.750          35.000                                                                  
G22  21722171.270   114150785.544        2372.924          37.000                                                                  
G03  21635618.519   113695959.308        1746.160          34.000    21635632.812    88594341.394        1360.139          34.000  
G07  20106821.519   105662006.536       -2358.892          39.000    20106827.430    82334002.208       -1837.990          38.000  
G06  22557131.244   118538561.759        3629.437          32.000    22557145.961    92367790.247        2827.112          35.000  
G02  23086428.202   121319915.906       -3217.760          35.000                                                                  
G14  20066966.101   105452616.846        2251.337          40.000    20066970.498    82170911.520        1754.291          40.000  
G17  20516585.233   107815363.693         203.587          39.000    20516589.232    84012011.594         158.548          38.000  
> 2025 04 27 02 32 14.9960000  0 12                     
G30  19536465.175   102664773.607        -520.380          41.000    19536470.934    79998547.548        -405.493          38.000  
G13  23906576.198   125629869.644        -656.806          28.000                                                                  
G08  23908880.245   125642011.862       -1984.104          30.000    23908901.927    97902725.641       -1546.985          31.000  
G01  20240488.368   106364456.037       -2011.907          40.000    20240492.764    82881338.629       -1567.886          39.000  
G19  21803443.170   114577869.084        1556.086          35.000                                                                  
G22  21721719.872   114148412.671        2372.958          37.000                                                                  
G03  21635286.397   113694213.813        1745.131          35.000    21635300.711    88592981.262        1359.521          34.000  
G07  20107270.430   105664365.494       -2358.804          39.000    20107276.416    82335840.382       -1838.218          38.000  
G06  22556440.808   118534932.804        3628.625          33.000    22556455.354    92364962.475        2827.344          35.000  
G02  23087040.538   121323133.682       -3217.665          35.000                                                                  
G14  20066537.715   105450365.506        2250.990          40.000    20066542.080    82169157.198        1754.531          40.000  
G17  20516546.439   107815159.837         203.732          39.000    20516550.391    84011852.718         159.209          38.000  
> 2025 04 27 02 32 15.9960000  0 12                     
G30  19536564.237   102665293.966        -520.673          41.000    19536570.038    79998953.024        -406.097          38.000  
G13  23906701.138   125630526.536        -656.550          28.000                                                                  
G08  23909257.800   125643995.927       -1983.969          30.000    23909279.407    97904271.675       -1547.140          31.000  
G01  20240871.212   106366467.752       -2011.791          41.000    20240875.625    82882906.210       -1568.049          39.000  
G19  21803147.145   114576313.134        1555.898          34.000                                                                  
G22  21721268.261   114146039.667        2373.028          37.000                                                                  
G03  21634954.292   113692468.532        1745.013          35.000    21634968.652    88591621.274        1359.879          34.000  
G07  20107719.371   105666724.814       -2359.543          39.000    20107725.409    82337678.800       -1838.904          38.000  
G06  22555750.270   118531303.941        3628.961          33.000    22555764.688    92362134.781        2827.460          35.000  
G02  23087652.890   121326351.413       -3217.382          34.000                                                                  
G14  20066109.246   105448114.175        2251.459          40.000    20066113.730    82167402.951        1754.248          40.000  
G17  20516507.660   107814955.992         203.981          39.000    20516511.583    84011693.893         158.936          38.000  
> 2025 04 27 02 32 16.9960000  0 12                     
G30  19536663.295   102665814.974        -521.167          41.000    19536669.265    79999359.011        -406.403          38.000  
G13  23906826.304   125631183.828        -656.899          28.000                                                                  
G08  23909635.288   125645979.836       -1983.667          30.000    23909656.841    97905817.591       -1546.573          30.000  
G01  20241254.230   106368479.998       -2012.734          41.000    20241258.552    82884474.176       -1568.356          39.000  
G19  21802851.040   114574757.399        1555.539          34.000                                                                  
G22  21720816.647   114143666.661        2373.346          37.000                                                                  
G03  21634622.239   113690723.631        1744.707          35.000    21634636.501    88590261.641        1359.415          34.000  
G07  20108168.410   105669084.592       -2360.405          39.000    20108174.458    82339517.550       -1838.918          38.000  
G06  22555059.746   118527675.390        3627.686          32.000    22555074.093    92359307.346        2826.495          35.000  
G02  23088265.275   121329569.255       -3217.811          34.000                                                                  
G14  20065680.822   105445863.056        2251.008          40.000    20065685.293    82165648.814        1754.194          40.000  
G17  20516468.914   107814752.333         203.684          39.000    20516472.898    84011535.204         158.476          38.000  
> 2025 04 27 02 32 17.9960000  0 12                     
G30  19536762.503   102666336.669        -522.040          41.000    19536768.539    79999765.517        -406.836          38.000  
G13  23906951.483   125631841.557        -657.844          28.000                                                                  
G08  23910012.809   125647963.717       -1983.437          31.000    23910034.281    97907363.399       -1545.489          31.000  
G01  20241637.340   106370492.731       -2012.666          41.000    20241641.640    82886042.567       -1568.645          39.000  
G19  21802555.093   114573201.858        1555.522          35.000                                                                  
G22  21720365.114   114141293.713        2373.284          37.000                                                                  
G03  21634290.104   113688979.173        1744.560          35.000    21634304.497    88588902.323        1359.356          34.000  
G07  20108617.602   105671444.808       -2360.276          39.000    20108623.648    82341356.677       -1838.931          38.000  
G06  22554369.205   118524047.084        3628.546          32.000    22554383.656    92356480.084        2827.448          35.000  
G02  23088877.611   121332787.191       -3217.675          34.000                                                                  
G14  20065252.574   105443612.144        2250.842          40.000    20065256.865    82163894.857        1754.144          40.000  
G17  20516430.188   107814548.870         203.266          39.000    20516434.237    84011376.652         158.402          38.000  
> 2025 04 27 02 32 18.9960000  0 12                     
G30  19536861.868   102666858.876        -522.552          41.000    19536867.979    80000172.416        -407.141          38.000  
G13  23907076.739   125632499.517        -658.516          28.000                                                                  
G08  23910390.304   125649947.381       -1983.466          31.000    23910411.874    97908909.112       -1545.682          31.000  
G01  20242020.325   106372505.857       -2013.439          40.000    20242024.759    82887611.224       -1569.083          39.000  
G19  21802259.138   114571646.381        1555.932          35.000                                                                  
G22  21719913.548   114138920.655        2372.362          37.000                                                                  
G03  21633958.270   113687234.984        1743.625          35.000    21633972.621    88587543.188        1358.897          34.000  
G07  20109066.841   105673805.381       -2360.657          39.000    20109072.910    82343196.099       -1839.595          38.000  
G06  22553678.728   118520418.952        3628.168          32.000    22553693.308    92353652.962        2826.996          35.000  
G02  23089490.033   121336005.143       -3218.706          35.000                                                                  
G14  20064824.260   105441361.272        2250.797          40.000    20064828.503    82162140.944        1753.838          40.000  
G17  20516391.471   107814345.410         203.498          39.000    20516395.429    84011218.093         158.764          38.000  
> 2025 04 27 02 32 19.9960000  0 12                     
G30  19536961.466   102667381.668        -523.163          41.000    19536967.401    80000579.793        -407.599          38.000  
G13  23907201.987   125633157.713        -658.205          28.000                                                                  
G08  23910767.656   125651930.913       -1984.065          31.000    23910789.168    97910454.698       -1545.803          30.000  
G01  20242403.442   106374519.442       -2014.043          40.000    20242407.952    82889180.219       -1569.263          39.000  
G19  21801963.341   114570091.060        1555.107          35.000                                                                  
G22  21719462.106   114136547.543        2372.539          37.000                                                                  
G03  21633626.438   113685491.133        1742.993          35.000    21633640.733    88586184.347        1358.389          34.000  
G07  20109516.212   105676166.406       -2361.519          39.000    20109522.274    82345035.836       -1839.983          38.000  
G06  22552988.244   118516790.985        3628.271          32.000    22553002.993    92350826.023        2826.294          35.000  
G02  23090102.402   121339223.109       -3218.842          34.000                                                                  
G14  20064396.001   105439110.550        2250.633          40.000    20064400.280    82160387.125        1753.753          40.000  
G17  20516352.773   107814142.077         203.403          39.000    20516356.712    84011059.675         158.164          38.000  
> 2025 04 27 02 32 20.9960000  0 12                     
G30  19537061.089   102667905.041        -523.645          41.000    19537066.991    80000987.593        -407.806          38.000  
G13  23907327.311   125633816.245        -658.618          28.000                                                                  
G08  23911145.218   125653914.197       -1982.566          31.000    23911166.508    97912000.186       -1546.038          31.000  
G01  20242786.687   106376533.405       -2014.259          40.000    20242791.245    82890749.535       -1569.257          39.000  
G19  21801667.490   114568535.858        1554.959          34.000                                                                  
G22  21719010.341   114134174.328        2373.192          37.000                                                                  
G03  21633294.757   113683747.557        1743.672          35.000    21633308.903    88584825.774        1357.988          34.000  
G07  20109965.626   105678527.798       -2361.538          39.000    20109971.706    82346875.880       -1840.385          38.000  
G06  22552297.708   118513163.276        3627.777          32.000    22552312.682    92347999.217        2826.239          35.000  
G02  23090714.706   121342441.033       -3218.065          35.000                                                                  
G14  20063967.689   105436859.926        2250.270          40.000    20063972.033    82158633.391        1753.644          40.000  
G17  20516314.159   107813938.830         203.554          39.000    20516317.979    84010901.302         158.147          37.000  
> 2025 04 27 02 32 21.9960000  0 12                     
G30  19537160.760   102668429.061        -524.164          41.000    19537166.658    80001395.952        -408.624          38.000  
G13  23907452.802   125634475.153        -659.380          28.000                                                                  
G08  23911522.748   125655897.492       -1983.107          31.000    23911543.861    97913545.534       -1545.338          31.000  
G01  20243169.943   106378547.878       -2014.418          40.000    20243174.611    82892319.267       -1569.678          39.000  
G19  21801371.656   114566980.828        1554.476          34.000                                                                  
G22  21718558.656   114131801.160        2373.310          37.000                                                                  
G03  21632963.044   113682004.419        1743.009          35.000    21632977.249    88583467.457        1358.489          34.000  
G07  20110415.092   105680889.687       -2362.579          39.000    20110421.215    82348716.287       -1840.322          38.000  
G06  22551607.210   118509535.817        3627.228          32.000    22551622.389    92345172.644        2826.258          35.000  
G02  23091327.212   121345659.097       -3217.865          35.000                                                                  
G14  20063539.432   105434609.492        2250.039          40.000    20063543.822    82156879.819        1753.170          40.000  
G17  20516275.545   107813735.766         203.249          39.000    20516279.348    84010743.053         158.429          37.000  
> 2025 04 27 02 32 22.9960000  0 12                     
G30  19537260.585   102668953.714        -525.061          41.000    19537266.391    80001804.764        -409.161          38.000  
G13  23907578.299   125635134.330        -659.248          28.000                                                                  
G08  23911900.173   125657880.644       -1983.128          31.000    23911921.269    97915090.816       -1544.991          31.000  
G01  20243553.352   106380562.842       -2015.334          40.000    20243557.992    82893889.364       -1570.625          39.000  
G19  21801075.828   114565425.934        1555.150          34.000                                                                  
G22  21718107.162   114129427.974        2372.990          36.000                                                                  
G03  21632631.324   113680261.660        1742.188          35.000    21632645.614    88582109.443        1357.897          34.000  
G07  20110864.662   105683251.969       -2362.505          39.000    20110870.758    82350557.028       -1840.640          38.000  
G06  22550917.048   118505908.635        3626.800          32.000    22550932.146    92342346.212        2826.795          35.000  
G02  23091939.696   121348877.236       -3218.313          35.000                                                                  
G14  20063111.321   105432359.181        2250.478          40.000    20063115.602    82155126.331        1753.389          40.000  
G17  20516236.995   107813532.823         202.958          39.000    20516240.771    84010584.931         158.174          37.000  
> 2025 04 27 02 32 23.9960000  0 12                     
G30  19537360.556   102669478.963        -525.580          41.000    19537366.332    80002214.020        -409.326          38.000  
G13  23907703.827   125635793.855        -659.423          28.000                                                                  
G08  23912277.501   125659863.632       -1983.411          30.000    23912298.717    97916636.000       -1545.617          31.000  
G01  20243936.779   106382578.208       -2015.398          40.000    20243941.488    82895459.796       -1570.842          39.000  
G19  21800779.954   114563871.214        1554.858          34.000                                                                  
G22  21717655.432   114127054.729        2373.168          37.000                                                                  
G03  21632299.791   113678519.220        1741.781          35.000    21632314.068    88580751.731        1357.467          34.000  
G07  20111314.340   105685614.682       -2362.682          39.000    20111320.428    82352398.114       -1841.460          38.000  
G06  22550226.948   118502281.656        3626.733          32.000    22550242.072    92339520.023        2826.208          35.000  
G02  23092552.077   121352095.379       -3217.937          35.000                                                                  
G14  20062683.068   105430109.031        2250.232          40.000    20062687.485    82153372.975        1753.195          40.000  
G17  20516198.416   107813330.005         202.801          39.000    20516202.174    84010426.877         158.250          37.000  
> 2025 04 27 02 32 24.9960000  0 12                     
G30  19537460.679   102670004.784        -526.196          41.000    19537466.371    80002623.751        -409.760          38.000  
G13  23907829.412   125636453.645        -659.836          28.000                                                                  
G08  23912654.837   125661846.486       -1982.961          30.000    23912675.984    97918181.058       -1544.656          31.000  
G01  20244320.413   106384594.039       -2016.211          40.000    20244325.052    82897030.547       -1571.123          39.000  
G19  21800484.049   114562316.613        1554.356          34.000                                                                  
G22  21717203.845   114124681.444        2373.157          36.000                                                                  
G03  21631968.190   113676777.116        1741.514          35.000    21631982.674    88579394.237        1357.477          35.000  
G07  20111764.078   105687977.775       -2363.113          39.000    20111770.130    82354239.469       -1841.257          38.000  
G06  22549536.900   118498654.895        3626.501          32.000    22549551.876    92336693.985        2825.873          35.000  
G02  23093164.464   121355313.580       -3217.917          35.000                                                                  
G14  20062254.807   105427859.008        2249.711          40.000    20062259.248    82151619.716        1752.954          40.000  
G17  20516159.864   107813127.261         202.820          39.000    20516163.630    84010268.908         157.910          38.000  
> 2025 04 27 02 32 25.9960000  0 12                     
G30  19537560.866   102670531.174        -526.654          41.000    19537566.549    80003033.945        -410.651          38.000  
G13  23907954.925   125637113.734        -660.125          28.000                                                                  
G08  23913032.070   125663829.174       -1982.692          30.000    23913053.350    97919725.984       -1544.897          31.000  
G01  20244704.225   106386610.263       -2016.583          40.000    20244708.779    82898601.650       -1571.660          39.000  
G19  21800188.194   114560762.126        1554.075          34.000                                                                  
G22  21716752.258   114122308.056        2373.235          36.000                                                                  
G03  21631636.784   113675035.323        1741.593          35.000    21631651.253    88578037.016        1356.646          35.000  
G07  20112213.910   105690341.270       -2363.737          39.000    20112219.879    82356081.153       -1841.951          38.000  
G06  22548846.825   118495028.305        3626.288          31.000    22548861.870    92333868.068        2825.452          35.000  
G02  23093776.728   121358531.826       -3218.854          35.000                                                                  
G14  20061826.727   105425609.086        2249.487          40.000    20061831.022    82149866.524        1752.712          40.000  
G17  20516121.354   107812924.627         202.404          39.000    20516125.071    84010111.007         157.733          38.000  
> 2025 04 27 02 32 26.9960000  0 12                     
G30  19537661.149   102671058.255        -527.631          41.000    19537666.916    80003444.639        -411.102          38.000  
G13  23908080.527   125637774.217        -660.453          27.000                                                                  
G08  23913409.434   125665811.783       -1983.214          30.000    23913430.664    97921270.873       -1544.926          31.000  
G01  20245087.948   106388627.019       -2016.979          40.000    20245092.586    82900173.125       -1571.682          39.000  
G19  21799892.530   114559207.816        1554.738          34.000                                                                  
G22  21716300.724   114119934.733        2373.764          36.000                                                                  
G03  21631305.513   113673293.943        1741.073          35.000    21631319.891    88576680.082        1357.240          35.000  
G07  20112663.754   105692705.253       -2364.012          39.000    20112669.725    82357923.217       -1842.172          38.000  
G06  22548156.758   118491402.003        3625.921          31.000    22548171.784    92331042.432        2825.537          35.000  
G02  23094389.122   121361750.106       -3217.986          34.000                                                                  
G14  20061398.637   105423359.355        2249.974          40.000    20061402.958    82148113.477        1753.134          40.000  
G17  20516082.892   107812722.183         202.316          39.000    20516086.663    84009953.251         157.882          38.000  
> 2025 04 27 02 32 27.9960000  0 12                     
G30  19537761.540   102671585.856        -527.832          41.000    19537767.272    80003855.760        -411.292          38.000  
G13  23908206.175   125638434.987        -661.208          27.000                                                                  
G08  23913786.653   125667794.159       -1982.225          30.000    23913807.866    97922815.600       -1545.209          31.000  
G01  20245471.867   106390644.160       -2017.102          40.000    20245476.391    82901744.924       -1571.923          39.000  
G19  21799596.816   114557653.637        1554.519          35.000                                                                  
G22  21715848.997   114117561.325        2373.586          37.000                                                                  
G03  21630974.280   113671552.865        1741.344          35.000    21630988.582    88575323.440        1356.378          35.000  
G07  20113113.687   105695069.593       -2364.548          39.000    20113119.625    82359765.548       -1842.847          38.000  
G06  22547466.633   118487775.880        3626.172          31.000    22547481.753    92328216.859        2825.336          34.000  
G02  23095001.472   121364968.431       -3218.323          34.000                                                                  
G14  20060970.615   105421109.721        2249.777          40.000    20060974.767    82146360.522        1752.928          40.000  
G17  20516044.426   107812519.774         202.574          39.000    20516048.127    84009795.526         157.923          38.000  
> 2025 04 27 02 32 28.9960000  0 12                     
G30  19537861.988   102672114.136        -528.485          41.000    19537867.754    80004267.405        -411.945          38.000  
G13  23908332.042   125639096.095        -661.575          27.000                                                                  
G08  23914163.786   125669776.506       -1982.301          30.000    23914185.166    97924360.188       -1543.297          31.000  
G01  20245855.864   106392661.825       -2017.919          40.000    20245860.239    82903317.126       -1572.257          39.000  
G19  21799301.049   114556099.661        1554.501          35.000                                                                  
G22  21715397.380   114115187.971        2372.951          37.000                                                                  
G03  21630643.172   113669812.228        1740.466          35.000    21630657.400    88573967.071        1356.057          35.000  
G07  20113563.715   105697434.435       -2365.431          39.000    20113569.620    82361608.247       -1842.927          38.000  
G06  22546776.630   118484150.069        3625.592          32.000    22546791.891    92325391.547        2824.597          34.000  
G02  23095613.955   121368186.823       -3217.689          34.000                                                                  
G14  20060542.621   105418860.299        2249.237          40.000    20060546.743    82144607.736        1752.442          40.000  
G17  20516005.880   107812317.586         202.199          39.000    20516009.692    84009637.968         157.790          38.000  
> 2025 04 27 02 32 29.9960000  0 12                     
G30  19537962.671   102672643.131        -529.193          41.000    19537968.359    80004679.597        -412.372          38.000  
G13  23908457.748   125639757.562        -661.741          27.000                                                                  
G08  23914540.910   125671758.836       -1982.314          30.000    23914562.503    97925904.868       -1544.100          31.000  
G01  20246239.834   106394680.024       -2018.530          40.000    20246244.277    82904889.753       -1572.856          39.000  
G19  21799005.424   114554545.964        1552.831          35.000                                                                  
G22  21714945.780   114112814.627        2372.991          37.000                                                                  
G03  21630311.904   113668072.003        1740.276          35.000    21630326.275    88572611.085        1355.254          35.000  
G07  20114013.841   105699799.736       -2365.315          39.000    20114019.640    82363451.354       -1843.289          38.000  
G06  22546086.656   118480524.597        3625.055          32.000    22546102.048    92322566.485        2825.037          35.000  
G02  23096226.402   121371405.420       -3218.357          34.000                                                                  
G14  20060114.642   105416611.091        2249.374          40.000    20060118.819    82142855.115        1752.525          40.000  
G17  20515967.364   107812115.601         201.669          39.000    20515971.319    84009480.609         156.638          38.000  
> 2025 04 27 02 32 30.9960000  0 12                     
G30  19538063.404   102673172.728        -529.846          41.000    19538069.077    80005092.290        -413.171          38.000  
G13  23908583.683   125640419.446        -662.310          26.000                                                                  
G08  23914918.171   125673741.006       -1981.956          30.000    23914939.613    97927449.422       -1544.039          31.000  
G01  20246623.985   106396698.689       -2018.822          40.000    20246628.465    82906462.727       -1573.207          39.000  
G19  21798709.745   114552992.354        1553.602          35.000                                                                  
G22  21714494.092   114110441.278        2372.894          37.000                                                                  
G03  21629980.795   113666332.169        1739.701          34.000    21629995.148    88571255.348        1356.114          35.000  
G07  20114464.033   105702165.493       -2365.765          39.000    20114469.916    82365294.784       -1843.472          38.000  
G06  22545396.744   118476899.339        3624.860          32.000    22545412.192    92319741.637        2824.640          35.000  
G02  23096838.894   121374624.052       -3218.563          34.000                                                                  
G14  20059686.662   105414362.068        2248.778          40.000    20059690.826    82141102.586        1752.783          40.000  
G17  20515928.970   107811913.742         201.553          39.000    20515932.906    84009323.289         156.912          38.000  
> 2025 04 27 02 32 31.9960000  0 12                     
G30  19538164.319   102673702.938        -530.554          41.000    19538169.958    80005505.437        -413.721          38.000  
G13  23908709.493   125641081.659        -662.472          27.000                                                                  
G08  23915295.428   125675723.025       -1982.530          30.000    23915316.649    97928993.914       -1545.404          31.000  
G01  20247008.307   106398717.807       -2019.297          41.000    20247012.571    82908036.047       -1573.293          39.000  
G19  21798414.241   114551438.902        1553.446          35.000                                                                  
G22  21714042.389   114108067.858        2373.623          37.000                                                                  
G03  21629649.836   113664592.699        1738.769          35.000    21629664.097    88569899.913        1355.510          34.000  
G07  20114914.307   105704531.680       -2366.555          39.000    20114920.174    82367138.533       -1843.770          38.000  
G06  22544706.854   118473274.276        3625.757          32.000    22544722.352    92316916.923        2824.786          35.000  
G02  23097451.358   121377842.717       -3218.750          34.000                                                                  
G14  20059258.760   105412113.161        2248.924          40.000    20059262.868    82139350.211        1752.186          40.000  
G17  20515890.539   107811712.006         201.342          39.000    20515894.485    84009166.080         157.045          38.000  
> 2025 04 27 02 32 32.9960000  0 12                     
G30  19538265.422   102674233.829        -531.464          41.000    19538270.927    80005919.089        -413.745          38.000  
G13  23908835.568   125641744.149        -662.518          27.000                                                                  
G08  23915672.617   125677704.997       -1982.064          30.000    23915693.597    97930538.265       -1544.251          31.000  
G01  20247392.640   106400737.446       -2019.969          41.000    20247396.992    82909609.807       -1574.224          39.000  
G19  21798118.639   114549885.689        1552.739          35.000                                                                  
G22  21713590.812   114105694.532        2373.808          37.000                                                                  
G03  21629318.901   113662853.621        1739.083          35.000    21629333.140    88568544.806        1354.722          34.000  
G07  20115364.579   105706898.340       -2367.161          39.000    20115370.547    82368982.703       -1844.508          38.000  
G06  22544017.098   118469649.578        3625.122          32.000    22544032.570    92314092.482        2824.524          35.000  
G02  23098063.889   121381061.517       -3219.225          34.000                                                                  
G14  20058830.819   105409864.490        2248.398          40.000    20058835.039    82137597.990        1752.254          40.000  
G17  20515852.096   107811510.433         201.431          39.000    20515856.106    84009009.022         156.773          38.000  
> 2025 04 27 02 32 33.9960000  0 12                     
G30  19538366.484   102674765.297        -531.891          41.000    19538372.109    80006333.220        -414.154          38.000  
G13  23908961.969   125642407.050        -663.108          27.000                                                                  
G08  23916049.867   125679686.819       -1981.412          30.000    23916070.802    97932082.545       -1544.141          31.000  
G01  20247777.154   106402757.510       -2020.236          40.000    20247781.427    82911183.877       -1574.187          39.000  
G19  21797823.086   114548332.578        1552.916          35.000                                                                  
G22  21713139.184   114103321.159        2372.980          37.000                                                                  
G03  21628987.968   113661114.886        1738.765          35.000    21629002.163    88567189.923        1355.086          34.000  
G07  20115815.013   105709265.391       -2367.203          39.000    20115820.958    82370827.148       -1844.617          38.000  
G06  22543327.478   118466025.089        3624.286          32.000    22543342.895    92311268.212        2823.792          35.000  
G02  23098676.499   121384280.315       -3219.160          34.000                                                                  
G14  20058402.968   105407615.931        2248.236          40.000    20058407.139    82135845.867        1751.943          40.000  
G17  20515813.810   107811308.975         201.497          39.000    20515817.734    84008852.042         156.990          38.000  
> 2025 04 27 02 32 34.9960000  0 12                     
G30  19538467.710   102675297.380        -532.495          41.000    19538473.404    80006747.835        -414.972          38.000  
G13  23909088.147   125643070.203        -663.167          27.000                                                                  
G08  23916426.970   125681668.511       -1981.010          30.000    23916447.960    97933626.700       -1544.248          31.000  
G01  20248161.676   106404778.032       -2020.610          40.000    20248165.866    82912758.315       -1574.863          39.000  
G19  21797527.572   114546779.619        1553.123          35.000                                                                  
G22  21712687.542   114100947.740        2373.552          36.000                                                                  
G03  21628657.145   113659376.528        1738.060          35.000    21628671.270    88565835.378        1354.276          34.000  
G07  20116265.568   105711632.885       -2367.906          39.000    20116271.457    82372671.940       -1844.995          38.000  
G06  22542637.782   118462400.806        3623.877          32.000    22542653.221    92308444.091        2823.871          35.000  
G02  23099289.090   121387499.182       -3219.043          35.000                                                                  
G14  20057975.142   105405367.490        2248.435          40.000    20057979.249    82134093.858        1751.777          40.000  
G17  20515775.455   107811107.649         201.342          39.000    20515779.358    84008695.165         156.524          38.000  
> 2025 04 27 02 32 35.9960000  0 12                     
G30  19538569.084   102675829.957        -532.825          41.000    19538574.686    80007162.843        -415.643          38.000  
G13  23909214.349   125643733.579        -663.259          27.000                                                                  
G08  23916803.941   125683649.997       -1981.406          30.000    23916824.967    97935170.688       -1543.559          31.000  
G01  20248546.242   106406798.913       -2021.073          40.000    20248550.412    82914332.994       -1574.543          39.000  
G19  21797232.093   114545226.744        1552.887          35.000                                                                  
G22  21712235.925   114098574.166        2373.732          37.000                                                                  
G03  21628326.412   113657638.392        1738.185          35.000    21628340.438    88564480.989        1354.445          34.000  
G07  20116716.156   105714000.676       -2367.853          39.000    20116722.068    82374516.970       -1844.799          37.000  
G06  22541948.187   118458776.666        3624.072          32.000    22541963.603    92305620.078        2824.194          35.000  
G02  23099901.590   121390717.997       -3218.646          35.000                                                                  
G14  20057547.269   105403119.115        2248.524          40.000    20057551.399    82132341.878        1751.780          40.000  
G17  20515737.098   107810906.354         200.842          39.000    20515741.055    84008538.294         157.166          38.000  
> 2025 04 27 02 32 36.9960000  0 12                     
G30  19538670.511   102676363.100        -533.514          41.000    19538676.163    80007578.256        -415.540          38.000  
G13  23909340.664   125644397.252        -663.441          28.000                                                                  
G08  23917180.997   125685631.305       -1980.881          30.000    23917201.991    97936714.531       -1543.184          31.000  
G01  20248930.900   106408820.201       -2021.626          40.000    20248935.064    82915908.035       -1575.082          39.000  
G19  21796936.669   114543673.916        1553.049          34.000                                                                  
G22  21711784.124   114096200.529        2374.058          37.000                                                                  
G03  21627995.643   113655900.601        1737.324          35.000    21628009.808    88563126.861        1353.805          33.000  
G07  20117166.826   105716368.840       -2368.248          39.000    20117172.667    82376362.278       -1845.516          37.000  
G06  22541258.518   118455152.675        3624.408          32.000    22541274.023    92302796.217        2824.542          35.000  
G02  23100514.160   121393936.806       -3218.752          35.000                                                                  
G14  20057119.441   105400870.842        2248.228          40.000    20057123.511    82130589.956        1751.871          40.000  
G17  20515698.850   107810705.108         201.479          39.000    20515702.838    84008381.472         157.031          38.000  
> 2025 04 27 02 32 37.9960000  0 12                     
G30  19538772.158   102676896.840        -534.094          41.000    19538777.738    80007994.159        -416.467          38.000  
G13  23909467.165   125645061.256        -664.407          28.000                                                                  
G08  23917557.942   125687612.443       -1981.645          31.000    23917578.996    97938258.246       -1543.697          31.000  
G01  20249315.681   106410841.919       -2022.215          40.000    20249319.747    82917483.418       -1575.968          39.000  
G19  21796641.226   114542121.260        1552.496          34.000                                                                  
G22  21711332.444   114093826.868        2373.579          36.000                                                                  
G03  21627665.032   113654163.147        1736.781          35.000    21627679.139    88561772.992        1353.607          33.000  
G07  20117617.546   105718737.442       -2368.969          39.000    20117623.412    82378207.952       -1846.187          38.000  
G06  22540568.871   118451528.958        3623.187          32.000    22540584.467    92299972.546        2823.645          35.000  
G02  23101126.729   121397155.680       -3219.081          35.000                                                                  
G14  20056691.556   105398622.694        2247.899          40.000    20056695.764    82128838.150        1751.805          40.000  
G17  20515660.530   107810503.963         201.558          39.000    20515664.649    84008224.764         156.635          38.000  
> 2025 04 27 02 32 38.9960000  0 12                     
G30  19538873.839   102677431.310        -534.485          41.000    19538879.423    80008410.610        -416.431          38.000  
G13  23909593.703   125645725.642        -664.977          28.000                                                                  
G08  23917935.235   125689593.490       -1979.528          31.000    23917956.078    97939801.983       -1543.327          31.000  
G01  20249700.680   106412864.213       -2022.739          40.000    20249704.571    82919059.214       -1576.089          39.000  
G19  21796345.952   114540568.834        1552.985          34.000                                                                  
G22  21710880.855   114091453.302        2373.358          36.000                                                                  
G03  21627334.623   113652426.114        1737.422          35.000    21627348.586    88560419.516        1352.954          33.000  
G07  20118068.357   105721106.557       -2369.355          39.000    20118074.178    82380053.984       -1846.038          38.000  
G06  22539879.223   118447905.581        3623.370          32.000    22539894.886    92297149.146        2823.138          35.000  
G02  23101739.216   121400374.683       -3219.092          35.000                                                                  
G14  20056263.871   105396374.825        2247.707          40.000    20056268.022    82127086.565        1751.611          40.000  
G17  20515622.316   107810303.124         200.552          39.000    20515626.386    84008068.237         156.610          37.000  
> 2025 04 27 02 32 39.9960000  0 12                     
G30  19538975.679   102677966.397        -535.175          41.000    19538981.325    80008827.572        -417.047          38.000  
G13  23909720.300   125646390.371        -664.753          29.000                                                                  
G08  23918312.346   125691574.587       -1981.138          31.000    23918333.050    97941345.597       -1542.854          32.000  
G01  20250085.497   106414886.975       -2022.871          40.000    20250089.394    82920635.391       -1576.246          39.000  
G19  21796050.597   114539016.624        1552.602          34.000                                                                  
G22  21710429.190   114089079.687        2374.003          36.000                                                                  
G03  21627004.149   113650689.528        1736.229          35.000    21627018.058    88559066.273        1353.468          33.000  
G07  20118519.316   105723476.125       -2369.662          39.000    20118525.075    82381900.394       -1846.582          37.000  
G06  22539189.668   118444282.460        3622.766          32.000    22539205.399    92294325.906        2823.218          34.000  
G02  23102351.632   121403593.784       -3219.080          35.000                                                                  
G14  20055836.123   105394127.098        2247.881          40.000    20055840.351    82125335.084        1751.422          40.000  
G17  20515584.138   107810102.378         200.881          39.000    20515588.136    84007911.822         156.665          38.000  
> 2025 04 27 02 32 40.9960000  0 12                     
G30  19539077.703   102678502.038        -535.657          41.000    19539083.333    80009244.953        -417.834          38.000  
G13  23909846.884   125647055.308        -664.661          29.000                                                                  
G08  23918689.232   125693555.362       -1979.850          31.000    23918709.979    97942889.182       -1544.845          31.000  
G01  20250470.555   106416910.118       -2023.319          40.000    20250474.253    82922211.863       -1576.479          39.000  
G19  21795755.169   114537464.483        1551.618          34.000                                                                  
G22  21709977.402   114086705.991        2373.850          36.000                                                                  
G03  21626673.706   113648953.197        1736.174          35.000    21626687.651    88557713.310        1352.968          34.000  
G07  20118970.333   105725846.042       -2369.979          39.000    20118976.020    82383747.076       -1846.688          37.000  
G06  22538500.228   118440659.485        3622.510          33.000    22538515.989    92291502.836        2823.163          34.000  
G02  23102964.222   121406812.838       -3218.496          35.000                                                                  
G14  20055408.513   105391879.449        2247.905          40.000    20055412.700    82123583.682        1751.377          40.000  
G17  20515546.010   107809901.688         200.964          39.000    20515550.050    84007755.478         156.105          38.000  
> 2025 04 27 02 32 41.9960000  0 12                     
G30  19539179.783   102679038.387        -536.853          41.000    19539185.433    80009662.881        -418.481          38.000  
G13  23909973.538   125647720.748        -665.279          30.000                                                                  
G08  23919066.156   125695536.165       -1980.729          31.000    23919086.967    97944432.556       -1543.281          31.000  
G01  20250855.778   106418933.822       -2023.854          40.000    20250859.344    82923788.761       -1576.981          39.000  
G19  21795459.812   114535912.562        1551.681          34.000                                                                  
G22  21709525.652   114084332.374        2373.509          37.000                                                                  
G03  21626343.379   113647217.323        1735.805          35.000    21626357.299    88556360.662        1353.130          34.000  
G07  20119421.419   105728216.468       -2370.765          39.000    20119427.115    82385594.163       -1847.225          37.000  
G06  22537810.850   118437036.855        3622.424          32.000    22537826.649    92288680.010        2822.644          34.000  
G02  23103576.838   121410032.060       -3219.064          35.000                                                                  
G14  20054980.836   105389632.074        2247.111          40.000    20054985.045    82121832.483        1750.837          40.000  
G17  20515507.805   107809701.229         200.774          39.000    20515511.922    84007599.242         156.234          38.000  
> 2025 04 27 02 32 42.9960000  0 12                     
G30  19539281.988   102679575.291        -537.268          41.000    19539287.748    80010081.250        -418.726          38.000  
G13  23910100.111   125648386.407        -665.986          30.000                                                                  
G08  23919442.958   125697516.770       -1980.365          31.000    23919463.851    97945975.881       -1543.122          31.000  
G01  20251240.823   106420957.932       -2024.375          40.000    20251244.516    82925365.998       -1577.332          39.000  
G19  21795164.463   114534360.735        1551.647          34.000                                                                  
G22  21709073.908   114081958.658        2373.754          36.000                                                                  
G03  21626012.983   113645481.771        1735.122          35.000    21626026.987    88555008.323        1351.827          34.000  
G07  20119872.597   105730587.288       -2371.232          39.000    20119878.286    82387441.530       -1847.415          37.000  
G06  22537121.706   118433414.429        3622.272          33.000    22537137.362    92285857.317        2822.693          35.000  
G02  23104189.397   121413251.316       -3219.716          34.000                                                                  
G14  20054553.116   105387384.786        2247.024          40.000    20054557.475    82120081.330        1751.124          40.000  
G17  20515469.682   107809500.853         200.448          39.000    20515473.876    84007443.089         156.341          38.000  
> 2025 04 27 02 32 43.9960000  0 12                     
G30  19539384.326   102680112.923        -538.037          41.000    19539390.002    80010500.153        -418.915          38.000  
G13  23910227.001   125649052.529        -667.011          30.000                                                                  
G08  23919819.847   125699497.373       -1980.195          31.000    23919840.674    97947519.222       -1543.732          32.000  
G01  20251626.167   106422982.624       -2024.918          40.000    20251629.820    82926943.660       -1577.750          39.000  
G19  21794869.131   114532809.205        1551.295          34.000                                                                  
G22  21708622.150   114079585.062        2373.115          36.000                                                                  
G03  21625682.847   113643746.660        1735.350          35.000    21625696.856    88553656.332        1351.779          34.000  
G07  20120323.843   105732958.633       -2371.633          39.000    20120329.592    82389289.321       -1847.722          37.000  
G06  22536432.516   118429792.314        3622.253          33.000    22536448.065    92283034.912        2822.449          35.000  
G02  23104802.062   121416470.712       -3219.542          34.000                                                                  
G14  20054125.585   105385137.740        2246.875          40.000    20054129.890    82118330.403        1750.699          40.000  
G17  20515431.621   107809300.715         200.100          39.000    20515435.837    84007287.152         156.131          38.000  
> 2025 04 27 02 32 44.9960000  0 12                     
G30  19539486.765   102680651.224        -538.605          41.000    19539492.381    80010919.636        -419.897          38.000  
G13  23910353.789   125649718.980        -666.552          30.000                                                                  
G08  23920196.851   125701477.926       -1980.399          31.000    23920217.545    97949062.455       -1543.090          31.000  
G01  20252011.533   106425007.830       -2025.699          40.000    20252015.185    82928521.749       -1578.464          39.000  
G19  21794573.819   114531257.922        1551.111          34.000                                                                  
G22  21708170.574   114077211.502        2373.195          36.000                                                                  
G03  21625352.854   113642012.041        1734.699          35.000    21625366.740    88552304.624        1351.667          34.000  
G07  20120775.228   105735330.482       -2372.368          39.000    20120781.002    82391137.517       -1848.239          38.000  
G06  22535743.346   118426170.530        3621.972          33.000    22535758.828    92280212.764        2821.918          35.000  
G02  23105414.818   121419690.215       -3219.823          34.000                                                                  
G14  20053698.046   105382890.933        2246.615          40.000    20053702.435    82116579.662        1750.411          40.000  
G17  20515393.559   107809100.766         199.713          39.000    20515397.721    84007131.366         155.500          38.000  
> 2025 04 27 02 32 45.9960000  0 12                     
G30  19539589.265   102681190.124        -538.934          41.000    19539594.918    80011339.543        -420.099          38.000  
G13  23910480.789   125650385.800        -666.495          30.000                                                                  
G08  23920573.546   125703458.365       -1981.397          31.000    23920594.409    97950605.622       -1542.778          32.000  
G01  20252397.020   106427033.475       -2026.049          40.000    20252400.722    82930100.173       -1578.540          39.000  
G19  21794278.591   114529706.727        1550.826          34.000                                                                  
G22  21707718.755   114074837.871        2373.521          36.000                                                                  
G03  21625022.974   113640277.754        1733.652          35.000    21625036.655    88550953.206        1351.289          34.000  
G07  20121226.712   105737702.700       -2372.228          39.000    20121232.465    82392986.020       -1848.960          38.000  
G06  22535054.175   118422549.011        3621.124          32.000    22535069.726    92277390.785        2821.546          35.000  
G02  23106027.479   121422909.751       -3219.830          34.000                                                                  
G14  20053270.479   105380644.250        2246.669          40.000    20053274.846    82114828.980        1750.749          40.000  
G17  20515355.466   107808900.956         199.702          39.000    20515359.651    84006975.640         155.369          38.000  
> 2025 04 27 02 32 46.9960000  0 12                     
G30  19539691.923   102681729.618        -539.996          41.000    19539697.631    80011759.940        -420.764          38.000  
G13  23910607.634   125651052.867        -667.075          30.000                                                                  
G08  23920950.250   125705438.551       -1979.712          31.000    23920971.187    97952148.620       -1542.389          32.000  
G01  20252782.574   106429059.541       -2026.354          40.000    20252786.263    82931678.931       -1579.060          39.000  
G19  21793983.358   114528155.637        1551.852          34.000                                                                  
G22  21707267.209   114072464.219        2373.848          36.000                                                                  
G03  21624692.932   113638543.764        1733.596          35.000    21624706.714    88549602.046        1351.468          34.000  
G07  20121678.224   105740075.375       -2373.038          39.000    20121683.935    82394834.819       -1848.860          38.000  
G06  22534365.125   118418927.657        3621.069          33.000    22534380.638    92274568.942        2821.570          35.000  
G02  23106640.274   121426129.328       -3219.772          34.000                                                                  
G14  20052842.998   105378397.718        2246.251          40.000    20052847.346    82113078.446        1750.157          40.000  
G17  20515317.462   107808701.222         199.399          39.000    20515321.704    84006819.989         155.822          38.000  
> 2025 04 27 02 32 47.9960000  0 12                     
G30  19539794.657   102682269.683        -539.996          41.000    19539800.460    80012180.753        -420.862          38.000  
G13  23910734.784   125651720.296        -667.629          30.000                                                                  
G08  23921326.911   125707418.624       -1979.816          31.000    23921348.059    97953691.545       -1542.184          32.000  
G01  20253168.129   106431086.060       -2026.707          40.000    20253171.953    82933258.027       -1579.352          39.000  
G19  21793688.193   114526604.719        1551.515          34.000                                                                  
G22  21706815.581   114070090.513        2373.908          36.000                                                                  
G03  21624363.110   113636810.119        1733.478          35.000    21624376.795    88548251.190        1350.670          34.000  
G07  20122129.812   105742448.413       -2372.883          39.000    20122135.536    82396683.951       -1849.221          38.000  
G06  22533676.087   118415306.549        3620.550          33.000    22533691.529    92271747.298        2821.704          35.000  
G02  23107252.965   121429348.932       -3220.199          34.000                                                                  
G14  20052415.487   105376151.272        2246.510          40.000    20052419.882    82111327.944        1750.843          40.000  
G17  20515279.487   107808501.566         199.938          39.000    20515283.674    84006664.444         155.292          38.000  
> 2025 04 27 02 32 48.9960000  0 12                     
G30  19539897.522   102682810.369        -540.918          41.000    19539903.430    80012602.070        -421.716          38.000  
G13  23910862.028   125652387.993        -668.152          30.000                                                                  
G08  23921703.787   125709398.578       -1979.432          31.000    23921724.802    97955234.401       -1543.366          32.000  
G01  20253553.881   106433113.007       -2027.000          40.000    20253557.656    82934837.468       -1579.675          39.000  
G19  21793393.160   114525053.979        1550.850          34.000                                                                  
G22  21706363.999   114067716.779        2373.770          36.000                                                                  
G03  21624033.327   113635076.825        1732.964          35.000    21624046.939    88546900.599        1350.382          34.000  
G07  20122581.441   105744821.884       -2373.517          39.000    20122587.183    82398533.392       -1849.614          38.000  
G06  22532987.091   118411685.623        3620.709          33.000    22533002.558    92268925.822        2821.576          35.000  
G02  23107865.651   121432568.561       -3219.922          35.000                                                                  
G14  20051987.997   105373904.979        2246.491          40.000    20051992.410    82109577.610        1749.972          40.000  
G17  20515241.532   107808302.042         200.024          39.000    20515245.716    84006508.979         155.381          37.000  
> 2025 04 27 02 32 49.9960000  0 12                     
G30  19540000.452   102683351.652        -541.602          41.000    19540006.366    80013023.846        -421.912          38.000  
G13  23910989.080   125653056.034        -668.453          29.000                                                                  
G08  23922080.710   125711378.404       -1979.227          31.000    23922101.506    97956777.065       -1542.533          32.000  
G01  20253939.566   106435140.418       -2027.487          40.000    20253943.450    82936417.244       -1579.269          39.000  
G19  21793098.148   114523503.368        1550.572          34.000                                                                  
G22  21705912.418   114065343.006        2373.877          37.000                                                                  
G03  21623703.537   113633343.914        1732.413          35.000    21623717.193    88545550.266        1350.213          34.000  
G07  20123033.113   105747195.774       -2374.164          39.000    20123038.857    82400383.147       -1849.507          38.000  
G06  22532298.143   118408064.972        3620.483          32.000    22532313.459    92266104.529        2821.082          35.000  
G02  23108478.350   121435788.251       -3219.995          35.000                                                                  
G14  20051560.548   105371658.825        2246.574          40.000    20051564.990    82107827.361        1750.431          40.000  
G17  20515203.530   107808102.681         199.236          39.000    20515207.705    84006353.591         155.340          38.000  
> 2025 04 27 02 32 50.9960000  0 12                     
G30  19540103.617   102683893.519        -542.242          41.000    19540109.483    80013446.079        -422.638          38.000  
G13  23911116.268   125653724.333        -668.710          29.000                                                                  
G08  23922457.202   125713358.061       -1979.197          31.000    23922478.194    97958319.658       -1542.857          31.000  
G01  20254325.514   106437168.241       -2028.032          40.000    20254329.360    82937997.385       -1580.419          39.000  
G19  21792803.093   114521952.853        1550.193          34.000                                                                  
G22  21705460.723   114062969.200        2373.516          37.000                                                                  
G03  21623373.894   113631611.316        1732.253          35.000    21623387.423    88544200.186        1350.144          33.000  
G07  20123484.909   105749570.049       -2374.447          39.000    20123490.627    82402233.253       -1850.386          38.000  
G06  22531609.233   118404444.502        3620.129          32.000    22531624.441    92263283.401        2820.752          35.000  
G02  23109091.028   121439007.937       -3219.748          35.000                                                                  
G14  20051133.140   105369412.820        2245.816          40.000    20051137.665    82106077.223        1749.827          40.000  
G17  20515165.524   107807903.361         199.434          39.000    20515169.719    84006198.311         155.050          38.000  
> 2025 04 27 02 32 51.9960000  0 12                     
G30  19540206.939   102684436.059        -542.688          41.000    19540212.735    80013868.834        -422.943          38.000  
G13  23911243.522   125654393.025        -668.552          29.000                                                                  
G08  23922833.996   125715337.646       -1979.473          31.000    23922854.905    97959862.200       -1541.975          32.000  
G01  20254711.360   106439196.606       -2028.437          40.000    20254715.283    82939577.927       -1580.946          39.000  
G19  21792508.119   114520402.586        1550.473          34.000                                                                  
G22  21705008.917   114060595.419        2373.753          37.000                                                                  
G03  21623044.371   113629879.177        1731.764          35.000    21623057.802    88542850.473        1349.050          34.000  
G07  20123936.837   105751944.835       -2374.995          39.000    20123942.481    82404083.696       -1850.397          38.000  
G06  22530920.257   118400824.332        3620.044          32.000    22530935.501    92260462.495        2820.947          35.000  
G02  23109703.709   121442227.770       -3219.956          35.000                                                                  
G14  20050705.733   105367167.016        2245.703          40.000    20050710.319    82104327.240        1749.771          40.000  
G17  20515127.664   107807704.276         199.092          39.000    20515131.801    84006043.150         155.404          38.000  
> 2025 04 27 02 32 52.9960000  0 12                     
G30  19540310.343   102684979.248        -543.622          41.000    19540316.164    80014292.083        -423.395          38.000  
G13  23911370.925   125655062.125        -669.640          29.000                                                                  
G08  23923210.853   125717317.236       -1980.737          31.000    23923231.584    97961404.644       -1541.951          32.000  
G01  20255097.437   106441225.459       -2029.410          40.000    20255101.358    82941158.829       -1581.099          39.000  
G19  21792213.189   114518852.491        1550.085          34.000                                                                  
G22  21704557.146   114058221.654        2373.694          37.000                                                                  
G03  21622714.757   113628147.391        1731.051          35.000    21622728.281    88541501.045        1348.878          33.000  
G07  20124388.808   105754320.073       -2375.675          39.000    20124394.485    82405934.544       -1851.354          38.000  
G06  22530231.476   118397204.480        3619.171          32.000    22530246.598    92257641.793        2820.599          34.000  
G02  23110316.536   121445447.699       -3220.371          35.000                                                                  
G14  20050278.301   105364921.395        2245.392          40.000    20050282.955    82102577.407        1749.436          40.000  
G17  20515089.816   107807505.344         198.821          39.000    20515094.007    84005888.140         154.826          38.000  
> 2025 04 27 02 32 53.9960000  0 12                     
G30  19540413.911   102685523.123        -544.165          41.000    19540419.704    80014715.891        -424.091          38.000  
G13  23911498.277   125655731.553        -669.521          29.000                                                                  
G08  23923587.350   125719296.632       -1978.997          31.000    23923608.157    97962947.061       -1541.677          32.000  
G01  20255483.627   106443254.827       -2029.663          40.000    20255487.545    82942740.166       -1581.521          39.000  
G19  21791918.243   114517302.637        1549.965          34.000                                                                  
G22  21704105.483   114055847.921        2373.600          37.000                                                                  
G03  21622385.190   113626416.068        1731.082          35.000    21622398.774    88540151.979        1348.314          33.000  
G07  20124840.915   105756695.800       -2375.929          39.000    20124846.611    82407785.762       -1851.846          38.000  
G06  22529542.716   118393584.897        3619.085          32.000    22529557.740    92254821.359        2820.734          35.000  
G02  23110929.183   121448667.710       -3220.248          35.000                                                                  
G14  20049851.006   105362675.985        2245.394          40.000    20049855.631    82100827.729        1749.619          40.000  
G17  20515051.944   107807306.614         198.260          39.000    20515056.235    84005733.276         154.849          38.000  
> 2025 04 27 02 32 54.9960000  0 12                     
G30  19540517.358   102686067.570        -544.598          41.000    19540523.372    80015140.134        -424.353          38.000  
G13  23911625.701   125656401.284        -669.761          29.000                                                                  
G08  23923963.939   125721275.905       -1978.689          31.000    23923984.905    97964489.339       -1541.209          31.000  
G01  20255869.903   106445284.643       -2030.491          40.000    20255873.783    82944321.816       -1581.823          39.000  
G19  21791623.382   114515752.920        1549.008          34.000                                                                  
G22  21703653.826   114053474.138        2373.830          37.000                                                                  
G03  21622055.763   113624685.055        1730.947          35.000    21622069.339    88538803.110        1348.881          33.000  
G07  20125293.092   105759071.894       -2376.034          39.000    20125298.775    82409637.238       -1851.549          37.000  
G06  22528854.106   118389965.519        3619.537          32.000    22528868.879    92252001.063        2820.630          35.000  
G02  23111541.892   121451887.778       -3220.099          35.000                                                                  
G14  20049423.743   105360430.713        2245.091          40.000    20049428.354    82099078.169        1749.483          40.000  
G17  20515014.179   107807107.957         198.383          39.000    20515018.444    84005578.494         154.584          37.000  
> 2025 04 27 02 32 55.9960000  0 12                     
G30  19540621.187   102686612.689        -545.343          41.000    19540627.147    80015564.885        -424.597          38.000  
G13  23911753.398   125657071.435        -670.561          28.000                                                                  
G08  23924340.634   125723255.172       -1979.437          32.000    23924361.524    97966031.610       -1542.298          32.000  
G01  20256256.382   106447314.928       -2030.364          40.000    20256260.091    82945903.863       -1582.114          39.000  
G19  21791328.471   114514203.363        1549.463          34.000                                                                  
G22  21703202.088   114051100.416        2373.312          37.000                                                                  
G03  21621726.481   113622954.475        1730.599          35.000    21621740.076    88537454.642        1348.245          33.000  
G07  20125745.361   105761448.472       -2376.371          39.000    20125751.078    82411489.118       -1851.704          37.000  
G06  22528165.265   118386346.432        3619.562          32.000    22528180.119    92249181.062        2819.720          35.000  
G02  23112154.660   121455107.918       -3219.844          35.000                                                                  
G14  20048996.563   105358185.624        2244.941          40.000    20049001.121    82097328.752        1749.483          40.000  
G17  20514976.531   107806909.475         198.526          39.000    20514980.602    84005423.822         154.606          38.000  
> 2025 04 27 02 32 56.9960000  0 12                     
G30  19540725.003   102687158.439        -545.984          41.000    19540730.970    80015990.166        -425.574          38.000  
G13  23911880.956   125657741.857        -670.372          28.000                                                                  
G08  23924717.111   125725234.270       -1979.318          31.000    23924738.131    97967573.786       -1542.563          32.000  
G01  20256642.799   106449345.721       -2031.218          40.000    20256646.633    82947486.289       -1582.405          39.000  
G19  21791033.571   114512654.011        1549.290          34.000                                                                  
G22  21702750.374   114048726.630        2374.042          37.000                                                                  
G03  21621397.276   113621224.268        1730.218          35.000    21621410.861    88536106.468        1347.293          33.000  
G07  20126197.762   105763825.529       -2377.190          39.000    20126203.346    82413341.355       -1852.190          37.000  
G06  22527476.492   118382727.642        3618.390          32.000    22527491.428    92246361.183        2819.653          35.000  
G02  23112767.479   121458328.162       -3220.193          34.000                                                                  
G14  20048569.445   105355940.727        2244.656          40.000    20048573.949    82095579.467        1749.276          40.000  
G17  20514938.742   107806711.166         198.183          39.000    20514942.803    84005269.292         154.678          38.000  
> 2025 04 27 02 32 57.9960000  0 12                     
G30  19540828.982   102687704.746        -546.594          41.000    19540835.008    80016415.847        -425.757          38.000  
G13  23912008.353   125658412.593        -670.959          28.000                                                                  
G08  23925093.547   125727213.205       -1978.762          31.000    23925114.730    97969115.778       -1541.655          31.000  
G01  20257029.343   106451376.891       -2031.432          40.000    20257033.280    82949069.028       -1582.803          39.000  
G19  21790738.734   114511104.784        1548.176          34.000                                                                  
G22  21702298.730   114046352.817        2373.166          37.000                                                                  
G03  21621068.098   113619494.389        1729.812          35.000    21621081.728    88534758.461        1347.934          34.000  
G07  20126650.241   105766202.936       -2377.773          39.000    20126655.759    82415193.880       -1852.600          37.000  
G06  22526787.966   118379109.039        3617.456          31.000    22526802.864    92243541.500        2819.757          35.000  
G02  23113380.231   121461548.423       -3220.430          34.000                                                                  
G14  20048142.321   105353695.907        2244.662          40.000    20048146.761    82093830.272        1748.922          40.000  
G17  20514900.973   107806512.920         198.067          39.000    20514905.076    84005114.813         154.639          38.000  
> 2025 04 27 02 32 58.9960000  0 12                     
G30  19540933.108   102688251.757        -547.363          41.000    19540939.122    80016842.087        -426.428          38.000  
G13  23912136.117   125659083.722        -671.432          28.000                                                                  
G08  23925470.101   125729192.099       -1979.135          32.000    23925491.396    97970657.744       -1541.674          31.000  
G01  20257415.993   106453408.626       -2032.175          40.000    20257419.830    82950652.176       -1582.848          39.000  
G19  21790444.035   114509555.687        1549.069          34.000                                                                  
G22  21701847.060   114043979.012        2373.837          37.000                                                                  
G03  21620738.982   113617764.932        1729.489          35.000    21620752.572    88533410.834        1347.655          33.000  
G07  20127102.819   105768580.835       -2378.000          39.000    20127108.344    82417046.786       -1852.930          37.000  
G06  22526099.370   118375490.707        3617.664          32.000    22526114.296    92240722.027        2819.519          35.000  
G02  23113992.899   121464768.780       -3220.465          34.000                                                                  
G14  20047715.165   105351451.338        2244.449          40.000    20047719.731    82092081.246        1748.733          40.000  
G17  20514863.312   107806314.892         197.969          39.000    20514867.439    84004960.510         154.292          38.000  
> 2025 04 27 02 32 59.9960000  0 12                     
G30  19541037.333   102688799.299        -547.968          41.000    19541043.224    80017268.730        -426.947          38.000  
G13  23912263.823   125659755.115        -671.564          28.000                                                                  
G08  23925846.668   125731170.771       -1978.210          32.000    23925867.939    97972199.587       -1541.746          31.000  
G01  20257802.555   106455440.722       -2032.554          40.000    20257806.523    82952235.649       -1583.853          39.000  
G19  21790149.238   114508006.779        1548.481          34.000                                                                  
G22  21701395.450   114041605.143        2373.615          37.000                                                                  
G03  21620409.916   113616035.775        1728.984          35.000    21620423.354    88532063.450        1347.533          33.000  
G07  20127555.501   105770959.109       -2378.618          39.000    20127560.855    82418899.963       -1853.533          37.000  
G06  22525410.771   118371872.585        3617.755          32.000    22525425.682    92237902.714        2819.385          35.000  
G02  23114605.640   121467989.147       -3220.518          34.000                                                                  
G14  20047288.056   105349206.835        2244.317          40.000    20047292.517    82090332.288        1748.723          40.000  
G17  20514825.620   107806116.914         197.865          39.000    20514829.786    84004806.227         154.506          37.000  
> 2025 04 27 02 33 00.9960000  0 12                     
G30  19541141.645   102689347.487        -548.590          41.000    19541147.525    80017695.880        -427.185          38.000  
G13  23912391.564   125660426.833        -671.982          27.000                                                                  
G08  23926223.290   125733149.364       -1978.690          31.000    23926244.443    97973741.348       -1542.522          31.000  
G01  20258189.242   106457473.325       -2032.806          40.000    20258193.399    82953819.479       -1584.132          39.000  
G19  21789854.596   114506458.023        1548.767          34.000                                                                  
G22  21700943.570   114039231.258        2374.158          37.000                                                                  
G03  21620080.905   113614307.021        1728.721          36.000    21620094.477    88530716.383        1346.658          33.000  
G07  20128008.188   105773337.818       -2378.667          39.000    20128013.519    82420753.501       -1853.721          37.000  
G06  22524722.424   118368254.712        3617.792          32.000    22524737.254    92235083.604        2819.196          35.000  
G02  23115218.418   121471209.585       -3220.261          34.000                                                                  
G14  20046861.001   105346962.518        2244.347          40.000    20046865.460    82088583.460        1748.965          40.000  
G17  20514787.969   107805919.084         197.940          39.000    20514792.288    84004652.102         153.656          37.000  
> 2025 04 27 02 33 01.9960000  0 12                     
G30  19541246.022   102689896.302        -549.481          41.000    19541251.786    80018123.528        -428.033          38.000  
G13  23912519.503   125661098.903        -672.573          27.000                                                                  
G08  23926599.605   125735127.836       -1978.371          31.000    23926620.946    97975282.991       -1541.398          31.000  
G01  20258576.129   106459506.382       -2033.218          40.000    20258580.274    82955403.690       -1584.824          39.000  
G19  21789559.850   114504909.447        1548.195          34.000                                                                  
G22  21700491.873   114036857.403        2373.450          37.000                                                                  
G03  21619751.999   113612578.648        1728.089          36.000    21619765.563    88529369.563        1346.974          34.000  
G07  20128461.009   105775716.973       -2379.561          39.000    20128466.165    82422607.366       -1854.174          37.000  
G06  22524034.058   118364637.123        3617.706          33.000    22524048.901    92232264.711        2818.579          35.000  
G02  23115831.231   121474430.128       -3220.786          34.000                                                                  
G14  20046433.985   105344718.388        2243.823          40.000    20046438.381    82086834.787        1748.563          40.000  
G17  20514750.380   107805721.423         197.243          39.000    20514754.658    84004498.042         154.056          37.000  
> 2025 04 27 02 33 02.9960000  0 12                     
G30  19541350.584   102690445.861        -549.933          41.000    19541356.346    80018551.744        -428.625          38.000  
G13  23912647.362   125661771.386        -672.399          27.000                                                                  
G08  23926976.068   125737106.401       -1979.323          31.000    23926997.396    97976824.635       -1540.859          31.000  
G01  20258963.083   106461540.048       -2033.849          40.000    20258967.291    82956988.334       -1584.723          39.000  
G19  21789265.110   114503361.135        1548.549          34.000                                                                  
G22  21700040.147   114034483.635        2374.147          37.000                                                                  
G03  21619423.208   113610850.754        1727.862          36.000    21619436.777    88528023.165        1346.690          34.000  
G07  20128913.803   105778096.686       -2380.049          39.000    20128919.012    82424461.692       -1854.324          37.000  
G06  22523345.827   118361019.919        3617.114          33.000    22523360.674    92229446.081        2818.567          35.000  
G02  23116444.232   121477650.783       -3220.731          34.000                                                                  
G14  20046006.956   105342474.507        2244.244          40.000    20046011.422    82085086.324        1748.520          40.000  
G17  20514712.795   107805523.969         197.604          39.000    20514717.198    84004344.231         153.578          38.000  
> 2025 04 27 02 33 03.9960000  0 12                     
G30  19541455.382   102690996.006        -550.543          41.000    19541461.080    80018980.432        -428.528          38.000  
G13  23912775.120   125662444.239        -672.938          27.000                                                                  
G08  23927352.505   125739084.722       -1978.484          32.000    23927373.899    97978366.307       -1542.404          31.000  
G01  20259350.184   106463574.129       -2034.128          40.000    20259354.421    82958573.340       -1585.107          39.000  
G19  21788970.551   114501812.952        1548.761          34.000                                                                  
G22  21699588.470   114032109.844        2374.021          37.000                                                                  
G03  21619094.580   113609123.233        1727.198          36.000    21619107.997    88526677.049        1346.289          34.000  
G07  20129366.714   105780476.803       -2380.261          39.000    20129371.918    82426316.329       -1854.996          37.000  
G06  22522657.493   118357402.898        3616.742          33.000    22522672.415    92226627.644        2818.439          35.000  
G02  23117057.188   121480871.524       -3220.757          34.000                                                                  
G14  20045579.978   105340230.810        2243.590          40.000    20045584.538    82083337.966        1748.478          40.000  
G17  20514675.176   107805326.674         197.436          39.000    20514679.647    84004190.470         153.711          38.000  
> 2025 04 27 02 33 04.9960000  0 12                     
G30  19541560.178   102691546.739        -551.056          41.000    19541565.914    80019409.553        -429.065          38.000  
G13  23912903.146   125663117.325        -672.811          27.000                                                                  
G08  23927729.045   125741062.887       -1977.912          31.000    23927750.321    97979907.666       -1541.318          31.000  
G01  20259737.284   106465608.645       -2034.896          40.000    20259741.643    82960158.675       -1585.417          39.000  
G19  21788676.060   114500264.932        1548.211          34.000                                                                  
G22  21699136.747   114029735.991        2374.052          37.000                                                                  
G03  21618765.981   113607396.001        1727.330          36.000    21618779.363    88525331.194        1345.429          33.000  
G07  20129819.720   105782857.286       -2380.448          39.000    20129824.870    82428171.233       -1854.586          37.000  
G06  22521969.283   118353786.065        3616.760          32.000    22521984.220    92223809.372        2818.286          35.000  
G02  23117670.187   121484092.260       -3220.439          34.000                                                                  
G14  20045153.069   105337987.188        2243.754          40.000    20045157.642    82081589.699        1748.461          40.000  
G17  20514637.699   107805129.458         197.035          39.000    20514642.121    84004036.789         153.645          38.000  
> 2025 04 27 02 33 05.9960000  0 12                     
G30  19541665.124   102692097.988        -551.587          41.000    19541670.879    80019839.127        -429.865          38.000  
G13  23913031.434   125663790.746        -673.763          27.000                                                                  
G08  23928105.288   125743040.867       -1977.922          31.000    23928126.784    97981449.007       -1541.806          31.000  
G01  20260124.567   106467643.533       -2035.120          40.000    20260128.919    82961744.299       -1585.723          39.000  
G19  21788381.536   114498716.953        1547.917          34.000                                                                  
G22  21698684.939   114027362.038        2374.084          37.000                                                                  
G03  21618437.497   113605669.107        1726.586          36.000    21618450.720    88523985.530        1345.768          33.000  
G07  20130272.823   105785238.163       -2381.223          39.000    20130277.942    82430026.451       -1855.404          37.000  
G06  22521280.930   118350169.465        3616.369          33.000    22521296.151    92220991.221        2818.250          35.000  
G02  23118283.101   121487313.006       -3221.231          34.000                                                                  
G14  20044726.082   105335743.663        2243.439          40.000    20044730.698    82079841.490        1748.298          40.000  
G17  20514600.123   107804932.292         197.217          39.000    20514604.453    84003883.160         153.445          38.000  
> 2025 04 27 02 33 06.9960000  0 12                     
G30  19541770.182   102692649.810        -552.228          41.000    19541775.911    80020269.113        -430.273          38.000  
G13  23913159.351   125664464.385        -674.228          27.000                                                                  
G08  23928481.666   125745018.725       -1978.240          31.000    23928503.222    97982990.110       -1541.218          31.000  
G01  20260511.996   106469678.835       -2035.712          40.000    20260516.215    82963330.261       -1586.243          39.000  
G19  21788087.002   114497169.104        1547.243          34.000                                                                  
G22  21698233.217   114024988.008        2374.395          37.000                                                                  
G03  21618108.950   113603942.485        1726.492          36.000    21618122.151    88522640.141        1345.545          33.000  
G07  20130725.942   105787619.376       -2381.594          39.000    20130731.105    82431881.943       -1855.513          37.000  
G06  22520592.683   118346553.020        3616.138          33.000    22520607.990    92218173.226        2817.603          35.000  
G02  23118896.002   121490533.716       -3220.857          34.000                                                                  
G14  20044299.191   105333500.232        2243.122          40.000    20044303.766    82078093.377        1747.903          40.000  
G17  20514562.725   107804735.219         196.828          39.000    20514566.944    84003729.584         153.395          38.000  
> 2025 04 27 02 33 07.9960000  0 12                     
G30  19541875.177   102693202.212        -553.052          41.000    19541881.021    80020699.539        -430.768          38.000  
G13  23913287.466   125665138.277        -674.006          27.000                                                                  
G08  23928858.096   125746996.375       -1977.749          31.000    23928879.483    97984531.126       -1540.634          32.000  
G01  20260899.485   106471714.551       -2036.156          40.000    20260903.611    82964916.524       -1586.461          39.000  
G19  21787792.406   114495621.349        1547.417          34.000                                                                  
G22  21697781.488   114022613.937        2374.010          37.000                                                                  
G03  21617780.422   113602216.250        1725.624          36.000    21617793.717    88521294.996        1344.883          33.000  
G07  20131179.183   105790001.002       -2382.339          39.000    20131184.207    82433737.761       -1856.449          37.000  
G06  22519904.563   118342936.812        3615.729          33.000    22519919.881    92215355.370        2817.883          35.000  
G02  23119508.926   121493754.425       -3220.497          35.000                                                                  
G14  20043872.310   105331256.919        2243.025          40.000    20043876.982    82076345.349        1747.706          40.000  
G17  20514525.233   107804538.214         196.912          39.000    20514529.382    84003576.082         153.240          38.000  
> 2025 04 27 02 33 08.9960000  0 12                     
G30  19541980.477   102693755.240        -553.363          41.000    19541986.293    80021130.464        -431.055          38.000  
G13  23913415.760   125665812.535        -674.011          28.000                                                                  
G08  23929234.476   125748973.876       -1977.272          31.000    23929255.872    97986072.085       -1541.137          31.000  
G01  20261286.908   106473750.758       -2036.572          40.000    20261291.088    82966503.179       -1586.788          39.000  
G19  21787497.945   114494073.786        1547.708          34.000                                                                  
G22  21697329.692   114020239.845        2374.393          36.000                                                                  
G03  21617451.960   113600490.358        1725.606          35.000    21617465.296    88519950.145        1344.785          33.000  
G07  20131632.485   105792383.055       -2382.249          39.000    20131637.512    82435593.920       -1857.108          37.000  
G06  22519216.443   118339320.817        3616.278          33.000    22519231.789    92212537.749        2817.468          35.000  
G02  23120121.908   121496975.236       -3220.143          35.000                                                                  
G14  20043445.460   105329013.776        2243.285          40.000    20043450.128    82074597.453        1747.737          40.000  
G17  20514487.764   107804341.388         196.515          39.000    20514491.914    84003422.694         153.253          38.000  
> 2025 04 27 02 33 09.9960000  0 12                     
G30  19542085.733   102694308.988        -553.986          41.000    19542091.666    80021561.964        -431.769          38.000  
G13  23913544.206   125666487.232        -674.760          28.000                                                                  
G08  23929610.764   125750951.458       -1978.323          31.000    23929631.950    97987613.002       -1541.572          31.000  
G01  20261674.422   106475787.508       -2037.158          40.000    20261678.648    82968090.254       -1587.527          39.000  
G19  21787203.395   114492526.459        1546.926          34.000                                                                  
G22  21696877.912   114017865.826        2374.259          37.000                                                                  
G03  21617123.728   113598764.951        1724.947          35.000    21617136.961    88518605.655        1344.811          34.000  
G07  20132085.917   105794765.646       -2383.120          39.000    20132090.882    82437450.439       -1856.984          37.000  
G06  22518528.345   118335705.200        3615.491          32.000    22518543.797    92209720.370        2817.352          35.000  
G02  23120734.889   121500196.222       -3220.741          35.000                                                                  
G14  20043018.659   105326770.894        2243.111          40.000    20043023.370    82072849.739        1747.698          40.000  
G17  20514450.332   107804144.758         196.344          39.000    20514454.472    84003269.464         153.519          38.000  
> 2025 04 27 02 33 10.9960000  0 12                     
G30  19542191.215   102694863.385        -554.803          41.000    19542197.176    80021993.966        -432.495          38.000  
G13  23913672.629   125667162.323        -675.669          27.000                                                                  
G08  23929987.121   125752928.853       -1977.896          31.000    23930008.225    97989153.799       -1541.027          31.000  
G01  20262062.060   106477824.734       -2037.521          40.000    20262066.274    82969677.701       -1587.502          39.000  
G19  21786908.932   114490979.330        1547.108          34.000                                                                  
G22  21696426.081   114015491.833        2374.149          37.000                                                                  
G03  21616795.539   113597039.897        1724.786          36.000    21616808.678    88517261.506        1344.230          33.000  
G07  20132539.322   105797148.659       -2383.387          39.000    20132544.362    82439307.345       -1857.605          37.000  
G06  22517840.385   118332089.858        3614.880          32.000    22517855.794    92206903.222        2816.864          35.000  
G02  23121347.838   121503417.260       -3221.157          35.000                                                                  
G14  20042591.912   105324528.195        2242.805          40.000    20042596.607    82071102.180        1747.302          40.000  
G17  20514413.006   107803948.284         196.301          39.000    20514417.155    84003116.385         153.216          38.000  
> 2025 04 27 02 33 11.9960000  0 12                     
G30  19542296.871   102695418.444        -555.219          41.000    19542302.760    80022426.473        -432.892          39.000  
G13  23913801.028   125667837.694        -675.225          28.000                                                                  
G08  23930363.611   125754906.241       -1977.667          30.000    23930384.421    97990694.588       -1540.276          31.000  
G01  20262449.815   106479862.502       -2037.881          40.000    20262454.019    82971265.569       -1588.199          39.000  
G19  21786614.569   114489432.442        1546.579          34.000                                                                  
G22  21695974.328   114013117.920        2373.666          37.000                                                                  
G03  21616467.353   113595315.311        1724.787          36.000    21616480.511    88515917.689        1343.709          33.000  
G07  20132992.938   105799532.193       -2383.839          39.000    20132997.967    82441164.628       -1857.680          38.000  
G06  22517152.392   118328474.752        3615.869          32.000    22517167.850    92204086.318        2816.529          35.000  
G02  23121960.904   121506638.431       -3221.664          35.000                                                                  
G14  20042165.204   105322285.724        2242.257          40.000    20042169.849    82069354.803        1747.052          40.000  
G17  20514375.664   107803752.026         196.008          39.000    20514379.757    84002963.455         152.941          38.000  
> 2025 04 27 02 33 12.9960000  0 12                     
G30  19542402.625   102695974.192        -555.927          41.000    19542408.529    80022859.517        -433.057          38.000  
G13  23913929.692   125668513.501        -675.908          28.000                                                                  
G08  23930739.843   125756883.557       -1977.553          30.000    23930760.726    97992235.383       -1540.797          30.000  
G01  20262837.689   106481900.783       -2038.331          40.000    20262841.959    82972853.835       -1588.430          39.000  
G19  21786320.267   114487885.743        1546.456          34.000                                                                  
G22  21695522.576   114010743.984        2373.966          37.000                                                                  
G03  21616139.332   113593591.186        1723.690          36.000    21616152.396    88514574.166        1343.657          33.000  
G07  20133446.533   105801916.178       -2384.023          39.000    20133451.619    82443022.286       -1857.817          38.000  
G06  22516464.524   118324860.052        3614.569          32.000    22516480.033    92201269.646        2816.425          35.000  
G02  23122573.934   121509859.698       -3220.795          35.000                                                                  
G14  20041738.527   105320043.459        2242.156          40.000    20041743.154    82067607.582        1747.104          40.000  
G17  20514338.414   107803555.948         196.105          39.000    20514342.483    84002810.661         152.995          38.000  
> 2025 04 27 02 33 13.9960000  0 12                     
G30  19542508.503   102696530.481        -556.213          41.000    19542514.375    80023292.991        -433.545          38.000  
G13  23914058.267   125669189.568        -675.714          28.000                                                                  
G08  23931116.121   125758860.628       -1976.975          30.000    23931136.731    97993776.007       -1540.710          31.000  
G01  20263225.642   106483939.456       -2038.710          40.000    20263229.897    82974442.412       -1588.710          39.000  
G19  21786025.976   114486339.123        1546.735          34.000                                                                  
G22  21695070.796   114008369.982        2374.233          37.000                                                                  
G03  21615811.265   113591867.303        1724.098          36.000    21615824.369    88513230.922        1343.457          33.000  
G07  20133900.231   105804300.562       -2384.427          39.000    20133905.427    82444880.214       -1858.005          38.000  
G06  22515776.580   118321245.491        3614.435          32.000    22515792.124    92198453.077        2816.589          35.000  
G02  23123186.853   121513080.977       -3220.896          35.000                                                                  
G14  20041311.908   105317801.281        2242.312          40.000    20041316.534    82065860.425        1747.296          40.000  
G17  20514301.116   107803359.925         196.671          39.000    20514305.158    84002657.933         152.753          38.000  
> 2025 04 27 02 33 14.9960000  0 12                     
G30  19542614.480   102697087.336        -557.172          41.000    19542620.410    80023726.906        -434.320          39.000  
G13  23914186.848   125669865.947        -676.710          28.000                                                                  
G08  23931492.468   125760837.628       -1977.089          30.000    23931513.079    97995316.476       -1540.627          31.000  
G01  20263613.657   106485978.531       -2039.268          40.000    20263617.922    82976031.297       -1589.028          39.000  
G19  21785731.644   114484792.633        1546.249          34.000                                                                  
G22  21694619.050   114005995.936        2373.605          37.000                                                                  
G03  21615483.321   113590143.778        1723.236          36.000    21615496.328    88511887.885        1343.103          33.000  
G07  20134354.054   105806685.313       -2384.976          39.000    20134359.285    82446738.457       -1858.638          38.000  
G06  22515088.667   118317631.106        3614.014          32.000    22515104.252    92195636.727        2815.991          35.000  
G02  23123799.891   121516302.276       -3221.919          35.000                                                                  
G14  20040885.238   105315559.218        2241.957          40.000    20040889.895    82064113.357        1747.133          40.000  
G17  20514263.868   107803164.030         195.755          39.000    20514267.827    84002505.267         152.513          38.000  
> 2025 04 27 02 33 15.9960000  0 12                     
G30  19542720.577   102697644.896        -557.745          41.000    19542726.576    80024161.349        -434.424          39.000  
G13  23914315.561   125670542.677        -676.605          29.000                                                                  
G08  23931868.633   125762814.527       -1977.366          29.000    23931889.321    97996856.882       -1540.317          30.000  
G01  20264001.884   106488018.168       -2039.882          40.000    20264006.086    82977620.614       -1589.481          39.000  
G19  21785437.375   114483246.377        1546.385          34.000                                                                  
G22  21694167.141   114003621.915        2374.336          37.000                                                                  
G03  21615155.429   113588420.670        1723.399          36.000    21615168.507    88510545.240        1342.831          33.000  
G07  20134807.895   105809070.547       -2384.904          39.000    20134813.202    82448597.074       -1858.572          38.000  
G06  22514400.904   118314017.093        3613.324          32.000    22514416.556    92192820.604        2815.930          35.000  
G02  23124412.923   121519523.646       -3220.812          35.000                                                                  
G14  20040458.634   105313317.385        2242.022          40.000    20040463.130    82062366.489        1746.756          40.000  
G17  20514226.591   107802968.281         196.166          39.000    20514230.540    84002352.758         152.438          37.000  
> 2025 04 27 02 33 16.9960000  0 12                     
G30  19542826.807   102698203.026        -558.630          41.000    19542832.746    80024596.249        -434.985          39.000  
G13  23914444.436   125671219.722        -677.469          29.000                                                                  
G08  23932244.972   125764791.259       -1976.926          29.000    23932265.507    97998397.190       -1540.050          30.000  
G01  20264390.033   106490058.198       -2040.654          40.000    20264394.276    82979210.249       -1589.943          39.000  
G19  21785143.243   114481700.242        1546.238          34.000                                                                  
G22  21693715.253   114001247.882        2373.721          37.000                                                                  
G03  21614827.612   113586697.936        1722.234          36.000    21614840.671    88509202.811        1342.402          33.000  
G07  20135261.896   105811456.187       -2385.874          39.000    20135267.274    82450456.001       -1858.955          38.000  
G06  22513713.178   118310403.205        3613.739          32.000    22513728.873    92190004.601        2815.881          35.000  
G02  23125025.862   121522745.090       -3221.929          35.000                                                                  
G14  20040032.070   105311075.676        2241.458          40.000    20040036.599    82060619.691        1746.742          40.000  
G17  20514189.367   107802772.667         195.374          39.000    20514193.362    84002200.302         152.241          38.000  
> 2025 04 27 02 33 17.9960000  0 12                     
G30  19542933.058   102698761.736        -559.131          41.000    19542938.992    80025031.613        -435.687          39.000  
G13  23914573.294   125671897.034        -677.605          29.000                                                                  
G08  23932621.205   125766767.828       -1976.544          30.000    23932641.690    97999937.369       -1540.632          30.000  
G01  20264778.344   106492098.638       -2040.570          40.000    20264782.644    82980800.210       -1590.314          39.000  
G19  21784849.011   114480154.209        1545.964          34.000                                                                  
G22  21693263.466   113998873.759        2373.950          37.000                                                                  
G03  21614499.922   113584975.496        1722.149          36.000    21614512.856    88507860.712        1341.675          33.000  
G07  20135715.906   105813842.216       -2386.160          39.000    20135721.270    82452315.238       -1859.532          38.000  
G06  22513025.432   118306789.619        3613.336          32.000    22513041.163    92187188.793        2815.826          35.000  
G02  23125638.790   121525966.517       -3220.908          35.000                                                                  
G14  20039605.512   105308834.092        2241.152          40.000    20039609.981    82058872.986        1746.732          40.000  
G17  20514152.111   107802577.107         195.752          39.000    20514156.129    84002047.938         152.018          37.000  
> 2025 04 27 02 33 18.9960000  0 12                     
G30  19543039.460   102699321.129        -559.515          41.000    19543045.331    80025467.501        -436.017          39.000  
G13  23914702.180   125672574.801        -677.979          29.000                                                                  
G08  23932997.423   125768744.412       -1976.966          30.000    23933017.877    98001477.543       -1540.067          30.000  
G01  20265166.633   106494139.656       -2041.134          40.000    20265171.008    82982390.588       -1590.389          39.000  
G19  21784554.841   114478608.448        1545.842          34.000                                                                  
G22  21692811.738   113996499.700        2374.264          37.000                                                                  
G03  21614172.309   113583253.531        1721.945          36.000    21614185.197    88506518.883        1342.211          33.000  
G07  20136170.102   105816228.762       -2386.749          39.000    20136175.387    82454174.851       -1859.387          37.000  
G06  22512337.872   118303176.303        3613.318          32.000    22512353.503    92184373.260        2815.375          35.000  
G02  23126251.846   121529188.145       -3222.065          35.000                                                                  
G14  20039178.979   105306592.730        2241.179          40.000    20039183.500    82057126.485        1746.653          40.000  
G17  20514114.932   107802381.803         195.010          39.000    20514118.985    84001895.734         152.192          37.000  
> 2025 04 27 02 33 19.9960000  0 12                     
G30  19543146.051   102699881.118        -560.248          41.000    19543151.986    80025903.856        -436.658          39.000  
G13  23914831.061   125673252.761        -677.733          29.000                                                                  
G08  23933373.555   125770720.760       -1975.952          30.000    23933393.891    98003017.555       -1539.819          30.000  
G01  20265555.143   106496181.080       -2041.631          40.000    20265559.432    82983981.318       -1591.052          39.000  
G19  21784260.752   114477062.804        1545.018          34.000                                                                  
G22  21692360.012   113994125.636        2373.813          37.000                                                                  
G03  21613844.677   113581531.906        1721.043          36.000    21613857.602    88505177.339        1341.969          33.000  
G07  20136624.267   105818615.681       -2387.096          39.000    20136629.700    82456034.799       -1860.028          38.000  
G06  22511650.273   118299563.252        3613.055          33.000    22511666.006    92181557.869        2815.234          35.000  
G02  23126865.017   121532409.734       -3221.505          35.000                                                                  
G14  20038752.470   105304351.514        2240.948          40.000    20038756.890    82055380.061        1746.574          40.000  
G17  20514077.773   107802186.584         194.820          39.000    20514081.844    84001743.604         152.338          38.000  
> 2025 04 27 02 33 20.9960000  0 12                     
G30  19543252.787   102700441.715        -560.834          41.000    19543258.661    80026340.677        -437.201          39.000  
G13  23914960.243   125673931.134        -678.675          28.000                                                                  
G08  23933749.869   125772697.051       -1976.171          29.000    23933770.060    98004557.532       -1540.331          30.000  
G01  20265943.557   106498222.969       -2042.056          40.000    20265947.914    82985572.384       -1591.183          39.000  
G19  21783966.660   114475517.271        1545.859          34.000                                                                  
G22  21691908.221   113991751.509        2374.064          37.000                                                                  
G03  21613517.055   113579810.627        1720.858          36.000    21613530.076    88503836.084        1341.293          33.000  
G07  20137078.560   105821003.043       -2387.644          39.000    20137084.051    82457895.069       -1860.466          37.000  
G06  22510962.746   118295950.395        3612.927          32.000    22510978.488    92178742.651        2815.076          35.000  
G02  23127478.178   121535631.402       -3221.614          35.000                                                                  
G14  20038326.041   105302110.442        2240.747          40.000    20038330.479    82053633.791        1746.081          40.000  
G17  20514040.598   107801991.439         195.654          39.000    20514044.748    84001591.586         151.807          37.000  
> 2025 04 27 02 33 21.9960000  0 12                     
G30  19543359.570   102701002.882        -561.346          41.000    19543365.493    80026777.954        -437.604          39.000  
G13  23915089.398   125674609.737        -678.453          29.000                                                                  
G08  23934125.997   125774673.193       -1977.073          29.000    23934146.084    98006097.332       -1539.457          30.000  
G01  20266332.199   106500265.257       -2042.312          40.000    20266336.545    82987163.801       -1591.755          39.000  
G19  21783672.560   114473971.909        1545.258          34.000                                                                  
G22  21691456.373   113989377.332        2374.251          37.000                                                                  
G03  21613189.507   113578089.665        1720.888          36.000    21613202.595    88502495.152        1340.060          33.000  
G07  20137532.968   105823390.785       -2387.969          39.000    20137538.361    82459755.650       -1861.174          37.000  
G06  22510275.257   118292337.794        3612.579          32.000    22510291.133    92175927.640        2814.655          35.000  
G02  23128091.136   121538853.066       -3221.573          35.000                                                                  
G14  20037899.546   105299869.470        2240.947          40.000    20037904.051    82051887.575        1746.259          40.000  
G17  20514003.533   107801796.469         194.917          39.000    20514007.665    84001439.632         151.851          37.000  
> 2025 04 27 02 33 22.9960000  0 12                     
G30  19543466.419   102701564.719        -562.341          41.000    19543472.428    80027215.737        -438.159          38.000  
G13  23915218.616   125675288.731        -679.132          29.000                                                                  
G08  23934502.158   125776649.181       -1976.154          29.000    23934522.032    98007637.056       -1539.867          30.000  
G01  20266720.863   106502308.060       -2043.346          40.000    20266725.225    82988755.591       -1592.400          39.000  
G19  21783378.586   114472426.715        1544.879          34.000                                                                  
G22  21691004.613   113987003.159        2373.899          37.000                                                                  
G03  21612862.013   113576369.145        1720.526          36.000    21612875.189    88501154.469        1340.056          33.000  
G07  20137987.478   105825778.981       -2388.704          39.000    20137992.787    82461616.570       -1861.549          37.000  
G06  22509587.860   118288725.412        3612.512          32.000    22509603.608    92173112.819        2814.630          35.000  
G02  23128704.236   121542074.831       -3221.859          35.000                                                                  
G14  20037473.184   105297628.718        2240.531          40.000    20037477.719    82050141.552        1745.539          40.000  
G17  20513966.399   107801601.615         194.610          39.000    20513970.602    84001287.801         151.659          37.000  
> 2025 04 27 02 33 23.9960000  0 12                     
G30  19543573.467   102702127.161        -562.933          41.000    19543579.461    80027654.005        -438.605          38.000  
G13  23915347.831   125675968.091        -679.879          29.000                                                                  
G08  23934878.261   125778625.084       -1975.837          30.000    23934898.106    98009176.698       -1538.707          30.000  
G01  20267109.641   106504351.329       -2043.698          40.000    20267114.032    82990347.726       -1592.539          39.000  
G19  21783084.572   114470881.701        1544.628          34.000                                                                  
G22  21690552.764   113984629.039        2373.573          37.000                                                                  
G03  21612534.726   113574649.016        1719.851          36.000    21612547.902    88499814.097        1340.045          33.000  
G07  20138442.020   105828167.609       -2389.075          39.000    20138447.265    82463477.849       -1861.809          37.000  
G06  22508900.519   118285113.360        3610.974          33.000    22508916.181    92170298.205        2814.484          35.000  
G02  23129317.392   121545296.635       -3221.511          35.000                                                                  
G14  20037046.861   105295388.124        2240.193          40.000    20037051.247    82048395.628        1745.454          40.000  
G17  20513929.379   107801406.924         194.311          39.000    20513933.500    84001136.082         151.629          37.000  
> 2025 04 27 02 33 24.9960000  0 12                     
G30  19543680.602   102702690.243        -563.544          41.000    19543686.559    80028092.760        -438.879          38.000  
G13  23915477.224   125676647.704        -679.727          29.000                                                                  
G08  23935254.313   125780600.849       -1975.234          30.000    23935274.122    98010716.312       -1539.869          30.000  
G01  20267498.490   106506395.055       -2043.964          40.000    20267502.942    82991940.242       -1592.817          40.000  
G19  21782790.609   114469336.827        1544.968          34.000                                                                  
G22  21690101.083   113982254.832        2374.000          37.000                                                                  
G03  21612207.428   113572929.287        1718.796          36.000    21612220.553    88498474.011        1339.847          33.000  
G07  20138896.670   105830556.691       -2389.626          39.000    20138901.877    82465339.444       -1861.866          37.000  
G06  22508213.219   118281501.539        3611.444          32.000    22508228.895    92167483.808        2813.989          35.000  
G02  23129930.457   121548518.559       -3222.235          35.000                                                                  
G14  20036620.488   105293147.707        2240.326          40.000    20036624.983    82046649.841        1745.608          40.000  
G17  20513892.333   107801212.352         194.585          39.000    20513896.439    84000984.496         151.107          37.000  
> 2025 04 27 02 33 25.9960000  0 12                     
G30  19543787.938   102703253.812        -564.014          41.000    19543793.851    80028531.910        -439.557          38.000  
G13  23915606.568   125677327.578        -679.919          28.000                                                                  
G08  23935630.406   125782576.461       -1975.506          30.000    23935650.069    98012255.604       -1537.184          30.000  
G01  20267887.527   106508439.135       -2044.523          40.000    20267892.018    82993533.033       -1593.405          39.000  
G19  21782496.558   114467792.028        1544.583          34.000                                                                  
G22  21689649.416   113979880.505        2374.608          37.000                                                                  
G03  21611880.240   113571209.745        1719.144          36.000    21611893.409    88497134.154        1339.512          33.000  
G07  20139351.347   105832946.070       -2389.875          39.000    20139356.596    82467201.298       -1862.333          37.000  
G06  22507525.968   118277889.820        3611.426          32.000    22507541.642    92164669.511        2813.727          35.000  
G02  23130543.537   121551740.401       -3222.092          35.000                                                                  
G14  20036194.193   105290907.310        2240.470          40.000    20036198.633    82044904.092        1745.628          40.000  
G17  20513855.348   107801017.824         194.249          39.000    20513859.418    84000832.908         151.000          37.000  
> 2025 04 27 02 33 26.9960000  0 12                     
G30  19543895.363   102703817.976        -564.673          41.000    19543901.230    80028971.508        -439.789          38.000  
G13  23915735.778   125678007.739        -680.377          28.000                                                                  
G08  23936006.335   125784551.874       -1975.017          30.000    23936025.957    98013794.969       -1538.955          30.000  
G01  20268276.523   106510483.631       -2044.883          40.000    20268281.090    82995126.124       -1593.149          39.000  
G19  21782202.479   114466247.338        1544.407          34.000                                                                  
G22  21689197.612   113977506.169        2374.475          37.000                                                                  
G03  21611553.149   113569490.549        1719.349          36.000    21611566.296    88495794.528        1339.452          33.000  
G07  20139806.085   105835335.848       -2390.321          39.000    20139811.319    82469063.418       -1862.126          37.000  
G06  22506838.777   118274278.317        3611.755          32.000    22506854.338    92161855.363        2813.995          35.000  
G02  23131156.607   121554962.226       -3221.697          35.000                                                                  
G14  20035767.893   105288667.074        2239.654          40.000    20035772.317    82043158.432        1745.457          41.000  
G17  20513818.306   107800823.356         194.421          39.000    20513822.382    84000681.363         151.346          37.000  
> 2025 04 27 02 33 27.9960000  0 12                     
G30  19544002.883   102704382.738        -565.204          41.000    19544008.691    80029411.590        -440.717          38.000  
G13  23915865.206   125678688.158        -680.079          29.000                                                                  
G08  23936381.995   125786527.134       -1975.552          30.000    23936401.793    98015334.164       -1539.502          30.000  
G01  20268665.574   106512528.562       -2044.985          40.000    20268670.296    82996719.596       -1593.901          40.000  
G19  21781908.570   114464702.787        1544.279          34.000                                                                  
G22  21688745.821   113975131.798        2374.000          37.000                                                                  
G03  21611226.103   113567771.749        1718.779          36.000    21611239.227    88494455.209        1339.221          33.000  
G07  20140260.968   105837726.033       -2390.787          39.000    20140266.091    82470925.891       -1862.102          37.000  
G06  22506151.483   118270667.088        3610.669          32.000    22506167.148    92159041.405        2813.739          35.000  
G02  23131769.728   121558184.138       -3222.092          34.000                                                                  
G14  20035341.632   105286426.937        2240.239          40.000    20035345.959    82041412.890        1745.511          41.000  
G17  20513781.325   107800629.035         194.250          39.000    20513785.381    84000529.935         151.235          38.000  
> 2025 04 27 02 33 28.9960000  0 12                     
G30  19544110.517   102704948.204        -565.912          41.000    19544116.318    80029852.197        -440.796          38.000  
G13  23915994.641   125679369.124        -681.160          28.000                                                                  
G08  23936757.968   125788502.377       -1975.274          30.000    23936777.714    98016873.240       -1538.103          30.000  
G01  20269054.822   106514574.069       -2045.708          40.000    20269059.554    82998313.475       -1594.133          39.000  
G19  21781614.702   114463158.486        1544.078          34.000                                                                  
G22  21688293.939   113972757.477        2374.159          37.000                                                                  
G03  21610899.048   113566053.403        1718.294          36.000    21610912.408    88493116.244        1339.159          33.000  
G07  20140715.866   105840116.722       -2390.844          39.000    20140721.056    82472788.804       -1863.092          37.000  
G06  22505464.487   118267056.167        3610.645          32.000    22505479.981    92156227.718        2813.739          35.000  
G02  23132382.846   121561406.171       -3221.443          34.000                                                                  
G14  20034915.433   105284187.077        2239.899          40.000    20034919.739    82039667.545        1745.386          40.000  
G17  20513744.355   107800434.929         193.844          39.000    20513748.373    84000378.680         150.864          37.000  
> 2025 04 27 02 33 29.9960000  0 12                     
G30  19544218.212   102705514.279        -566.425          41.000    19544224.074    80030293.317        -441.895          38.000  
G13  23916124.208   125680050.310        -681.181          28.000                                                                  
G08  23937133.970   125790477.475       -1974.270          30.000    23937153.540    98018412.348       -1539.229          30.000  
G01  20269444.131   106516620.016       -2046.156          40.000    20269448.997    82999907.734       -1594.640          39.000  
G19  21781320.813   114461614.346        1544.239          34.000                                                                  
G22  21687841.966   113970383.137        2374.364          37.000                                                                  
G03  21610572.145   113564335.413        1718.167          36.000    21610585.332    88491777.532        1339.313          33.000  
G07  20141170.836   105842507.854       -2391.078          39.000    20141176.000    82474652.014       -1863.269          37.000  
G06  22504777.316   118263445.516        3610.565          33.000    22504792.910    92153414.205        2813.544          35.000  
G02  23132995.896   121564628.280       -3221.567          34.000                                                                  
G14  20034489.230   105281947.394        2239.359          40.000    20034493.458    82037922.329        1744.919          40.000  
G17  20513707.499   107800240.953         193.818          39.000    20513711.467    84000227.517         151.143          37.000  
> 2025 04 27 02 33 30.9960000  0 12                     
G30  19544326.059   102706080.990        -566.992          41.000    19544331.879    80030734.886        -441.895          39.000  
G13  23916253.974   125680731.851        -681.411          28.000                                                                  
G08  23937509.867   125792452.509       -1974.362          30.000    23937529.459    98019951.304       -1539.643          31.000  
G01  20269833.645   106518666.449       -2046.613          40.000    20269838.409    83001502.335       -1594.691          39.000  
G19  21781026.998   114460070.403        1543.525          34.000                                                                  
G22  21687390.112   113968008.809        2374.637          37.000                                                                  
G03  21610245.286   113562617.820        1717.622          36.000    21610258.411    88490439.151        1338.583          33.000  
G07  20141625.900   105844899.425       -2391.572          39.000    20141631.165    82476515.581       -1863.989          37.000  
G06  22504090.270   118259835.101        3611.078          32.000    22504105.848    92150600.917        2813.342          35.000  
G02  23133609.025   121567850.493       -3222.449          34.000                                                                  
G14  20034063.058   105279707.844        2239.533          40.000    20034067.268    82036177.232        1745.098          40.000  
G17  20513670.618   107800047.091         194.143          39.000    20513674.604    84000076.480         151.062          37.000  
> 2025 04 27 02 33 31.9960000  0 12                     
G30  19544433.992   102706648.310        -567.493          41.000    19544439.783    80031176.942        -442.310          38.000  
G13  23916383.633   125681413.699        -681.903          28.000                                                                  
G08  23937885.556   125794427.382       -1974.277          29.000    23937905.414    98021490.145       -1539.096          30.000  
G01  20270223.140   106520713.328       -2047.233          40.000    20270227.989    83003097.311       -1595.286          39.000  
G19  21780733.086   114458526.598        1543.487          34.000                                                                  
G22  21686938.296   113965634.460        2374.185          37.000                                                                  
G03  21609918.524   113560900.602        1716.989          36.000    21609931.641    88489101.065        1337.786          33.000  
G07  20142081.087   105847291.427       -2392.032          39.000    20142086.366    82478379.451       -1863.721          37.000  
G06  22503403.401   118256224.955        3610.089          33.000    22503418.834    92147787.817        2813.336          35.000  
G02  23134222.241   121571072.713       -3222.098          34.000                                                                  
G14  20033636.846   105277468.476        2239.626          40.000    20033641.092    82034432.268        1745.041          40.000  
G17  20513633.719   107799853.391         193.975          39.000    20513637.800    83999925.561         150.736          38.000  
> 2025 04 27 02 33 32.9960000  0 12                     
G30  19544542.101   102707216.237        -568.195          41.000    19544547.940    80031619.477        -442.670          38.000  
G13  23916513.320   125682095.930        -682.758          29.000                                                                  
G08  23938261.276   125796402.125       -1973.974          29.000    23938281.271    98023028.918       -1538.888          30.000  
G01  20270612.696   106522760.642       -2047.710          40.000    20270617.556    83004692.634       -1595.774          39.000  
G19  21780439.307   114456982.945        1543.319          34.000                                                                  
G22  21686486.525   113963260.081        2374.321          37.000                                                                  
G03  21609591.885   113559183.753        1716.397          36.000    21609604.925    88487763.246        1338.284          33.000  
G07  20142536.410   105849683.838       -2392.588          39.000    20142541.567    82480243.656       -1864.305          37.000  
G06  22502716.355   118252615.004        3610.266          32.000    22502731.925    92144974.896        2812.665          35.000  
G02  23134835.473   121574294.986       -3222.463          34.000                                                                  
G14  20033210.686   105275229.251        2239.335          40.000    20033215.043    82032687.422        1744.571          40.000  
G17  20513596.938   107799659.823         193.343          39.000    20513600.908    83999774.694         150.826          38.000  
> 2025 04 27 02 33 33.9960000  0 12                     
G30  19544650.302   102707784.827        -569.092          41.000    19544656.108    80032062.538        -443.378          38.000  
G13  23916643.113   125682778.424        -682.756          28.000                                                                  
G08  23938636.953   125798376.863       -1974.898          30.000    23938657.109    98024567.642       -1539.377          30.000  
G01  20271002.403   106524808.465       -2047.997          40.000    20271007.291    83006288.318       -1595.693          39.000  
G19  21780145.645   114455439.446        1543.337          35.000                                                                  
G22  21686034.691   113960885.717        2374.277          37.000                                                                  
G03  21609265.368   113557467.300        1716.143          36.000    21609278.266    88486425.788        1336.925          33.000  
G07  20142991.832   105852076.728       -2393.270          39.000    20142997.002    82482108.238       -1864.806          37.000  
G06  22502029.511   118249005.439        3608.740          32.000    22502044.969    92142162.206        2812.750          35.000  
G02  23135448.760   121577517.328       -3222.157          34.000                                                                  
G14  20032784.634   105272990.217        2239.157          40.000    20032789.083    82030942.716        1744.579          40.000  
G17  20513560.166   107799466.401         193.295          39.000    20513564.100    83999623.979         150.681          38.000  
> 2025 04 27 02 33 34.9960000  0 12                     
G30  19544758.620   102708354.138        -569.690          41.000    19544764.503    80032506.161        -444.122          38.000  
G13  23916773.007   125683461.422        -683.285          28.000                                                                  
G08  23939012.657   125800351.488       -1973.611          30.000    23939032.873    98026106.333       -1539.634          31.000  
G01  20271392.177   106526856.865       -2048.527          40.000    20271397.096    83007884.482       -1596.296          39.000  
G19  21779852.014   114453896.250        1543.414          34.000                                                                  
G22  21685582.895   113958511.472        2373.850          37.000                                                                  
G03  21608938.858   113555751.337        1715.587          36.000    21608951.704    88485088.657        1336.689          33.000  
G07  20143447.224   105854470.134       -2393.470          39.000    20143452.450    82483973.221       -1864.791          37.000  
G06  22501342.538   118245396.152        3609.174          32.000    22501358.155    92139349.817        2811.859          35.000  
G02  23136062.173   121580739.890       -3223.164          34.000                                                                  
G14  20032358.555   105270751.470        2238.866          40.000    20032363.190    82029198.255        1744.101          40.000  
G17  20513523.477   107799273.239         192.934          39.000    20513527.271    83999473.455         150.282          38.000  
> 2025 04 27 02 33 35.9960000  0 12                     
G30  19544867.063   102708924.041        -570.081          41.000    19544872.947    80032950.237        -444.299          38.000  
G13  23916903.092   125684144.663        -683.221          28.000                                                                  
G08  23939388.390   125802326.062       -1974.404          30.000    23939408.484    98027644.925       -1539.174          31.000  
G01  20271782.127   106528905.716       -2049.460          40.000    20271787.035    83009480.971       -1596.792          40.000  
G19  21779558.363   114452353.228        1542.779          34.000                                                                  
G22  21685131.138   113956137.197        2374.013          37.000                                                                  
G03  21608612.323   113554035.736        1715.633          36.000    21608625.268    88483751.816        1336.945          33.000  
G07  20143902.790   105856863.972       -2394.056          39.000    20143907.918    82485838.551       -1865.569          37.000  
G06  22500655.721   118241787.102        3608.679          32.000    22500671.280    92136537.578        2811.914          35.000  
G02  23136675.516   121583962.454       -3222.820          35.000                                                                  
G14  20031932.615   105268512.870        2238.694          40.000    20031937.245    82027453.875        1744.120          40.000  
G17  20513486.764   107799080.195         192.700          39.000    20513490.528    83999323.025         150.545          38.000  
> 2025 04 27 02 33 36.9960000  0 12                     
G30  19544975.532   102709494.502        -570.782          41.000    19544981.484    80033394.737        -444.708          38.000  
G13  23917032.957   125684828.250        -684.100          28.000                                                                  
G08  23939764.216   125804300.453       -1974.786          30.000    23939784.340    98029183.355       -1538.526          31.000  
G01  20272172.066   106530954.933       -2049.421          40.000    20272176.898    83011077.770       -1597.168          39.000  
G19  21779264.873   114450810.258        1542.464          34.000                                                                  
G22  21684679.355   113953762.788        2374.550          37.000                                                                  
G03  21608285.975   113552320.432        1714.890          36.000    21608298.824    88482415.241        1336.441          33.000  
G07  20144358.430   105859258.158       -2394.598          39.000    20144363.543    82487704.135       -1865.667          37.000  
G06  22499969.065   118238178.251        3608.356          32.000    22499984.592    92133725.502        2811.487          35.000  
G02  23137288.738   121587184.993       -3222.662          35.000                                                                  
G14  20031506.688   105266274.355        2238.505          40.000    20031511.211    82025709.571        1744.122          40.000  
G17  20513450.076   107798887.191         192.937          39.000    20513453.755    83999172.653         150.197          38.000  
> 2025 04 27 02 33 37.9960000  0 12                     
G30  19545084.173   102710065.648        -571.521          41.000    19545090.174    80033839.787        -445.160          38.000  
G13  23917163.068   125685512.142        -684.049          29.000                                                                  
G08  23940140.004   125806274.687       -1973.740          30.000    23940160.030    98030721.700       -1537.690          31.000  
G01  20272562.136   106533004.689       -2050.042          40.000    20272566.938    83012674.978       -1597.621          39.000  
G19  21778971.199   114449267.497        1542.635          35.000                                                                  
G22  21684227.421   113951388.471        2374.399          37.000                                                                  
G03  21607959.632   113550605.575        1714.701          36.000    21607972.553    88481079.004        1336.151          33.000  
G07  20144814.080   105861652.839       -2394.960          39.000    20144819.212    82489570.102       -1866.151          37.000  
G06  22499282.477   118234569.729        3608.215          33.000    22499297.934    92130913.657        2811.639          35.000  
G02  23137902.042   121590407.690       -3223.215          35.000                                                                  
G14  20031080.760   105264036.071        2238.291          40.000    20031085.235    82023965.453        1743.836          40.000  
G17  20513413.343   107798694.396         192.674          39.000    20513417.142    83999022.407         150.354          38.000  
> 2025 04 27 02 33 38.9960000  0 12                     
G30  19545192.980   102710637.457        -572.040          41.000    19545199.036    80034285.371        -446.069          38.000  
G13  23917293.381   125686196.497        -684.803          29.000                                                                  
G08  23940515.822   125808248.988       -1974.991          30.000    23940535.547    98032260.097       -1538.483          31.000  
G01  20272952.398   106535054.969       -2050.642          40.000    20272957.113    83014272.583       -1597.751          39.000  
G19  21778677.684   114447725.017        1541.955          35.000                                                                  
G22  21683775.605   113949014.203        2374.177          37.000                                                                  
G03  21607633.435   113548891.143        1714.252          36.000    21607646.243    88479743.077        1335.963          33.000  
G07  20145269.884   105864047.999       -2395.557          39.000    20145274.929    82491436.461       -1866.722          37.000  
G06  22498595.862   118230961.492        3608.240          33.000    22498611.439    92128102.030        2812.073          35.000  
G02  23138515.377   121593630.490       -3223.397          35.000                                                                  
G14  20030654.850   105261798.008        2237.976          40.000    20030659.252    82022221.504        1743.859          40.000  
G17  20513376.680   107798501.784         192.583          40.000    20513380.545    83998872.333         150.131          37.000  
> 2025 04 27 02 33 39.9960000  0 12                     
G30  19545301.877   102711209.990        -573.016          41.000    19545307.935    80034731.477        -446.313          38.000  
G13  23917423.679   125686881.231        -685.087          30.000                                                                  
G08  23940891.503   125810223.158       -1973.227          30.000    23940911.327    98033798.442       -1537.826          31.000  
G01  20273342.689   106537105.790       -2051.112          40.000    20273347.337    83015870.635       -1598.212          39.000  
G19  21778384.171   114446182.730        1542.434          35.000                                                                  
G22  21683323.776   113946640.016        2373.793          37.000                                                                  
G03  21607307.173   113547177.185        1713.631          37.000    21607320.062    88478407.523        1336.136          33.000  
G07  20145725.815   105866443.680       -2396.110          39.000    20145730.763    82493303.219       -1867.183          37.000  
G06  22497909.424   118227353.643        3607.733          32.000    22497924.803    92125290.711        2811.249          35.000  
G02  23139128.636   121596853.393       -3222.729          35.000                                                                  
G14  20030229.071   105259560.192        2237.690          40.000    20030233.391    82020477.747        1743.888          40.000  
G17  20513340.051   107798309.407         192.194          40.000    20513343.918    83998722.424         149.978          38.000  
> 2025 04 27 02 33 40.9960000  0 12                     
G30  19545410.934   102711783.129        -573.572          41.000    19545416.971    80035178.088        -446.857          38.000  
G13  23917554.034   125687566.355        -687.353          30.000                                                                  
G08  23941267.311   125812197.289       -1974.302          30.000    23941286.987    98035336.694       -1538.798          31.000  
G01  20273733.031   106539157.067       -2051.484          40.000    20273737.715    83017469.048       -1598.978          39.000  
G19  21778090.700   114444640.628        1541.920          35.000                                                                  
G22  21682871.975   113944265.773        2374.205          37.000                                                                  
G03  21606981.186   113545463.612        1712.902          37.000    21606993.956    88477072.313        1334.331          33.000  
G07  20146181.790   105868839.784       -2396.580          39.000    20146186.673    82495170.274       -1867.013          37.000  
G06  22497222.846   118223745.996        3606.640          32.000    22497238.335    92122479.584        2811.035          35.000  
G02  23139741.903   121600076.385       -3223.207          35.000                                                                  
G14  20029803.278   105257322.531        2237.395          40.000    20029807.604    82018734.117        1743.599          40.000  
G17  20513303.461   107798117.165         191.791          39.000    20513307.194    83998572.603         149.940          37.000  
> 2025 04 27 02 33 41.9960000  0 12                     
G30  19545520.136   102712356.919        -573.969          41.000    19545526.128    80035625.208        -447.638          38.000  
G13  23917684.641   125688251.701        -685.281          30.000                                                                  
G08  23941642.818   125814171.330       -1975.011          30.000    23941662.688    98036874.834       -1537.425          31.000  
G01  20274123.517   106541208.853       -2051.906          40.000    20274128.213    83019067.832       -1599.214          39.000  
G19  21777797.334   114443098.706        1542.161          35.000                                                                  
G22  21682420.166   113941891.582        2374.408          37.000                                                                  
G03  21606655.188   113543750.451        1712.747          37.000    21606667.807    88475737.375        1334.901          33.000  
G07  20146637.858   105871236.353       -2396.509          39.000    20146642.811    82497037.751       -1867.648          37.000  
G06  22496536.277   118220138.621        3607.751          32.000    22496551.917    92119668.654        2811.341          35.000  
G02  23140355.230   121603299.484       -3223.357          35.000                                                                  
G14  20029377.495   105255085.083        2237.582          40.000    20029381.839    82016990.665        1743.260          40.000  
G17  20513266.887   107797925.071         192.140          39.000    20513270.626    83998422.967         149.269          37.000  
> 2025 04 27 02 33 42.9960000  0 12                     
G30  19545629.460   102712931.466        -574.890          41.000    19545635.415    80036072.882        -447.870          38.000  
G13  23917815.136   125688937.567        -685.770          30.000                                                                  
G08  23942018.306   125816145.304       -1973.952          29.000    23942038.485    98038413.102       -1539.148          31.000  
G01  20274514.012   106543261.212       -2052.573          40.000    20274518.739    83020667.074       -1599.492          39.000  
G19  21777504.107   114441557.117        1541.355          35.000                                                                  
G22  21681968.338   113939517.497        2374.378          37.000                                                                  
G03  21606329.365   113542037.772        1712.222          37.000    21606341.828    88474402.809        1334.637          33.000  
G07  20147094.068   105873633.473       -2397.119          39.000    20147099.030    82498905.631       -1868.099          37.000  
G06  22495849.757   118216531.660        3607.232          32.000    22495865.512    92116858.041        2810.791          35.000  
G02  23140968.586   121606522.736       -3223.029          35.000                                                                  
G14  20028951.848   105252847.937        2236.979          40.000    20028956.057    82015247.415        1743.209          40.000  
G17  20513230.398   107797733.259         191.835          39.000    20513234.127    83998273.460         149.674          37.000  
> 2025 04 27 02 33 43.9960000  0 12                     
G30  19545738.962   102713506.653        -575.397          41.000    19545744.915    80036521.078        -448.267          38.000  
G13  23917945.833   125689623.746        -685.684          30.000                                                                  
G08  23942393.825   125818119.237       -1974.515          30.000    23942414.129    98039951.153       -1538.240          31.000  
G01  20274904.599   106545314.085       -2053.464          40.000    20274909.411    83022266.676       -1599.750          39.000  
G19  21777210.701   114440015.692        1541.008          34.000                                                                  
G22  21681516.729   113937143.468        2373.828          37.000                                                                  
G03  21606003.491   113540325.525        1711.551          37.000    21606016.038    88473068.598        1333.693          33.000  
G07  20147550.284   105876031.056       -2398.063          39.000    20147555.290    82500773.877       -1868.776          37.000  
G06  22495163.404   118212925.015        3606.323          32.000    22495179.233    92114047.661        2810.077          35.000  
G02  23141581.963   121609746.090       -3223.331          35.000                                                                  
G14  20028526.158   105250610.966        2236.739          40.000    20028530.376    82013504.332        1742.633          40.000  
G17  20513193.915   107797541.602         191.348          39.000    20513197.634    83998124.109         149.618          37.000  
> 2025 04 27 02 33 44.9960000  0 12                     
G30  19545848.474   102714082.498        -576.117          41.000    19545854.547    80036969.797        -449.292          38.000  
G13  23918076.574   125690310.449        -687.120          30.000                                                                  
G08  23942769.358   125820093.119       -1974.097          30.000    23942789.779    98041489.170       -1537.125          31.000  
G01  20275295.308   106547367.423       -2053.705          40.000    20275300.195    83023866.705       -1600.460          39.000  
G19  21776917.370   114438474.461        1541.015          34.000                                                                  
G22  21681065.082   113934769.429        2373.879          37.000                                                                  
G03  21605677.687   113538613.669        1711.702          37.000    21605690.238    88471734.699        1333.274          33.000  
G07  20148006.567   105878429.095       -2398.256          39.000    20148011.571    82502642.471       -1869.019          37.000  
G06  22494477.089   118209318.608        3606.586          32.000    22494492.976    92111237.484        2810.175          35.000  
G02  23142195.336   121612969.525       -3223.225          35.000                                                                  
G14  20028100.457   105248374.183        2236.715          40.000    20028104.723    82011761.384        1742.693          40.000  
G17  20513157.511   107797350.115         191.147          39.000    20513161.186    83997974.910         149.101          37.000  
> 2025 04 27 02 33 45.9960000  0 12                     
G30  19545958.124   102714658.992        -577.069          41.000    19545964.353    80037419.001        -449.493          38.000  
G13  23918207.306   125690997.356        -687.080          30.000                                                                  
G08  23943144.853   125822066.869       -1974.098          30.000    23943165.399    98043027.178       -1537.461          31.000  
G01  20275686.168   106549421.271       -2053.937          40.000    20275691.077    83025467.094       -1600.834          40.000  
G19  21776624.088   114436933.414        1541.459          34.000                                                                  
G22  21680613.343   113932395.427        2374.044          36.000                                                                  
G03  21605351.918   113536902.203        1711.719          37.000    21605364.529    88470401.060        1334.150          34.000  
G07  20148463.010   105880827.595       -2398.699          39.000    20148468.011    82504511.418       -1869.022          37.000  
G06  22493790.874   118205712.496        3605.792          33.000    22493806.711    92108427.528        2809.857          35.000  
G02  23142808.828   121616193.088       -3223.662          35.000                                                                  
G14  20027674.852   105246137.592        2236.785          40.000    20027679.069    82010018.589        1742.896          40.000  
G17  20513121.086   107797158.798         191.279          39.000    20513124.903    83997825.818         149.287          37.000  
> 2025 04 27 02 33 46.9960000  0 12                     
G30  19546067.985   102715236.192        -577.374          41.000    19546074.151    80037868.777        -450.336          38.000  
G13  23918338.094   125691684.733        -687.766          29.000                                                                  
G08  23943520.322   125824040.621       -1973.962          30.000    23943540.880    98044565.163       -1537.992          31.000  
G01  20276077.222   106551475.656       -2054.524          40.000    20276081.989    83027067.899       -1601.071          39.000  
G19  21776330.940   114435392.644        1540.429          34.000                                                                  
G22  21680161.542   113930021.450        2374.275          36.000                                                                  
G03  21605026.424   113535191.257        1710.482          37.000    21605038.947    88469067.876        1332.653          34.000  
G07  20148919.532   105883226.614       -2399.670          39.000    20148924.523    82506380.775       -1869.834          37.000  
G06  22493104.922   118202106.710        3606.378          33.000    22493120.549    92105617.854        2809.485          35.000  
G02  23143422.300   121619416.763       -3223.989          35.000                                                                  
G14  20027249.245   105243901.274        2236.232          40.000    20027253.372    82008276.011        1742.311          40.000  
G17  20513084.777   107796967.695         190.906          39.000    20513088.576    83997676.948         148.268          37.000  
> 2025 04 27 02 33 47.9960000  0 12                     
G30  19546177.997   102715814.028        -578.156          41.000    19546184.038    80038319.023        -450.781          38.000  
G13  23918468.927   125692372.427        -688.005          29.000                                                                  
G08  23943895.610   125826014.204       -1973.177          30.000    23943916.499    98046103.093       -1538.302          31.000  
G01  20276468.298   106553530.517       -2055.028          40.000    20276473.006    83028669.096       -1601.620          39.000  
G19  21776037.751   114433852.013        1540.788          34.000                                                                  
G22  21679709.856   113927647.513        2373.996          36.000                                                                  
G03  21604700.853   113533480.663        1710.188          36.000    21604713.393    88467734.938        1332.460          34.000  
G07  20149376.160   105885626.054       -2399.836          39.000    20149381.101    82508250.454       -1869.882          37.000  
G06  22492419.053   118198501.226        3605.163          33.000    22492434.453    92102808.372        2809.082          35.000  
G02  23144035.764   121622640.501       -3223.557          35.000                                                                  
G14  20026823.748   105241665.134        2236.037          40.000    20026827.780    82006533.544        1742.398          40.000  
G17  20513048.512   107796776.724         190.962          39.000    20513052.259    83997528.122         148.831          37.000  
> 2025 04 27 02 33 48.9960000  0 12                     
G30  19546287.971   102716392.508        -578.882          41.000    19546294.102    80038769.773        -450.946          38.000  
G13  23918599.904   125693060.482        -688.181          29.000                                                                  
G08  23944271.146   125827987.800       -1973.707          30.000    23944292.207    98047640.845       -1537.621          31.000  
G01  20276859.425   106555585.864       -2055.383          40.000    20276864.135    83030270.664       -1601.803          39.000  
G19  21775744.612   114432311.650        1539.904          34.000                                                                  
G22  21679258.223   113925273.621        2373.387          36.000                                                                  
G03  21604375.420   113531770.492        1709.924          36.000    21604388.011    88466402.351        1332.099          34.000  
G07  20149832.855   105888025.964       -2399.967          39.000    20149837.804    82510120.508       -1870.209          37.000  
G06  22491733.186   118194896.026        3604.913          33.000    22491748.491    92099999.134        2809.039          35.000  
G02  23144649.258   121625864.392       -3224.493          35.000                                                                  
G14  20026398.290   105239429.179        2235.823          40.000    20026402.250    82004791.251        1742.252          40.000  
G17  20513012.199   107796585.958         190.441          39.000    20513016.025    83997379.467         148.353          37.000  
> 2025 04 27 02 33 49.9960000  0 12                     
G30  19546398.234   102716971.624        -579.437          41.000    19546404.324    80039221.020        -451.251          38.000  
G13  23918730.753   125693748.885        -688.627          29.000                                                                  
G08  23944646.693   125829961.216       -1973.362          30.000    23944667.688    98049178.605       -1537.519          31.000  
G01  20277250.574   106557641.708       -2056.000          40.000    20277255.298    83031872.603       -1602.123          39.000  
G19  21775451.479   114430771.373        1540.612          34.000                                                                  
G22  21678806.539   113922899.680        2374.151          36.000                                                                  
G03  21604049.972   113530060.714        1709.642          36.000    21604062.623    88465070.070        1331.563          34.000  
G07  20150289.688   105890426.323       -2400.347          39.000    20150294.591    82511990.921       -1870.375          37.000  
G06  22491047.257   118191291.067        3605.493          33.000    22491062.496    92097190.070        2809.100          35.000  
G02  23145262.704   121629088.277       -3224.082          35.000                                                                  
G14  20025972.853   105237193.422        2235.682          40.000    20025976.840    82003049.085        1742.210          40.000  
G17  20512975.954   107796395.319         190.619          39.000    20512979.685    83997230.910         148.490          37.000  
