     3.04           OBSERVATION DATA    G: GPS              RINEX VERSION / TYPE
RTKCONV demo5 b34i                      20250515 063258 UTC PGM / RUN BY / DATE 
format: u-blox UBX                                          COMMENT             
log: D:\20242\NGUYENDS\GNSS_DOA_Spoofing\hai\ngoc\SP-2025-04COMMENT             
                                                            MARKER NAME         
                                                            MARKER NUMBER       
                                                            MARKER TYPE         
                                                            OBSERVER / AGENCY   
                                                            REC # / TYPE / VERS 
                                                            ANT # / TYPE        
 -1626587.7550  5730538.5972  2271875.9953                  APPROX POSITION XYZ 
        0.0000        0.0000        0.0000                  ANTENNA: DELTA H/E/N
G    8 C1C L1C D1C S1C C2X L2X D2X S2X                      SYS / # / OBS TYPES 
  2025    04    27    02    30   50.0020000     GPS         TIME OF FIRST OBS   
  2025    04    27    02    34   27.0020000     GPS         TIME OF LAST OBS    
G L1C                                                       SYS / PHASE SHIFT   
G L2X  0.00000                                              SYS / PHASE SHIFT   
  0                                                         GLONASS SLOT / FRQ #
                                                            GLONASS COD/PHS/BIS 
                                                            END OF HEADER       
> 2025 04 27 02 30 50.0020000  0 12                     
G08  25658694.014   134837236.0471      -2095.505          31.000    25658715.184   105067921.1721      -1632.261          33.000  
G07  21851402.970   114829844.1151      -2421.774          39.000    21851408.987    89477782.0371      -1887.176          39.000  
G02  24817028.616   130414253.2641      -3312.168          35.000                                                                  
G06  24397294.762   128208675.6581       3549.072          32.000    24397309.694    99902959.4291       2765.589          35.000  
G03  23445759.313   123208319.7101       1676.389          36.000    23445773.507    96006571.5351       1305.630          36.000  
G30  21310470.204   111987238.3041       -567.291          42.000    21310476.101    87262812.9541       -442.053          40.000  
G01  21990264.192   115559591.2961      -2071.382          41.000    21990269.451    90046431.9971      -1614.218          41.000  
G13  25678174.450   134939697.3981       -728.064          28.000                                                                  
G22  23542079.168   123714481.6321       2271.150          38.000                                                                  
G14  21885048.529   115006704.7781       2164.132          40.000    21885053.325    89615656.4161       1686.418          41.000  
G17  22301929.240   117197402.7681        115.946          40.000    22301933.536    91322675.0011         89.878          39.000  
G19  23610714.376   124075138.1051       1469.930          36.000                                                                  
> 2025 04 27 02 30 51.0020000  0 12                     
G08  25659092.506   134839330.195       -2094.044          31.000    25659113.733   105069552.957       -1631.272          33.000  
G07  21851863.740   114832265.985       -2421.901          39.000    21851869.900    89479669.209       -1887.375          39.000  
G02  24817658.868   130417565.220       -3311.780          35.000                                                                  
G06  24396619.539   128205126.326        3549.682          32.000    24396634.227    99900193.737        2765.900          35.000  
G03  23445440.340   123206643.659        1675.538          35.000    23445454.599    96005265.481        1305.647          36.000  
G30  21310578.225   111987805.720        -567.798          42.000    21310584.113    87263255.079        -442.139          40.000  
G01  21990658.481   115561662.987       -2072.150          41.000    21990663.651    90048046.281       -1614.530          41.000  
G13  25678313.041   134940425.793        -728.625          29.000                                                                  
G22  23541646.942   123712210.308        2271.359          38.000                                                                  
G14  21884636.682   115004540.501        2164.260          40.000    21884641.430    89613969.975        1686.383          41.000  
G17  22301907.260   117197287.094         115.924          40.000    22301911.483    91322584.841          90.299          39.000  
G19  23610434.696   124073668.232        1469.574          35.000                                                                  
> 2025 04 27 02 30 52.0020000  0 12                     
G08  25659491.175   134841424.199       -2093.440          31.000    25659512.155   105071184.677       -1631.116          33.000  
G07  21852324.650   114834688.335       -2422.850          39.000    21852330.822    89481556.713       -1887.660          40.000  
G02  24818289.062   130420877.276       -3312.066          35.000                                                                  
G06  24395944.083   128201577.274        3548.779          32.000    24395958.866    99897428.229        2765.570          36.000  
G03  23445121.517   123204967.959        1675.228          36.000    23445135.772    96003959.744        1305.663          36.000  
G30  21310686.281   111988373.755        -568.646          42.000    21310692.119    87263697.706        -442.963          40.000  
G01  21991052.872   115563735.118       -2072.223          41.000    21991058.033    90049660.946       -1615.000          41.000  
G13  25678451.771   134941154.507        -728.918          29.000                                                                  
G22  23541214.715   123709938.967        2271.333          38.000                                                                  
G14  21884224.875   115002376.361        2164.451          40.000    21884229.519    89612283.640        1686.188          41.000  
G17  22301885.276   117197171.550         115.560          40.000    22301889.425    91322494.813          89.794          39.000  
G19  23610155.036   124072198.508        1469.755          36.000                                                                  
> 2025 04 27 02 30 53.0020000  0 12                     
G08  25659889.503   134843518.135       -2094.865          31.000    25659910.640   105072816.282       -1632.386          33.000  
G07  21852785.715   114837111.023       -2423.268          39.000    21852791.778    89483444.519       -1888.071          40.000  
G02  24818919.284   130424189.298       -3311.815          35.000                                                                  
G06  24395268.843   128198028.348        3548.950          33.000    24395283.432    99894662.875        2764.594          36.000  
G03  23444802.768   123203292.502        1675.063          36.000    23444816.780    96002654.207        1305.238          36.000  
G30  21310794.495   111988942.343        -569.244          42.000    21310800.327    87264140.763        -443.433          40.000  
G01  21991447.384   115565807.646       -2072.490          41.000    21991452.450    90051275.896       -1615.258          41.000  
G13  25678590.465   134941883.461        -729.340          29.000                                                                  
G22  23540782.454   123707667.501        2271.410          38.000                                                                  
G14  21883813.128   115000212.323        2163.947          40.000    21883817.704    89610597.363        1686.218          41.000  
G17  22301863.326   117197056.070         115.189          40.000    22301867.414    91322404.812          89.841          39.000  
G19  23609875.305   124070728.859        1469.772          35.000                                                                  
> 2025 04 27 02 30 54.0020000  0 12                     
G08  25660287.899   134845611.757       -2092.868          31.000    25660309.012   105074447.686       -1631.618          33.000  
G07  21853246.776   114839534.079       -2423.007          39.000    21853252.880    89485332.610       -1887.832          39.000  
G02  24819549.494   130427501.353       -3312.242          35.000                                                                  
G06  24394593.566   128194479.622        3548.858          34.000    24394608.093    99891897.604        2765.509          36.000  
G03  23444483.982   123201617.336        1675.386          36.000    23444498.006    96001348.904        1305.253          36.000  
G30  21310902.789   111989511.468        -569.299          42.000    21310908.581    87264584.241        -443.695          40.000  
G01  21991841.842   115567880.609       -2073.031          41.000    21991846.945    90052891.179       -1615.347          41.000  
G13  25678729.128   134942612.677        -729.444          29.000                                                                  
G22  23540350.319   123705395.961        2271.717          38.000                                                                  
G14  21883401.287   114998048.355        2164.099          40.000    21883405.808    89608911.179        1685.755          41.000  
G17  22301841.307   117196940.670         115.239          40.000    22301845.524    91322314.878          90.209          39.000  
G19  23609595.542   124069259.326        1469.829          35.000                                                                  
> 2025 04 27 02 30 55.0020000  0 12                     
G08  25660686.276   134847705.336       -2093.465          31.000    25660707.443   105076079.003       -1631.111          33.000  
G07  21853708.002   114841957.616       -2423.925          39.000    21853714.134    89487221.091       -1888.970          39.000  
G02  24820179.712   130430813.492       -3312.264          34.000                                                                  
G06  24393918.646   128190931.169        3548.096          34.000    24393932.876    99889132.574        2764.990          36.000  
G03  23444165.348   123199942.597        1673.969          35.000    23444179.324    96000043.902        1304.365          36.000  
G30  21311011.239   111990081.250        -570.380          42.000    21311017.069    87265028.219        -444.635          40.000  
G01  21992236.474   115569954.049       -2073.667          41.000    21992241.389    90054506.866       -1616.320          41.000  
G13  25678868.020   134943342.264        -730.084          29.000                                                                  
G22  23539918.045   123703124.444        2270.896          38.000                                                                  
G14  21882989.439   114995884.543        2163.714          40.000    21882994.027    89607225.075        1685.670          42.000  
G17  22301819.467   117196825.406         115.100          40.000    22301823.635    91322225.069          89.659          39.000  
G19  23609315.836   124067789.943        1469.553          35.000                                                                  
> 2025 04 27 02 30 56.0020000  0 12                     
G08  25661084.617   134849798.828       -2093.711          31.000    25661105.775   105077710.268       -1630.768          33.000  
G07  21854169.249   114844381.592       -2424.333          39.000    21854175.398    89489109.904       -1889.266          39.000  
G02  24820809.977   130434125.693       -3312.356          34.000                                                                  
G06  24393243.564   128187382.912        3548.566          33.000    24393257.727    99886367.726        2764.764          36.000  
G03  23443846.785   123198268.169        1674.456          35.000    23443860.628    95998739.181        1304.020          36.000  
G30  21311119.781   111990651.654        -570.764          42.000    21311125.578    87265472.696        -444.965          40.000  
G01  21992631.169   115572027.988       -2074.364          41.000    21992636.041    90056122.880       -1616.027          41.000  
G13  25679006.955   134944072.158        -729.738          29.000                                                                  
G22  23539485.609   123700852.888        2271.400          38.000                                                                  
G14  21882577.709   114993720.891        2163.538          40.000    21882582.328    89605539.132        1685.688          42.000  
G17  22301797.416   117196710.284         115.138          41.000    22301801.681    91322135.412          89.041          39.000  
G19  23609036.280   124066320.782        1469.139          35.000                                                                  
> 2025 04 27 02 30 57.0020000  0 12                     
G08  25661483.087   134851892.123       -2091.952          31.000    25661504.121   105079341.461       -1630.826          33.000  
G07  21854630.621   114846806.061       -2424.785          39.000    21854636.807    89490999.090       -1889.869          39.000  
G02  24821440.227   130437438.044       -3312.788          34.000                                                                  
G06  24392568.500   128183834.961        3548.211          32.000    24392582.592    99883603.082        2764.496          35.000  
G03  23443528.239   123196594.157        1674.301          36.000    23443542.020    95997434.753        1303.906          36.000  
G30  21311228.460   111991222.723        -571.161          42.000    21311234.241    87265917.674        -445.148          40.000  
G01  21993025.942   115574102.415       -2074.583          41.000    21993030.806    90057739.340       -1616.700          41.000  
G13  25679145.924   134944802.523        -730.723          29.000                                                                  
G22  23539053.289   123698581.354        2271.400          38.000                                                                  
G14  21882165.966   114991557.451        2163.372          40.000    21882170.709    89603853.311        1685.671          42.000  
G17  22301775.530   117196595.389         114.845          40.000    22301779.882    91322045.830          89.625          39.000  
G19  23608756.759   124064851.792        1469.332          35.000                                                                  
> 2025 04 27 02 30 58.0020000  0 12                     
G08  25661881.525   134853985.524       -2092.954          31.000    25661902.462   105080972.645       -1631.118          33.000  
G07  21855092.168   114849231.077       -2425.605          39.000    21855098.226    89492888.668       -1889.518          39.000  
G02  24822070.688   130440750.502       -3312.547          34.000                                                                  
G06  24391893.138   128180287.331        3547.693          32.000    24391907.541    99880838.682        2764.087          35.000  
G03  23443209.714   123194920.621        1673.229          36.000    23443223.504    95996130.710        1303.211          36.000  
G30  21311337.269   111991794.534        -572.156          42.000    21311343.019    87266363.254        -446.136          40.000  
G01  21993420.837   115576177.434       -2075.250          41.000    21993425.708    90059356.217       -1617.184          41.000  
G13  25679284.996   134945533.201        -730.591          29.000                                                                  
G22  23538620.956   123696309.877        2271.404          38.000                                                                  
G14  21881754.297   114989394.234        2163.122          40.000    21881759.165    89602167.690        1685.399          41.000  
G17  22301753.739   117196480.710         114.260          40.000    22301758.034    91321956.469          89.313          39.000  
G19  23608477.268   124063383.099        1468.534          35.000                                                                  
> 2025 04 27 02 30 59.0020000  0 12                     
G08  25662279.953   134856078.792       -2092.904          31.000    25662300.855   105082603.794       -1631.844          33.000  
G07  21855553.624   114851656.537       -2425.665          40.000    21855559.708    89494778.647       -1889.864          39.000  
G02  24822701.145   130444063.119       -3312.993          34.000                                                                  
G06  24391217.873   128176739.977        3547.076          32.000    24391232.616    99878074.492        2764.331          35.000  
G03  23442891.225   123193247.433        1673.429          35.000    23442905.080    95994826.932        1303.504          36.000  
G30  21311446.254   111992366.983        -572.821          42.000    21311451.965    87266809.305        -446.539          40.000  
G01  21993815.687   115578252.943       -2075.751          41.000    21993820.662    90060973.508       -1617.599          41.000  
G13  25679424.204   134946264.363        -731.457          28.000                                                                  
G22  23538188.664   123694038.443        2271.370          38.000                                                                  
G14  21881342.720   114987231.203        2162.984          40.000    21881347.657    89600482.220        1685.138          41.000  
G17  22301731.857   117196366.183         114.580          40.000    22301736.225    91321867.243          89.168          39.000  
G19  23608197.788   124061914.588        1468.228          35.000                                                                  
> 2025 04 27 02 31 00.0020000  0 12                     
G08  25662678.086   134858171.904       -2093.317          32.000    25662699.190   105084234.754       -1631.054          33.000  
G07  21856015.307   114854082.404       -2426.026          39.000    21856021.371    89496668.960       -1890.794          39.000  
G02  24823331.485   130447375.714       -3312.521          34.000                                                                  
G06  24390542.767   128173192.781        3547.479          33.000    24390557.612    99875310.482        2764.221          36.000  
G03  23442572.940   123191574.628        1672.478          35.000    23442586.731    95993523.417        1303.552          36.000  
G30  21311555.253   111992940.022        -573.499          42.000    21311561.096    87267255.821        -446.838          40.000  
G01  21994210.801   115580328.910       -2076.548          41.000    21994215.750    90062591.124       -1617.966          41.000  
G13  25679563.434   134946995.793        -731.570          29.000                                                                  
G22  23537756.423   123691766.904        2271.764          38.000                                                                  
G14  21880931.193   114985068.263        2162.890          40.000    21880936.093    89598796.817        1685.175          41.000  
G17  22301710.028   117196251.772         114.417          40.000    22301714.465    91321778.081          89.337          39.000  
G19  23607918.276   124060446.171        1468.546          35.000                                                                  
> 2025 04 27 02 31 01.0020000  0 12                     
G08  25663076.563   134860264.910       -2093.239          31.000    25663097.468   105085865.646       -1630.608          33.000  
G07  21856477.046   114856508.746       -2426.450          39.000    21856483.113    89498559.576       -1890.825          39.000  
G02  24823961.926   130450688.442       -3312.788          35.000                                                                  
G06  24389867.877   128169645.940        3545.447          33.000    24389882.661    99872546.664        2763.525          36.000  
G03  23442254.535   123189902.147        1672.276          36.000    23442268.416    95992220.204        1303.017          36.000  
G30  21311664.510   111993513.688        -573.950          42.000    21311670.160    87267702.838        -447.406          40.000  
G01  21994605.904   115582405.335       -2076.724          41.000    21994611.033    90064209.121       -1618.226          41.000  
G13  25679702.708   134947727.556        -731.869          29.000                                                                  
G22  23537324.205   123689495.385        2271.940          38.000                                                                  
G14  21880519.495   114982905.516        2162.674          40.000    21880524.554    89597111.542        1685.283          41.000  
G17  22301688.326   117196137.525         114.250          40.000    22301692.817    91321689.048          89.224          39.000  
G19  23607638.844   124058977.960        1468.453          35.000                                                                  
> 2025 04 27 02 31 02.0020000  0 12                     
G08  25663474.570   134862357.821       -2092.605          31.000    25663495.752   105087496.480       -1630.562          33.000  
G07  21856938.926   114858935.561       -2427.250          39.000    21856945.027    89500450.613       -1891.563          39.000  
G02  24824592.326   130454001.264       -3313.458          35.000                                                                  
G06  24389192.925   128166099.269        3546.265          33.000    24389207.750    99869783.050        2763.568          37.000  
G03  23441936.423   123188230.085        1671.561          36.000    23441950.131    95990917.288        1302.987          36.000  
G30  21311773.771   111994088.025        -574.683          42.000    21311779.368    87268150.360        -447.906          40.000  
G01  21995001.096   115584482.266       -2077.017          41.000    21995006.295    90065827.494       -1618.337          41.000  
G13  25679841.924   134948459.730        -732.464          29.000                                                                  
G22  23536891.948   123687223.869        2271.627          38.000                                                                  
G14  21880107.977   114980742.940        2162.725          40.000    21880113.019    89595426.417        1685.153          41.000  
G17  22301666.684   117196023.454         113.781          40.000    22301671.104    91321600.148          89.122          39.000  
G19  23607359.497   124057509.966        1467.494          35.000                                                                  
> 2025 04 27 02 31 03.0020000  0 12                     
G08  25663872.905   134864450.645       -2092.389          31.000    25663894.002   105089127.247       -1630.144          33.000  
G07  21857400.871   114861362.865       -2427.864          39.000    21857406.921    89502341.981       -1891.526          40.000  
G02  24825222.824   130457314.185       -3313.191          35.000                                                                  
G06  24388518.048   128162552.917        3545.276          32.000    24388532.892    99867019.657        2763.654          37.000  
G03  23441618.337   123186558.414        1671.139          36.000    23441632.046    95989614.672        1302.859          36.000  
G30  21311883.240   111994663.024        -575.336          42.000    21311888.769    87268598.398        -448.315          40.000  
G01  21995396.392   115586559.737       -2077.715          41.000    21995401.524    90067446.311       -1619.032          41.000  
G13  25679981.221   134949192.228        -732.594          29.000                                                                  
G22  23536459.715   123684952.395        2271.325          38.000                                                                  
G14  21879696.551   114978580.564        2162.161          40.000    21879701.403    89593741.455        1684.854          41.000  
G17  22301645.053   117195909.553         113.690          40.000    22301649.517    91321511.419          88.784          39.000  
G19  23607080.121   124056042.124        1467.884          36.000                                                                  
> 2025 04 27 02 31 04.0020000  0 12                     
G08  25664271.136   134866543.435       -2092.372          30.000    25664292.218   105090757.987       -1630.885          33.000  
G07  21857862.773   114863790.676       -2428.086          39.000    21857868.947    89504233.796       -1892.105          39.000  
G02  24825853.276   130460627.247       -3313.460          35.000                                                                  
G06  24387842.972   128159006.830        3546.240          32.000    24387858.141    99864256.535        2762.818          36.000  
G03  23441300.221   123184887.144        1671.348          36.000    23441314.022    95988312.423        1302.137          36.000  
G30  21311992.714   111995238.722        -575.977          42.000    21311998.361    87269047.013        -448.932          40.000  
G01  21995791.780   115588637.753       -2078.217          41.000    21995797.009    90069065.542       -1619.404          41.000  
G13  25680120.708   134949925.214        -733.459          29.000                                                                  
G22  23536027.510   123682680.963        2271.259          38.000                                                                  
G14  21879285.157   114976418.403        2162.090          40.000    21879290.042    89592056.645        1684.951          41.000  
G17  22301623.456   117195795.871         113.682          40.000    22301627.922    91321422.837          88.596          39.000  
G19  23606800.714   124054574.587        1467.331          36.000                                                                  
> 2025 04 27 02 31 05.0020000  0 12                     
G08  25664669.504   134868636.277       -2093.270          30.000    25664690.431   105092388.718       -1630.699          33.000  
G07  21858324.876   114866219.066       -2428.606          39.000    21858330.997    89506126.015       -1892.501          39.000  
G02  24826483.804   130463940.510       -3313.721          35.000                                                                  
G06  24387167.878   128155461.143        3545.435          32.000    24387183.522    99861493.654        2762.616          36.000  
G03  23440982.164   123183216.401        1670.575          35.000    23440996.103    95987010.544        1301.423          36.000  
G30  21312102.302   111995815.158        -576.605          42.000    21312108.162    87269496.156        -449.243          40.000  
G01  21996187.299   115590716.358       -2078.787          41.000    21996192.487    90070685.241       -1619.897          41.000  
G13  25680260.097   134950658.590        -733.235          28.000                                                                  
G22  23535595.317   123680409.622        2271.401          38.000                                                                  
G14  21878873.713   114974256.504        2162.189          40.000    21878878.703    89590372.062        1684.627          42.000  
G17  22301601.840   117195682.454         113.166          40.000    22301606.211    91321334.457          88.181          39.000  
G19  23606521.571   124053107.311        1467.246          36.000                                                                  
> 2025 04 27 02 31 06.0020000  0 12                     
G08  25665067.561   134870728.831       -2093.302          30.000    25665088.573   105094019.313       -1630.853          33.000  
G07  21858787.067   114868647.796       -2429.041          39.000    21858793.128    89508018.528       -1892.631          39.000  
G02  24827114.160   130467253.754       -3313.555          35.000                                                                  
G06  24386493.180   128151915.596        3545.398          32.000    24386508.778    99858730.857        2763.104          35.000  
G03  23440664.122   123181545.880        1671.072          36.000    23440678.235    95985708.846        1301.646          36.000  
G30  21312212.061   111996392.134        -577.124          42.000    21312217.960    87269945.756        -449.866          40.000  
G01  21996582.902   115592795.341       -2078.918          41.000    21996588.165    90072305.205       -1619.904          41.000  
G13  25680399.611   134951392.235        -733.777          28.000                                                                  
G22  23535163.041   123678138.176        2271.427          38.000                                                                  
G14  21878462.373   114972094.673        2161.990          40.000    21878467.324    89588687.533        1684.175          42.000  
G17  22301580.254   117195569.062         113.669          40.000    22301584.689    91321246.106          88.227          39.000  
G19  23606242.349   124051640.082        1467.206          36.000                                                                  
> 2025 04 27 02 31 07.0020000  0 12                     
G08  25665465.660   134872821.277       -2092.676          30.000    25665486.680   105095649.767       -1630.552          32.000  
G07  21859249.338   114871076.969       -2429.500          39.000    21859255.380    89509911.406       -1893.121          39.000  
G02  24827744.572   130470567.046       -3313.203          35.000                                                                  
G06  24385818.563   128148370.307        3544.531          33.000    24385834.264    99855968.288        2762.659          35.000  
G03  23440346.317   123179875.777        1669.805          35.000    23440360.507    95984407.461        1300.862          36.000  
G30  21312321.909   111996969.756        -578.217          42.000    21312327.894    87270395.833        -450.214          40.000  
G01  21996978.664   115594874.822       -2079.791          41.000    21996983.890    90073925.573       -1620.493          41.000  
G13  25680539.187   134952126.200        -733.854          28.000                                                                  
G22  23534730.750   123675866.707        2271.387          38.000                                                                  
G14  21878050.968   114969933.033        2161.059          40.000    21878055.925    89587003.099        1684.332          42.000  
G17  22301558.720   117195455.859         112.872          40.000    22301563.113    91321157.877          88.010          39.000  
G19  23605963.106   124050173.020        1466.909          36.000                                                                  
> 2025 04 27 02 31 08.0020000  0 12                     
G08  25665863.939   134874913.659       -2092.397          30.000    25665884.844   105097280.192       -1629.908          33.000  
G07  21859711.625   114873506.642       -2429.817          39.000    21859717.708    89511804.648       -1893.784          39.000  
G02  24828375.003   130473880.475       -3313.527          35.000                                                                  
G06  24385143.922   128144825.290        3544.794          33.000    24385159.677    99853205.951        2762.274          36.000  
G03  23440028.560   123178206.046        1669.560          35.000    23440042.792    95983106.377        1300.609          36.000  
G30  21312432.015   111997548.021        -578.546          42.000    21312437.966    87270846.439        -450.757          40.000  
G01  21997374.511   115596954.803       -2080.310          41.000    21997379.667    90075546.331       -1620.819          41.000  
G13  25680678.940   134952860.592        -734.417          28.000                                                                  
G22  23534298.505   123673595.293        2271.105          38.000                                                                  
G14  21877639.750   114967771.546        2161.443          40.000    21877644.658    89585318.838        1684.218          42.000  
G17  22301537.199   117195342.791         113.045          40.000    22301541.676    91321069.791          88.015          39.000  
G19  23605684.074   124048706.198        1466.350          36.000                                                                  
> 2025 04 27 02 31 09.0020000  0 12                     
G08  25666262.010   134877005.885       -2091.818          30.000    25666283.052   105098910.495       -1630.353          33.000  
G07  21860174.102   114875936.687       -2430.126          39.000    21860180.148    89513698.174       -1893.449          39.000  
G02  24829005.668   130477193.903       -3313.473          34.000                                                                  
G06  24384469.405   128141280.432        3544.812          32.000    24384485.110    99850443.743        2762.421          36.000  
G03  23439710.743   123176536.615        1669.271          35.000    23439725.058    95981805.537        1300.408          36.000  
G30  21312542.082   111998126.846        -578.992          42.000    21312548.069    87271297.480        -451.495          40.000  
G01  21997770.410   115599035.198       -2080.405          41.000    21997775.501    90077167.426       -1621.266          41.000  
G13  25680818.460   134953595.235        -734.507          28.000                                                                  
G22  23533866.298   123671323.769        2271.274          38.000                                                                  
G14  21877228.445   114965610.148        2161.677          40.000    21877233.355    89583634.631        1684.320          42.000  
G17  22301515.671   117195229.810         113.278          40.000    22301520.164    91320981.751          88.242          39.000  
G19  23605405.009   124047239.385        1467.167          36.000                                                                  
> 2025 04 27 02 31 10.0020000  0 12                     
G08  25666660.132   134879097.985       -2091.654          30.000    25666681.207   105100540.690       -1630.105          33.000  
G07  21860636.603   114878367.211       -2430.784          39.000    21860642.624    89515592.089       -1894.345          39.000  
G02  24829636.120   130480507.441       -3313.690          34.000                                                                  
G06  24383794.819   128137735.856        3544.556          32.000    24383810.575    99847681.756        2761.609          36.000  
G03  23439393.001   123174867.555        1669.229          35.000    23439407.459    95980504.966        1300.493          36.000  
G30  21312652.408   111998706.348        -580.060          42.000    21312658.394    87271749.019        -452.014          40.000  
G01  21998166.467   115601116.094       -2081.249          41.000    21998171.448    90078788.901       -1621.633          41.000  
G13  25680958.283   134954330.237        -734.917          28.000                                                                  
G22  23533433.999   123669052.253        2271.316          38.000                                                                  
G14  21876817.253   114963448.943        2161.133          40.000    21876821.999    89581950.573        1683.971          41.000  
G17  22301494.196   117195117.034         112.389          40.000    22301498.572    91320893.850          87.895          39.000  
G19  23605125.991   124045772.852        1466.757          36.000                                                                  
> 2025 04 27 02 31 11.0020000  0 12                     
G08  25667058.179   134881190.053       -2092.208          30.000    25667079.412   105102170.814       -1629.733          33.000  
G07  21861099.140   114880798.204       -2431.391          40.000    21861105.235    89517486.374       -1894.729          39.000  
G02  24830266.710   130483821.098       -3314.103          34.000                                                                  
G06  24383120.190   128134191.580        3544.092          32.000    24383136.046    99844919.978        2761.523          36.000  
G03  23439075.456   123173198.925        1667.909          35.000    23439089.923    95979204.735        1300.101          36.000  
G30  21312762.851   111999286.483        -580.487          42.000    21312768.827    87272201.078        -452.374          40.000  
G01  21998562.499   115603197.498       -2081.630          41.000    21998567.552    90080410.764       -1622.028          41.000  
G13  25681098.035   134955065.680        -735.911          28.000                                                                  
G22  23533001.721   123666780.743        2271.235          38.000                                                                  
G14  21876405.916   114961287.917        2161.050          40.000    21876410.695    89580266.652        1684.077          42.000  
G17  22301472.789   117195004.407         112.366          40.000    22301477.132    91320806.113          87.323          39.000  
G19  23604847.004   124044306.506        1466.177          36.000                                                                  
> 2025 04 27 02 31 12.0020000  0 12                     
G08  25667456.263   134883281.984       -2091.324          30.000    25667477.489   105103800.924       -1630.343          33.000  
G07  21861561.795   114883229.657       -2431.702          39.000    21861567.871    89519380.974       -1894.396          39.000  
G02  24830897.334   130487134.794       -3313.643          35.000                                                                  
G06  24382445.787   128130647.514        3544.037          33.000    24382461.655    99842158.390        2761.798          37.000  
G03  23438757.993   123171530.629        1668.541          35.000    23438772.563    95977904.770        1299.942          36.000  
G30  21312873.423   111999867.267        -580.981          42.000    21312879.353    87272653.638        -452.844          40.000  
G01  21998958.698   115605279.403       -2082.151          41.000    21998963.751    90082033.029       -1622.408          41.000  
G13  25681238.081   134955801.371        -735.395          28.000                                                                  
G22  23532569.573   123664509.238        2271.411          38.000                                                                  
G14  21875994.712   114959127.065        2160.927          40.000    21875999.500    89578582.873        1683.919          41.000  
G17  22301451.400   117194891.938         112.641          40.000    22301455.721    91320718.471          87.518          39.000  
G19  23604567.934   124042840.350        1465.942          35.000                                                                  
> 2025 04 27 02 31 13.0020000  0 12                     
G08  25667854.649   134885373.773       -2092.144          30.000    25667875.487   105105430.843       -1629.986          33.000  
G07  21862024.585   114885661.482       -2431.868          39.000    21862030.661    89521275.917       -1895.090          39.000  
G02  24831527.955   130490448.512       -3313.635          35.000                                                                  
G06  24381771.588   128127103.626        3544.085          33.000    24381787.392    99839396.933        2761.371          36.000  
G03  23438440.601   123169862.667        1667.873          35.000    23438455.080    95976605.055        1299.495          36.000  
G30  21312984.137   112000448.614        -581.500          42.000    21312989.926    87273106.637        -453.186          40.000  
G01  21999354.919   115607361.709       -2082.498          41.000    21999359.940    90083655.586       -1622.609          41.000  
G13  25681378.157   134956537.431        -736.394          28.000                                                                  
G22  23532137.399   123662237.643        2271.683          38.000                                                                  
G14  21875583.560   114956966.299        2160.650          40.000    21875588.355    89576899.161        1683.668          42.000  
G17  22301430.042   117194779.575         112.227          40.000    22301434.399    91320630.899          87.531          39.000  
G19  23604288.956   124041374.256        1466.181          35.000                                                                  
> 2025 04 27 02 31 14.0020000  0 12                     
G08  25668252.400   134887465.455       -2091.659          31.000    25668273.581   105107060.694       -1629.270          32.000  
G07  21862487.523   114888093.828       -2432.387          39.000    21862493.457    89523171.241       -1895.566          39.000  
G02  24832158.504   130493762.371       -3313.800          35.000                                                                  
G06  24381097.415   128123560.111        3543.494          34.000    24381113.085    99836635.731        2760.761          36.000  
G03  23438123.316   123168195.130        1667.303          35.000    23438137.830    95975305.665        1299.557          36.000  
G30  21313094.860   112001030.665        -582.336          42.000    21313100.834    87273560.184        -454.028          40.000  
G01  21999751.160   115609444.552       -2083.000          41.000    21999756.370    90085278.610       -1623.244          41.000  
G13  25681518.306   134957273.848        -736.943          29.000                                                                  
G22  23531705.028   123659966.116        2271.457          38.000                                                                  
G14  21875172.545   114954805.753        2160.596          40.000    21875177.187    89575215.604        1683.706          42.000  
G17  22301408.711   117194667.394         111.887          40.000    22301413.096    91320543.472          87.744          39.000  
G19  23604010.009   124039908.410        1466.317          35.000                                                                  
> 2025 04 27 02 31 15.0020000  0 12                     
G08  25668650.424   134889557.032       -2090.769          31.000    25668671.688   105108690.543       -1629.800          33.000  
G07  21862950.507   114890526.648       -2432.777          39.000    21862956.451    89525066.935       -1895.800          39.000  
G02  24832789.230   130497076.370       -3314.254          35.000                                                                  
G06  24380423.233   128120016.832        3543.378          33.000    24380438.822    99833874.708        2761.225          36.000  
G03  23437805.960   123166527.997        1666.928          35.000    23437820.566    95974006.614        1298.691          36.000  
G30  21313205.718   112001613.356        -582.837          42.000    21313211.735    87274014.229        -454.224          40.000  
G01  22000147.603   115611527.916       -2083.572          41.000    22000152.866    90086901.984       -1623.397          41.000  
G13  25681658.472   134958010.606        -736.897          29.000                                                                  
G22  23531272.741   123657694.580        2271.588          38.000                                                                  
G14  21874761.512   114952645.412        2160.338          40.000    21874766.174    89573532.226        1683.334          42.000  
G17  22301387.384   117194555.422         111.263          40.000    22301391.792    91320456.210          87.351          39.000  
G19  23603731.123   124038442.792        1465.652          35.000                                                                  
> 2025 04 27 02 31 16.0020000  0 12                     
G08  25669048.516   134891648.707       -2091.755          31.000    25669069.653   105110320.378       -1629.706          33.000  
G07  21863413.584   114892960.070       -2433.882          39.000    21863419.503    89526963.091       -1896.298          39.000  
G02  24833419.927   130500390.565       -3314.753          35.000                                                                  
G06  24379749.146   128116473.939        3542.608          33.000    24379764.635    99831114.033        2760.437          36.000  
G03  23437488.821   123164861.341        1666.203          35.000    23437503.402    95972707.918        1298.637          36.000  
G30  21313316.779   112002196.825        -583.899          42.000    21313322.683    87274468.860        -454.718          40.000  
G01  22000544.171   115613611.897       -2084.344          41.000    22000549.391    90088525.867       -1624.104          41.000  
G13  25681798.736   134958747.901        -737.613          29.000                                                                  
G22  23530840.535   123655423.190        2271.467          38.000                                                                  
G14  21874350.385   114950485.348        2159.693          40.000    21874355.139    89571849.057        1683.078          42.000  
G17  22301366.076   117194443.670         111.667          40.000    22301370.598    91320369.159          87.084          40.000  
G19  23603452.188   124036977.463        1465.697          35.000                                                                  
> 2025 04 27 02 31 17.0020000  0 12                     
G08  25669446.493   134893740.216       -2090.278          31.000    25669467.592   105111950.156       -1630.036          33.000  
G07  21863876.757   114895393.931       -2434.265          39.000    21863882.602    89528859.594       -1896.467          39.000  
G02  24834050.568   130503704.793       -3313.924          35.000                                                                  
G06  24379075.014   128112931.298        3542.517          33.000    24379090.447    99828353.505        2760.761          37.000  
G03  23437171.725   123163195.074        1666.036          35.000    23437186.265    95971409.511        1298.353          36.000  
G30  21313427.812   112002780.932        -584.454          42.000    21313433.902    87274924.016        -455.438          40.000  
G01  22000940.821   115615696.365       -2084.673          41.000    22000946.039    90090150.119       -1624.240          41.000  
G13  25681939.037   134959485.496        -737.404          29.000                                                                  
G22  23530408.270   123653151.800        2271.139          38.000                                                                  
G14  21873939.382   114948325.430        2159.961          40.000    21873944.149    89570166.018        1682.850          42.000  
G17  22301344.895   117194332.115         111.628          40.000    22301349.402    91320282.232          87.056          40.000  
G19  23603173.556   124035512.341        1464.599          35.000                                                                  
> 2025 04 27 02 31 18.0020000  0 12                     
G08  25669844.472   134895831.638       -2091.516          32.000    25669865.628   105113579.799       -1629.890          33.000  
G07  21864339.954   114897828.237       -2434.784          39.000    21864345.863    89530756.452       -1897.023          39.000  
G02  24834681.306   130507019.150       -3314.518          35.000                                                                  
G06  24378401.048   128109388.837        3542.755          33.000    24378416.438    99825593.193        2760.553          37.000  
G03  23436854.630   123161529.157        1665.792          35.000    23436869.264    95970111.408        1298.141          36.000  
G30  21313539.061   112003365.647        -584.991          42.000    21313545.132    87275379.641        -455.927          40.000  
G01  22001337.565   115617781.288       -2085.283          41.000    22001342.882    90091774.743       -1624.827          41.000  
G13  25682079.448   134960223.483        -738.376          29.000                                                                  
G22  23529975.919   123650880.387        2271.028          38.000                                                                  
G14  21873528.375   114946165.684        2159.466          40.000    21873533.217    89568483.102        1682.710          42.000  
G17  22301323.560   117194220.678         111.481          40.000    22301328.174    91320195.424          86.409          40.000  
G19  23602894.735   124034047.357        1464.904          35.000                                                                  
> 2025 04 27 02 31 19.0020000  0 12                     
G08  25670242.528   134897923.037       -2091.180          31.000    25670263.616   105115209.468       -1629.638          33.000  
G07  21864803.264   114900263.069       -2434.807          39.000    21864809.253    89532653.713       -1897.198          39.000  
G02  24835311.985   130510333.656       -3314.456          35.000                                                                  
G06  24377727.027   128105846.796        3542.004          33.000    24377742.384    99822833.175        2759.625          37.000  
G03  23436537.761   123159863.705        1665.599          35.000    23436552.368    95968813.688        1297.105          36.000  
G30  21313650.459   112003951.108        -586.005          42.000    21313656.574    87275835.831        -456.726          40.000  
G01  22001734.524   115619866.808       -2085.962          41.000    22001739.715    90093399.812       -1625.236          41.000  
G13  25682220.029   134960961.893        -738.904          29.000                                                                  
G22  23529543.812   123648609.037        2271.050          38.000                                                                  
G14  21873117.456   114944006.194        2159.258          40.000    21873122.314    89566800.372        1682.622          42.000  
G17  22301302.455   117194109.536         110.617          40.000    22301306.895    91320108.779          86.499          39.000  
G19  23602615.888   124032582.649        1464.631          35.000                                                                  
> 2025 04 27 02 31 20.0020000  0 12                     
G08  25670640.585   134900014.444       -2091.613          31.000    25670661.541   105116839.074       -1629.439          33.000  
G07  21865266.719   114902698.462       -2435.612          39.000    21865272.747    89534551.405       -1897.484          39.000  
G02  24835942.758   130513648.307       -3314.688          35.000                                                                  
G06  24377053.237   128102305.067        3542.047          33.000    24377068.548    99820073.387        2759.558          37.000  
G03  23436220.884   123158198.711        1664.905          35.000    23436235.526    95967516.274        1297.214          36.000  
G30  21313762.066   112004537.270        -586.395          42.000    21313768.213    87276292.574        -456.995          40.000  
G01  22002131.470   115621952.870       -2086.179          41.000    22002136.751    90095025.326       -1625.660          41.000  
G13  25682360.571   134961700.658        -738.910          29.000                                                                  
G22  23529111.614   123646337.760        2271.172          38.000                                                                  
G14  21872706.546   114941846.928        2159.355          40.000    21872711.381    89565117.833        1682.744          42.000  
G17  22301281.342   117193998.570         110.734          40.000    22301285.854    91320022.313          86.520          39.000  
G19  23602337.271   124031118.173        1464.589          35.000                                                                  
> 2025 04 27 02 31 21.0020000  0 12                     
G08  25671038.564   134902105.736       -2091.396          31.000    25671059.514   105118468.704       -1630.260          33.000  
G07  21865730.202   114905134.355       -2436.293          39.000    21865736.274    89536449.518       -1898.552          39.000  
G02  24836573.564   130516963.092       -3314.791          35.000                                                                  
G06  24376379.550   128098763.644        3541.156          33.000    24376394.618    99817313.821        2759.161          36.000  
G03  23435904.076   123156534.166        1663.936          35.000    23435918.729    95966219.200        1296.959          36.000  
G30  21313873.723   112005124.127        -587.238          42.000    21313879.934    87276749.882        -457.892          40.000  
G01  22002528.528   115624039.470       -2086.766          41.000    22002533.774    90096651.251       -1626.279          41.000  
G13  25682501.367   134962439.897        -739.406          29.000                                                                  
G22  23528679.356   123644066.529        2271.043          38.000                                                                  
G14  21872295.640   114939687.905        2158.906          40.000    21872300.535    89563435.482        1682.047          42.000  
G17  22301260.297   117193887.831         110.633          40.000    22301264.703    91319936.034          86.094          39.000  
G19  23602058.709   124029653.918        1464.831          35.000                                                                  
> 2025 04 27 02 31 22.0020000  0 12                     
G08  25671436.729   134904196.966       -2090.802          32.000    25671457.522   105120098.221       -1629.751          33.000  
G07  21866193.855   114907570.760       -2436.910          39.000    21866199.927    89538348.014       -1899.124          39.000  
G02  24837204.330   130520278.036       -3315.105          35.000                                                                  
G06  24375705.649   128095222.524        3540.680          32.000    24375720.805    99814554.506        2759.247          36.000  
G03  23435587.385   123154870.010        1664.092          35.000    23435601.993    95964922.486        1296.540          36.000  
G30  21313985.557   112005711.675        -588.013          42.000    21313991.808    87277207.694        -458.081          40.000  
G01  22002925.683   115626126.620       -2087.311          41.000    22002930.998    90098277.597       -1626.466          41.000  
G13  25682642.104   134963179.527        -739.843          29.000                                                                  
G22  23528247.116   123641795.352        2270.802          38.000                                                                  
G14  21871884.803   114937529.064        2158.820          40.000    21871889.727    89561753.275        1682.106          42.000  
G17  22301239.199   117193777.301         110.290          40.000    22301243.670    91319849.892          86.005          39.000  
G19  23601780.078   124028189.908        1464.020          35.000                                                                  
> 2025 04 27 02 31 23.0020000  0 12                     
G08  25671834.457   134906288.097       -2090.792          32.000    25671855.511   105121727.651       -1629.344          33.000  
G07  21866657.555   114910007.582       -2437.276          39.000    21866663.625    89540246.809       -1899.005          39.000  
G02  24837835.132   130523593.048       -3315.437          35.000                                                                  
G06  24375031.749   128091681.607        3541.290          32.000    24375046.975    99811795.372        2758.624          36.000  
G03  23435270.843   123153206.216        1663.824          35.000    23435285.414    95963626.048        1295.863          36.000  
G30  21314097.470   112006299.820        -588.373          42.000    21314103.748    87277665.991        -458.643          40.000  
G01  22003322.969   115628214.242       -2088.085          41.000    22003328.284    90099904.315       -1627.111          41.000  
G13  25682782.821   134963919.483        -740.229          29.000                                                                  
G22  23527814.956   123639524.117        2271.110          38.000                                                                  
G14  21871474.141   114935370.402        2158.269          40.000    21871479.121    89560071.200        1681.460          42.000  
G17  22301218.167   117193666.884         110.311          40.000    22301222.584    91319763.849          85.992          39.000  
G19  23601501.607   124026726.064        1463.299          35.000                                                                  
> 2025 04 27 02 31 24.0020000  0 12                     
G08  25672232.426   134908379.137       -2091.145          32.000    25672253.491   105123356.995       -1628.956          33.000  
G07  21867121.370   114912444.851       -2437.590          39.000    21867127.374    89542145.954       -1898.842          39.000  
G02  24838465.986   130526908.066       -3314.430          35.000                                                                  
G06  24374357.796   128088140.955        3539.972          32.000    24374373.207    99809036.400        2758.557          36.000  
G03  23434954.266   123151542.790        1663.441          35.000    23434968.929    95962329.864        1296.153          36.000  
G30  21314209.567   112006888.621        -589.008          42.000    21314215.783    87278124.784        -458.984          40.000  
G01  22003720.224   115630302.321       -2088.059          41.000    22003725.643    90101531.365       -1626.881          41.000  
G13  25682923.606   134964659.761        -740.295          29.000                                                                  
G22  23527382.769   123637252.895        2271.252          38.000                                                                  
G14  21871063.325   114933211.854        2158.903          40.000    21871068.360    89558389.200        1682.261          42.000  
G17  22301197.277   117193556.637         109.904          40.000    22301201.587    91319677.937          86.127          39.000  
G19  23601223.142   124025262.345        1463.549          35.000                                                                  
> 2025 04 27 02 31 25.0020000  0 12                     
G08  25672630.165   134910470.007       -2091.263          32.000    25672651.346   105124986.240       -1629.086          33.000  
G07  21867585.240   114914882.503       -2437.956          39.000    21867591.291    89544045.442       -1899.838          39.000  
G02  24839096.826   130530223.190       -3315.870          35.000                                                                  
G06  24373684.122   128084600.463        3539.917          32.000    24373699.485    99806277.581        2758.588          36.000  
G03  23434637.746   123149879.675        1662.692          35.000    23434652.488    95961033.921        1295.797          36.000  
G30  21314321.753   112007477.981        -589.899          42.000    21314327.948    87278584.032        -459.729          40.000  
G01  22004117.768   115632390.831       -2088.892          41.000    22004122.937    90103158.788       -1627.664          41.000  
G13  25683064.385   134965400.351        -740.545          29.000                                                                  
G22  23526950.440   123634981.569        2271.177          38.000                                                                  
G14  21870652.621   114931053.445        2158.409          40.000    21870657.743    89556707.331        1681.654          42.000  
G17  22301176.357   117193446.453         109.789          40.000    22301180.673    91319592.093          85.599          39.000  
G19  23600944.531   124023798.776        1463.330          35.000                                                                  
> 2025 04 27 02 31 26.0020000  0 12                     
G08  25673027.973   134912560.729       -2090.309          32.000    25673049.139   105126615.407       -1629.548          33.000  
G07  21868049.255   114917320.645       -2438.179          39.000    21868055.277    89545945.281       -1900.063          39.000  
G02  24839727.667   130533538.358       -3315.178          35.000                                                                  
G06  24373010.470   128081060.266        3540.259          33.000    24373025.820    99803519.026        2758.124          36.000  
G03  23434321.376   123148216.957        1662.513          35.000    23434336.087    95959738.309        1295.313          36.000  
G30  21314434.034   112008068.009        -590.277          42.000    21314440.302    87279043.787        -460.272          40.000  
G01  22004515.362   115634479.849       -2089.092          41.000    22004520.477    90104786.593       -1627.938          41.000  
G13  25683205.303   134966141.341        -740.972          28.000                                                                  
G22  23526518.218   123632710.296        2270.999          38.000                                                                  
G14  21870241.923   114928895.218        2157.993          40.000    21870247.068    89555025.601        1681.432          42.000  
G17  22301155.345   117193336.447         110.126          40.000    22301159.861    91319506.375          85.632          39.000  
G19  23600666.079   124022335.410        1463.369          35.000                                                                  
> 2025 04 27 02 31 27.0020000  0 12                     
G08  25673425.986   134914651.444       -2090.993          32.000    25673446.915   105128244.477       -1629.216          33.000  
G07  21868513.296   114919759.239       -2438.760          39.000    21868519.397    89547845.479       -1900.460          39.000  
G02  24840358.669   130536853.641       -3315.335          35.000                                                                  
G06  24372337.051   128077520.368        3539.392          33.000    24372352.264    99800760.623        2758.612          37.000  
G03  23434005.155   123146554.653        1661.732          35.000    23434019.714    95958442.977        1295.501          36.000  
G30  21314546.458   112008658.664        -590.857          42.000    21314552.690    87279504.035        -460.669          40.000  
G01  22004913.017   115636569.361       -2089.745          41.000    22004918.043    90106414.772       -1628.430          41.000  
G13  25683346.489   134966882.618        -741.335          28.000                                                                  
G22  23526085.974   123630438.984        2271.431          38.000                                                                  
G14  21869831.275   114926737.152        2157.970          40.000    21869836.434    89553343.980        1681.487          42.000  
G17  22301134.366   117193226.621         109.502          40.000    22301139.024    91319420.785          85.606          39.000  
G19  23600387.502   124020872.240        1463.175          35.000                                                                  
> 2025 04 27 02 31 28.0020000  0 12                     
G08  25673823.967   134916741.866       -2089.964          32.000    25673844.706   105129873.389       -1629.136          33.000  
G07  21868977.473   114922198.214       -2439.514          39.000    21868983.529    89549745.979       -1901.099          39.000  
G02  24840989.497   130540168.910       -3315.541          35.000                                                                  
G06  24371663.376   128073980.603        3539.191          33.000    24371678.663    99798002.379        2758.325          37.000  
G03  23433688.863   123144892.574        1661.823          35.000    23433703.448    95957147.891        1295.094          36.000  
G30  21314658.962   112009249.880        -591.406          42.000    21314665.207    87279964.714        -460.797          40.000  
G01  22005310.719   115638659.279       -2090.472          41.000    22005315.716    90108043.263       -1628.838          41.000  
G13  25683487.494   134967624.232        -741.572          28.000                                                                  
G22  23525653.771   123628167.614        2271.224          37.000                                                                  
G14  21869420.659   114924579.178        2157.686          40.000    21869425.796    89551662.428        1681.450          42.000  
G17  22301113.465   117193116.834         109.931          40.000    22301118.102    91319335.263          85.184          39.000  
G19  23600109.034   124019409.150        1463.266          35.000                                                                  
> 2025 04 27 02 31 29.0020000  0 12                     
G08  25674221.851   134918832.273       -2090.372          32.000    25674242.418   105131502.270       -1629.132          33.000  
G07  21869441.700   114924637.670       -2439.854          39.000    21869447.713    89551646.821       -1900.896          39.000  
G02  24841620.439   130543484.284       -3315.168          35.000                                                                  
G06  24370989.621   128070441.104        3539.355          32.000    24371004.994    99795244.337        2758.234          36.000  
G03  23433372.819   123143230.920        1661.858          35.000    23433387.208    95955853.112        1294.387          36.000  
G30  21314771.535   112009841.770        -592.065          42.000    21314777.890    87280425.918        -461.456          40.000  
G01  22005708.494   115640749.702       -2090.750          41.000    22005713.460    90109672.191       -1629.418          41.000  
G13  25683628.555   134968366.198        -742.290          28.000                                                                  
G22  23525221.444   123625896.244        2271.400          38.000                                                                  
G14  21869010.102   114922421.368        2158.050          40.000    21869015.195    89549981.049        1681.190          42.000  
G17  22301092.646   117193007.265         109.296          40.000    22301097.340    91319249.875          85.081          39.000  
G19  23599830.651   124017946.293        1462.729          35.000                                                                  
> 2025 04 27 02 31 30.0020000  0 12                     
G08  25674619.662   134920922.595       -2090.280          32.000    25674640.173   105133131.037       -1628.082          33.000  
G07  21869906.066   114927077.592       -2440.078          39.000    21869912.006    89553548.064       -1901.297          40.000  
G02  24842251.411   130546799.800       -3315.667          35.000                                                                  
G06  24370316.034   128066901.919        3538.849          32.000    24370331.477    99792486.528        2757.983          36.000  
G03  23433056.550   123141569.706        1661.448          35.000    23433071.094    95954558.674        1293.945          36.000  
G30  21314884.267   112010434.322        -592.853          42.000    21314890.593    87280887.656        -462.012          40.000  
G01  22006106.338   115642840.620       -2090.737          41.000    22006111.348    90111301.472       -1629.337          41.000  
G13  25683769.764   134969108.563        -742.529          28.000                                                                  
G22  23524789.124   123623624.909        2271.543          37.000                                                                  
G14  21868599.455   114920263.803        2157.760          40.000    21868604.626    89548299.804        1681.204          42.000  
G17  22301071.772   117192897.844         109.713          40.000    22301076.420    91319164.616          85.333          39.000  
G19  23599552.331   124016483.596        1463.112          35.000                                                                  
> 2025 04 27 02 31 31.0020000  0 12                     
G08  25675017.366   134923012.665       -2090.303          32.000    25675037.972   105134759.682       -1628.398          33.000  
G07  21870370.439   114929517.842       -2440.270          39.000    21870376.471    89555449.551       -1901.548          39.000  
G02  24842882.284   130550115.270       -3316.177          35.000                                                                  
G06  24369642.429   128063362.795        3539.276          33.000    24369658.078    99789728.798        2757.971          36.000  
G03  23432740.443   123139908.678        1661.155          35.000    23432755.109    95953264.375        1293.702          36.000  
G30  21314997.092   112011027.368        -593.561          42.000    21315003.518    87281349.748        -462.366          40.000  
G01  22006504.383   115644931.917       -2091.552          41.000    22006509.306    90112931.046       -1629.745          40.000  
G13  25683910.754                        -742.438          28.000                                                                  
G22  23524356.872   123621353.444        2271.420          37.000                                                                  
G14  21868188.750   114918106.233        2157.440          40.000    21868193.956    89546618.572        1681.157          42.000  
G17  22301051.000   117192788.461         109.655          40.000    22301055.556    91319079.384          85.123          39.000  
G19  23599274.058   124015020.991        1462.602          35.000                                                                  
> 2025 04 27 02 31 32.0020000  0 12                     
G08  25675415.134   134925102.589       -2088.661          32.000    25675435.665   105136388.234       -1628.895          33.000  
G07  21870835.032   114931958.506       -2440.371          39.000    21870840.954    89557351.381       -1901.915          39.000  
G02  24843513.199   130553430.745       -3315.116          35.000                                                                  
G06  24368969.234   128059824.001        3538.800          33.000    24368984.679    99786971.243        2757.886          36.000  
G03  23432424.278   123138248.051        1660.845          35.000    23432439.050    95951970.364        1293.700          36.000  
G30  21315110.035   112011621.020        -593.616          42.000    21315116.468    87281812.355        -462.885          40.000  
G01  22006902.399   115647023.683       -2091.875          41.000    22006907.303    90114560.979       -1629.971          41.000  
G13  25684052.261   134970605.0583       -743.579          28.000                                                                  
G22  23523924.704   123619081.957        2271.339          37.000                                                                  
G14  21867778.308   114915948.831        2157.528          40.000    21867783.372    89544937.468        1681.530          42.000  
G17  22301030.113   117192679.225         109.358          40.000    22301034.732    91318994.241          85.357          39.000  
G19  23598995.793   124013558.543        1462.529          35.000                                                                  
> 2025 04 27 02 31 33.0020000  0 12                     
G08  25675812.905   134927192.514       -2089.704          32.000    25675833.355   105138016.677       -1628.243          33.000  
G07  21871299.606   114934399.712       -2441.436          39.000    21871305.406    89559253.588       -1902.328          39.000  
G02  24844144.168   130556746.408       -3315.922          35.000                                                                  
G06  24368295.868   128056285.439        3538.776          34.000    24368311.283    99784213.954        2757.410          37.000  
G03  23432108.346   123136587.829        1660.446          35.000    23432123.043    95950676.689        1293.384          37.000  
G30  21315222.966   112012215.372        -594.580          42.000    21315229.563    87282275.467        -463.367          40.000  
G01  22007300.590   115649115.961       -2092.412          41.000    22007305.451    90116191.321       -1630.300          41.000  
G13  25684193.806   134971348.2872       -743.135          28.000                                                                  
G22  23523492.311   123616810.508        2271.291          38.000                                                                  
G14  21867367.798   114913791.627        2157.224          40.000    21867372.889    89543256.551        1680.624          42.000  
G17  22301009.366   117192570.179         108.693          40.000    22301014.030    91318909.266          85.099          39.000  
G19  23598717.600   124012096.305        1462.132          35.000                                                                  
> 2025 04 27 02 31 34.0020000  0 12                     
G08  25676210.550   134929282.274       -2090.206          32.000    25676231.114   105139645.047       -1628.159          33.000  
G07  21871764.256   114936841.314       -2441.906          39.000    21871770.023    89561156.125       -1902.542          39.000  
G02  24844775.232   130560062.070       -3315.683          35.000                                                                  
G06  24367622.683   128052747.138        3538.238          33.000    24367637.971    99781456.865        2756.555          37.000  
G03  23431792.490   123134927.949        1660.068          35.000    23431807.174    95949383.260        1293.424          37.000  
G30  21315336.189   112012810.322        -595.221          42.000    21315342.807    87282739.048        -463.684          40.000  
G01  22007698.766   115651208.694       -2092.720          41.000    22007703.674    90117822.032       -1631.019          41.000  
G13  25684333.833   134972091.8542       -743.570          27.000                                                                  
G22  23523060.146   123614539.002        2271.509          38.000                                                                  
G14  21866957.309   114911634.544        2157.162          40.000    21866962.409    89541575.720        1680.601          42.000  
G17  22300988.780   117192461.250         108.693          40.000    22300993.249    91318824.391          84.573          39.000  
G19  23598439.353   124010634.184        1462.250          35.000                                                                  
> 2025 04 27 02 31 35.0020000  0 12                     
G08  25676608.031   134931371.792       -2089.447          32.000    25676628.765   105141273.306       -1629.264          33.000  
G07  21872228.978   114939283.254       -2441.949          39.000    21872234.685    89563058.943       -1903.136          39.000  
G02  24845406.268   130563377.730       -3315.603          35.000                                                                  
G06  24366949.324   128049208.966        3537.695          33.000    24366964.817    99778699.819        2757.196          37.000  
G03  23431476.556   123133268.342        1659.611          35.000    23431491.397    95948090.050        1293.070          37.000  
G30  21315449.508   112013405.785        -595.703          42.000    21315456.127    87283203.075        -464.478          40.000  
G01  22008097.114   115653301.814       -2093.523          41.000    22008102.038    90119453.016       -1631.249          41.000  
G13  25684472.671   134972835.7552       -744.131          27.000                                                                  
G22  23522627.862   123612267.389        2271.374          38.000                                                                  
G14  21866546.856   114909477.529        2156.920          40.000    21866551.948    89539894.907        1680.669          42.000  
G17  22300968.135   117192352.340         108.535          40.000    22300972.475    91318739.519          84.523          39.000  
G19  23598161.189   124009172.188        1461.229          35.000                                                                  
> 2025 04 27 02 31 36.0020000  0 12                     
G08  25677005.785   134933461.279       -2088.996          32.000    25677026.401   105142901.381       -1627.550          33.000  
G07  21872693.757   114941725.728       -2442.983          39.000    21872699.522    89564962.147       -1903.275          39.000  
G02  24846037.266   130566693.533       -3315.992          35.000                                                                  
G06  24366275.916   128045671.083        3537.048          32.000    24366291.489    99775943.052        2756.726          37.000  
G03  23431160.922   123131609.194        1658.971          35.000    23431175.723    95946797.219        1292.254          37.000  
G30  21315563.053   112014001.972        -596.753          42.000    21315569.589    87283667.606        -464.655          40.000  
G01  22008495.638   115655395.467       -2094.088          41.000    22008500.431    90121084.436       -1631.868          41.000  
G13  25684613.369   134973579.9852       -744.597          26.000                                                                  
G22  23522195.632   123609995.849        2271.115          38.000                                                                  
G14  21866136.497   114907320.727        2156.980          40.000    21866141.548    89538214.298        1680.517          42.000  
G17  22300947.506   117192243.643         108.604          40.000    22300951.849    91318654.829          84.637          39.000  
G19  23597882.936   124007710.377        1461.784          35.000                                                                  
> 2025 04 27 02 31 37.0020000  0 12                     
G08  25677403.395   134935550.599       -2089.677          32.000    25677424.055   105144529.430       -1627.486          33.000  
G07  21873158.538   114944168.566       -2442.878          39.000    21873164.464    89566865.663       -1903.812          39.000  
G02  24846668.294   130570009.307       -3315.721          35.000                                                                  
G06  24365602.705   128042133.395        3537.561          32.000    24365618.263    99773186.430        2756.354          36.000  
G03  23430845.295   123129950.316        1658.723          35.000    23430859.944    95945504.580        1292.562          37.000  
G30  21315676.591   112014598.702        -597.095          42.000    21315683.180    87284132.595        -465.198          40.000  
G01  22008894.188   115657489.519       -2094.132          41.000    22008898.873    90122716.170       -1632.006          41.000  
G13  25684755.114   134974324.446        -744.324          27.000                                                                  
G22  23521763.308   123607724.190        2271.440          38.000                                                                  
G14  21865726.099   114905164.050        2156.396          40.000    21865731.132    89536533.759        1680.518          42.000  
G17  22300926.773   117192135.033         108.760          40.000    22300931.229    91318570.205          84.670          39.000  
G19  23597604.793   124006248.677        1461.697          34.000                                                                  
> 2025 04 27 02 31 38.0020000  0 12                     
G08  25677801.046   134937639.769       -2089.698          32.000    25677821.700   105146157.343       -1627.957          33.000  
G07  21873623.502   114946611.834       -2443.514          39.000    21873629.450    89568769.505       -1904.397          39.000  
G02  24847299.435   130573325.145       -3316.024          35.000                                                                  
G06  24364929.427   128038595.932        3536.438          33.000    24364945.075    99770429.942        2756.500          36.000  
G03  23430529.755   123128291.777        1658.289          35.000    23430544.311    95944212.227        1292.062          36.000  
G30  21315790.249   112015196.028        -597.791          42.000    21315796.764    87284598.053        -465.906          40.000  
G01  22009292.767   115659584.033       -2094.779          41.000    22009297.417    90124348.269       -1632.568          41.000  
G13  25684899.707   134975069.343        -744.993          27.000                                                                  
G22  23521330.989   123605452.498        2271.748          38.000                                                                  
G14  21865315.729   114903007.491        2156.112          40.000    21865320.670    89534853.313        1680.286          42.000  
G17  22300906.097   117192026.556         108.161          40.000    22300910.606    91318485.670          84.283          39.000  
G19  23597326.630   124004787.150        1461.237          34.000                                                                  
> 2025 04 27 02 31 39.0020000  0 12                     
G08  25678198.616   134939728.811       -2089.435          32.000    25678219.202   105147785.163       -1628.420          33.000  
G07  21874088.479   114949055.510       -2444.111          39.000    21874094.507    89570673.627       -1904.049          39.000  
G02  24847930.365   130576641.002       -3315.521          35.000                                                                  
G06  24364256.366   128035058.686        3537.128          33.000    24364271.973    99767673.664        2755.688          36.000  
G03  23430214.232   123126633.573        1658.110          35.000    23430228.699    95942920.116        1291.968          36.000  
G30  21315903.977   112015793.950        -598.138          42.000    21315910.533    87285063.955        -466.107          40.000  
G01  22009691.390   115661679.006       -2095.443          41.000    22009696.124    90125980.684       -1632.760          41.000  
G13  25685041.295   134975814.511        -745.583          27.000                                                                  
G22  23520898.666   123603180.770        2271.790          38.000                                                                  
G14  21864905.402   114900851.033        2156.385          40.000    21864910.306    89533172.968        1680.211          42.000  
G17  22300885.525   117191918.166         108.328          40.000    22300889.981    91318401.201          84.592          39.000  
G19  23597048.442   124003325.723        1461.508          34.000                                                                  
> 2025 04 27 02 31 40.0020000  0 12                     
G08  25678596.291   134941817.631       -2088.574          31.000    25678616.711   105149412.767       -1627.042          33.000  
G07  21874553.674   114951499.546       -2444.164          39.000    21874559.593    89572578.092       -1904.596          39.000  
G02  24848561.337   130579956.901       -3315.566          35.000                                                                  
G06  24363583.201   128031521.575        3537.891          33.000    24363598.834    99764917.482        2756.293          36.000  
G03  23429898.825   123124975.696        1657.458          35.000    23429913.258    95941628.268        1291.544          36.000  
G30  21316017.879   112016392.459        -598.883          42.000    21316024.372    87285530.311        -466.589          40.000  
G01  22010090.074   115663774.366       -2095.406          41.000    22010094.884    90127613.423       -1632.770          41.000  
G13  25685183.374   134976559.932        -745.646          28.000                                                                  
G22  23520466.397   123600908.971        2271.877          38.000                                                                  
G14  21864495.154   114898694.695        2156.241          40.000    21864499.927    89531492.716        1679.949          42.000  
G17  22300864.885   117191809.881         108.341          40.000    22300869.345    91318316.841          84.207          39.000  
G19  23596770.277   124001864.442        1461.076          34.000                                                                  
> 2025 04 27 02 31 41.0020000  0 12                     
G08  25678993.773   134943906.314       -2088.821          31.000    25679014.130   105151040.301       -1627.144          33.000  
G07  21875018.955   114953943.990       -2444.489          39.000    21875024.849    89574482.833       -1904.799          39.000  
G02  24849192.321   130583272.798       -3315.606          35.000                                                                  
G06  24362910.217   128027984.712        3536.664          32.000    24362925.685    99762161.476        2755.744          36.000  
G03  23429583.422   123123318.108        1656.917          35.000    23429597.899    95940336.635        1291.394          36.000  
G30  21316131.820   112016991.525        -599.707          42.000    21316138.225    87285997.119        -467.456          40.000  
G01  22010488.887   115665870.147       -2096.049          41.000    22010493.598    90129246.495       -1633.120          41.000  
G13  25685325.005   134977305.648        -746.210          28.000                                                                  
G22  23520034.094   123598637.102        2271.732          38.000                                                                  
G14  21864084.758   114896538.432        2156.251          40.000    21864089.630    89529812.495        1680.223          42.000  
G17  22300844.276   117191701.676         107.944          40.000    22300848.749    91318232.511          84.156          39.000  
G19  23596492.228   124000403.226        1461.548          34.000                                                                  
> 2025 04 27 02 31 42.0020000  0 12                     
G08  25679391.313   134945994.876       -2088.519          31.000    25679411.560   105152667.816       -1628.344          33.000  
G07  21875484.228   114956388.886       -2445.117          39.000    21875490.050    89576387.949       -1905.189          39.000  
G02  24849823.353   130586588.781       -3315.764          35.000                                                                  
G06  24362237.199   128024448.078        3536.719          32.000    24362252.643    99759405.683        2755.505          36.000  
G03  23429268.096   123121660.884        1656.900          35.000    23429282.571    95939045.312        1291.162          36.000  
G30  21316246.123   112017591.211        -600.073          42.000    21316252.336    87286464.402        -467.645          40.000  
G01  22010887.753   115667966.427       -2096.613          41.000    22010892.567    90130879.966       -1633.724          41.000  
G13  25685468.483   134978051.695        -746.469          28.000                                                                  
G22  23519601.853   123596365.213        2271.937          38.000                                                                  
G14  21863674.501   114894382.370        2155.869          40.000    21863679.309    89528132.444        1679.985          42.000  
G17  22300823.624   117191593.612         108.098          40.000    22300828.320    91318148.315          83.954          39.000  
G19  23596214.067   123998942.218        1461.263          35.000                                                                  
> 2025 04 27 02 31 43.0020000  0 12                     
G08  25679788.688   134948083.430       -2089.106          31.000    25679808.976   105154295.194       -1627.744          33.000  
G07  21875949.662   114958834.317       -2445.853          39.000    21875955.513    89578293.451       -1905.561          39.000  
G02  24850454.255   130589904.966       -3316.718          35.000                                                                  
G06  24361564.309   128020911.800        3535.742          32.000    24361579.627    99756650.121        2755.042          36.000  
G03  23428952.904   123120004.115        1656.726          35.000    23428967.316    95937754.346        1290.775          36.000  
G30  21316360.418   112018191.619        -600.653          42.000    21316366.549    87286932.255        -467.883          40.000  
G01  22011286.795   115670063.266       -2097.371          41.000    22011291.624    90132513.859       -1634.296          41.000  
G13  25685609.669   134978798.119        -746.429          28.000                                                                  
G22  23519169.584   123594093.393        2271.794          38.000                                                                  
G14  21863264.177   114892226.538        2155.419          40.000    21863269.053    89526452.567        1679.826          42.000  
G17  22300803.077   117191485.786         107.878          40.000    22300807.759    91318064.295          83.751          39.000  
G19  23595935.927   123997481.464        1460.977          35.000                                                                  
> 2025 04 27 02 31 44.0020000  0 12                     
G08  25680185.992   134950171.794       -2088.165          31.000    25680206.340   105155922.525       -1627.779          33.000  
G07  21876415.112   114961280.152       -2445.914          39.000    21876421.013    89580199.321       -1906.172          39.000  
G02  24851085.292   130593221.131       -3315.915          35.000                                                                  
G06  24360891.412   128017375.725        3535.474          33.000    24360906.787    99753894.731        2755.469          37.000  
G03  23428637.717   123118347.717        1656.362          35.000    23428652.131    95936463.626        1290.668          36.000  
G30  21316474.739   112018792.642        -601.428          42.000    21316480.958    87287400.593        -468.829          40.000  
G01  22011685.897   115672160.536       -2097.517          41.000    22011690.814    90134148.095       -1634.531          41.000  
G13  25685753.318   134979544.935        -747.018          28.000                                                                  
G22  23518737.369   123591821.557        2271.480          38.000                                                                  
G14  21862853.917   114890070.819        2155.464          40.000    21862858.792    89524772.817        1679.353          42.000  
G17  22300782.581   117191378.082         107.377          40.000    22300787.300    91317980.362          83.800          39.000  
G19  23595658.082   123996020.863        1460.562          35.000                                                                  
> 2025 04 27 02 31 45.0020000  0 12                     
G08  25680583.547   134952260.107       -2088.143          31.000    25680603.780   105157549.709       -1627.256          33.000  
G07  21876880.596   114963726.451       -2446.477          39.000    21876886.576    89582105.490       -1906.047          39.000  
G02  24851716.248   130596537.414       -3316.259          34.000                                                                  
G06  24360218.604   128013839.897        3535.205          33.000    24360233.994    99751139.548        2754.706          36.000  
G03  23428322.521   123116691.671        1656.328          36.000    23428337.006    95935173.174        1290.994          36.000  
G30  21316589.297   112019394.291        -602.032          42.000    21316595.413    87287869.391        -469.189          40.000  
G01  22012085.154   115674258.293       -2097.938          41.000    22012089.993    90135782.718       -1635.042          41.000  
G13  25685896.308   134980292.083        -747.335          28.000                                                                  
G22  23518305.008   123589549.674        2271.832          38.000                                                                  
G14  21862443.781   114887915.268        2155.574          40.000    21862448.626    89523093.145        1679.649          42.000  
G17  22300762.232   117191270.535         107.041          40.000    22300766.821    91317896.537          83.779          39.000  
G19  23595380.074   123994560.441        1459.965          35.000                                                                  
> 2025 04 27 02 31 46.0020000  0 12                     
G08  25680980.866   134954348.234       -2088.461          31.000    25681001.094   105159176.763       -1626.263          33.000  
G07  21877346.273   114966173.106       -2446.712          39.000    21877352.008    89584011.985       -1906.428          39.000  
G02  24852347.349   130599853.679       -3316.415          34.000                                                                  
G06  24359545.831   128010304.238        3535.547          33.000    24359561.134    99748384.495        2754.926          36.000  
G03  23428007.490   123115035.960        1655.439          35.000    23428021.912    95933883.025        1290.199          36.000  
G30  21316703.839   112019996.473        -602.155          42.000    21316709.981    87288338.632        -469.409          40.000  
G01  22012484.411   115676356.448       -2098.124          41.000    22012489.221    90137417.645       -1634.928          41.000  
G13  25686037.976   134981039.495        -747.688          28.000                                                                  
G22  23517872.636   123587277.725        2272.246          38.000                                                                  
G14  21862033.665   114885759.802        2155.685          40.000    21862038.517    89521413.579        1679.500          42.000  
G17  22300741.766   117191163.022         107.744          40.000    22300746.396    91317812.786          83.835          39.000  
G19  23595102.068   123993100.099        1460.194          35.000                                                                  
> 2025 04 27 02 31 47.0020000  0 12                     
G08  25681378.138   134956436.156       -2088.030          31.000    25681398.426   105160803.737       -1626.533          33.000  
G07  21877811.924   114968620.197       -2447.754          39.000    21877817.625    89585918.780       -1906.822          40.000  
G02  24852978.322   130603169.965       -3316.286          35.000                                                                  
G06  24358872.989   128006768.796        3535.205          33.000    24358888.358    99745629.626        2754.211          36.000  
G03  23427692.586   123113380.530        1654.777          35.000    23427706.878    95932593.076        1289.879          36.000  
G30  21316818.614   112020599.276        -603.247          42.000    21316824.673    87288808.345        -470.258          40.000  
G01  22012883.694   115678455.046       -2098.643          41.000    22012888.492    90139052.910       -1635.746          41.000  
G13  25686180.502   134981787.198        -747.822          29.000                                                                  
G22  23517440.373   123585005.717        2271.901          38.000                                                                  
G14  21861623.501   114883604.494        2154.899          40.000    21861628.314    89519734.101        1679.033          42.000  
G17  22300721.230   117191055.651         107.159          40.000    22300725.960    91317729.110          83.340          39.000  
G19  23594824.115   123991639.882        1459.758          35.000                                                                  
> 2025 04 27 02 31 48.0020000  0 12                     
G08  25681775.315   134958524.043       -2087.852          31.000    25681795.710   105162430.697       -1626.800          33.000  
G07  21878277.611   114971067.749       -2447.527          39.000    21878283.369    89587825.988       -1907.474          39.000  
G02  24853609.502   130606486.413       -3316.728          35.000                                                                  
G06  24358200.282   128003233.687        3534.650          33.000    24358215.613    99742874.946        2755.084          36.000  
G03  23427377.676   123111725.542        1654.747          35.000    23427391.958    95931303.485        1289.357          36.000  
G30  21316933.476   112021202.768        -604.071          42.000    21316939.505    87289278.593        -470.728          40.000  
G01  22013283.096   115680554.189       -2099.309          41.000    22013288.067    90140688.594       -1635.994          41.000  
G13  25686322.314   134982535.304        -748.050          29.000                                                                  
G22  23517008.003   123582733.779        2271.871          38.000                                                                  
G14  21861213.431   114881449.373        2154.883          40.000    21861218.245    89518054.786        1679.247          42.000  
G17  22300700.878   117190948.464         107.359          40.000    22300705.498    91317645.604          83.266          39.000  
G19  23594546.287   123990179.920        1459.597          35.000                                                                  
> 2025 04 27 02 31 49.0020000  0 12                     
G08  25682172.700   134960611.879       -2087.728          32.000    25682192.962   105164057.548       -1626.620          33.000  
G07  21878743.338   114973515.842       -2448.745          39.000    21878749.214    89589733.561       -1907.841          40.000  
G02  24854240.769   130609802.971       -3316.854          35.000                                                                  
G06  24357527.364   127999698.816        3534.961          32.000    24357542.983    99740120.569        2753.925          36.000  
G03  23427062.785   123110070.975        1654.291          35.000    23427077.086    95930014.219        1289.392          36.000  
G30  21317048.475   112021806.920        -604.486          42.000    21317054.566    87289749.352        -470.941          40.000  
G01  22013682.648   115682653.856       -2099.873          41.000    22013687.691    90142324.690       -1636.313          41.000  
G13  25686463.460   134983283.840        -748.955          29.000                                                                  
G22  23516575.708   123580461.842        2271.996          38.000                                                                  
G14  21860803.315   114879294.464        2154.472          40.000    21860808.134    89516375.640        1678.976          42.000  
G17  22300680.561   117190841.483         106.907          40.000    22300685.084    91317562.233          83.153          39.000  
G19  23594268.529   123988720.139        1459.850          35.000                                                                  
> 2025 04 27 02 31 50.0020000  0 12                     
G08  25682569.986   134962699.590       -2087.849          32.000    25682590.211   105165684.323       -1626.685          33.000  
G07  21879209.233   114975964.331       -2449.050          39.000    21879215.250    89591641.463       -1908.023          39.000  
G02  24854871.818   130613119.539       -3316.146          35.000                                                                  
G06  24356854.775   127996164.183        3534.644          32.000    24356870.286    99737366.309        2753.870          37.000  
G03  23426747.910   123108416.761        1654.072          35.000    23426762.298    95928725.231        1288.498          36.000  
G30  21317163.640   112022411.670        -605.035          42.000    21317169.680    87290220.592        -471.588          40.000  
G01  22014082.359   115684753.975       -2100.334          41.000    22014087.277    90143961.155       -1636.914          41.000  
G13  25686605.052   134984032.637        -748.748          29.000                                                                  
G22  23516143.470   123578189.901        2271.781          38.000                                                                  
G14  21860393.207   114877139.686        2154.696          40.000    21860398.176    89514696.599        1678.782          42.000  
G17  22300660.238   117190734.639         106.583          40.000    22300664.775    91317478.960          83.147          39.000  
G19  23593990.729   123987260.565        1458.736          35.000                                                                  
> 2025 04 27 02 31 51.0020000  0 12                     
G08  25682967.215   134964787.271       -2087.888          32.000    25682987.572   105167311.109       -1627.188          33.000  
G07  21879675.208   114978413.362       -2449.360          40.000    21879681.373    89593549.798       -1908.649          39.000  
G02  24855503.099   130616436.341       -3316.769          35.000                                                                  
G06  24356182.126   127992629.953        3533.826          33.000    24356197.802    99734612.360        2753.601          37.000  
G03  23426433.256   123106763.017        1653.470          35.000    23426447.598    95927436.601        1288.091          36.000  
G30  21317278.820   112023017.176        -605.933          42.000    21317284.959    87290692.387        -471.863          40.000  
G01  22014482.087   115686854.692       -2101.307          41.000    22014487.111    90145598.060       -1637.283          41.000  
G13  25686748.634   134984781.921        -749.611          29.000                                                                  
G22  23515711.119   123575918.050        2271.829          37.000                                                                  
G14  21859983.153   114874985.188        2154.242          40.000    21859988.160    89513017.758        1678.724          42.000  
G17  22300639.987   117190628.039         106.284          40.000    22300644.503    91317395.904          82.975          39.000  
G19  23593712.974   123985801.206        1458.923          35.000                                                                  
> 2025 04 27 02 31 52.0020000  0 12                     
G08  25683364.373   134966874.792       -2087.734          31.000    25683384.727   105168937.699       -1626.506          33.000  
G07  21880141.274   114980862.782       -2449.566          40.000    21880147.440    89595458.437       -1908.933          39.000  
G02  24856134.332   130619753.174       -3317.086          35.000                                                                  
G06  24355509.886   127989095.928        3534.015          33.000    24355525.235    99731858.562        2753.680          37.000  
G03  23426118.531   123105109.614        1652.956          35.000    23426132.959    95926148.218        1288.253          36.000  
G30  21317394.126   112023623.255        -606.348          42.000    21317400.290    87291164.657        -472.430          40.000  
G01  22014882.016   115688955.800       -2101.182          41.000    22014886.962    90147235.302       -1637.568          41.000  
G13  25686891.326   134985531.462        -748.458          29.000                                                                  
G22  23515278.874   123573646.121        2271.886          37.000                                                                  
G14  21859573.224   114872830.767        2154.870          40.000    21859578.222    89511339.002        1678.857          42.000  
G17  22300619.707   117190521.514         106.574          40.000    22300624.163    91317312.893          83.002          39.000  
G19  23593435.318   123984341.953        1459.364          35.000                                                                  
> 2025 04 27 02 31 53.0020000  0 12                     
G08  25683761.590   134968962.195       -2087.686          31.000    25683782.024   105170564.217       -1626.141          34.000  
G07  21880607.451   114983312.636       -2449.850          40.000    21880613.668    89597367.408       -1908.999          39.000  
G02  24856765.531   130623070.004       -3316.958          35.000                                                                  
G06  24354837.563   127985562.087        3533.429          33.000    24354852.654    99729104.916        2753.625          37.000  
G03  23425803.919   123103456.516        1653.179          35.000    23425818.431    95924860.097        1288.189          36.000  
G30  21317509.618   112024229.924        -606.799          42.000    21317515.738    87291637.404        -473.151          40.000  
G01  22015282.012   115691057.375       -2101.726          41.000    22015286.809    90148872.872       -1637.478          41.000  
G13  25687036.157   134986281.404        -750.633          29.000                                                                  
G22  23514846.545   123571374.141        2272.083          37.000                                                                  
G14  21859163.377   114870676.534        2154.108          40.000    21859168.254    89509660.368        1678.603          41.000  
G17  22300599.520   117190415.105         106.603          40.000    22300603.868    91317229.999          82.633          39.000  
G19  23593157.623   123982882.896        1458.633          35.000                                                                  
> 2025 04 27 02 31 54.0020000  0 12                     
G08  25684158.785   134971049.476       -2087.031          31.000    25684179.302   105172190.707       -1626.705          33.000  
G07  21881073.720   114985762.977       -2450.349          40.000    21881079.919    89599276.764       -1909.425          40.000  
G02  24857396.741   130626386.997       -3317.002          35.000                                                                  
G06  24354165.199   127982028.533        3533.478          33.000    24354180.254    99726351.513        2753.558          36.000  
G03  23425489.491   123101803.868        1652.412          36.000    23425503.885    95923572.334        1287.656          36.000  
G30  21317625.265   112024837.290        -607.794          42.000    21317631.251    87292110.648        -473.230          40.000  
G01  22015681.885   115693159.465       -2102.180          41.000    22015686.838    90150510.863       -1637.935          41.000  
G13  25687178.783   134987031.653        -750.549          30.000                                                                  
G22  23514414.201   123569102.235        2271.975          37.000                                                                  
G14  21858753.513   114868522.468        2154.030          40.000    21858758.337    89507981.877        1678.601          41.000  
G17  22300579.276   117190308.910         106.077          40.000    22300583.537    91317147.213          82.865          39.000  
G19  23592879.988   123981424.044        1458.731          35.000                                                                  
> 2025 04 27 02 31 55.0020000  0 12                     
G08  25684555.915   134973136.614       -2087.367          31.000    25684576.549   105173817.001       -1625.987          34.000  
G07  21881540.069   114988213.697       -2451.005          39.000    21881546.302    89601186.385       -1909.481          40.000  
G02  24858027.941   130629703.948       -3317.020          35.000                                                                  
G06  24353492.765   127978495.156        3533.160          33.000    24353507.881    99723598.224        2753.143          36.000  
G03  23425175.019   123100151.520        1651.824          35.000    23425189.478    95922284.784        1287.399          36.000  
G30  21317740.934   112025445.185        -608.276          42.000    21317746.936    87292584.342        -474.188          40.000  
G01  22016081.959   115695261.960       -2102.700          41.000    22016086.961    90152149.171       -1638.353          41.000  
G13  25687319.178   134987782.183        -751.207          30.000                                                                  
G22  23513981.915   123566830.195        2271.874          37.000                                                                  
G14  21858343.599   114866368.506        2153.760          40.000    21858348.389    89506303.462        1678.396          41.000  
G17  22300559.052   117190202.775         105.883          40.000    22300563.343    91317064.520          82.412          39.000  
G19  23592602.438   123979965.265        1458.491          35.000                                                                  
> 2025 04 27 02 31 56.0020000  0 12                     
G08  25684953.001   134975223.613       -2086.445          32.000    25684973.716   105175443.258       -1626.339          33.000  
G07  21882006.514   114990664.847       -2451.371          40.000    21882012.812    89603096.380       -1910.179          40.000  
G02  24858659.194   130633020.990       -3317.428          35.000                                                                  
G06  24352820.543   127974962.050        3532.465          33.000    24352835.599    99720845.150        2752.942          36.000  
G03  23424860.768   123098499.515        1651.691          35.000    23424875.071    95920997.534        1286.688          36.000  
G30  21317856.712   112026053.715        -608.832          42.000    21317862.857    87293058.526        -474.652          40.000  
G01  22016482.104   115697364.927       -2103.450          41.000    22016487.105    90153787.841       -1638.992          41.000  
G13  25687461.968   134988533.004        -750.183          30.000                                                                  
G22  23513549.413   123564558.149        2272.130          37.000                                                                  
G14  21857933.755   114864214.684        2153.692          40.000    21857938.619    89504625.165        1678.041          41.000  
G17  22300538.911   117190096.754         106.096          40.000    22300543.251    91316981.923          82.405          39.000  
G19  23592324.932   123978506.646        1458.564          34.000                                                                  
> 2025 04 27 02 31 57.0020000  0 12                     
G08  25685350.263   134977310.601       -2086.931          32.000    25685370.797   105177069.478       -1626.667          33.000  
G07  21882473.067   114993116.516       -2451.734          40.000    21882479.405    89605006.771       -1910.655          40.000  
G02  24859290.566   130636338.178       -3317.312          35.000                                                                  
G06  24352148.488   127971429.253        3532.623          33.000    24352163.366    99718092.318        2752.881          36.000  
G03  23424546.524   123096847.957        1651.307          35.000    23424560.781    95919710.602        1286.691          36.000  
G30  21317972.744   112026662.951        -609.656          42.000    21317978.720    87293533.246        -474.915          40.000  
G01  22016882.358   115699468.444       -2103.492          41.000    22016887.345    90155426.937       -1638.887          41.000  
G13  25687605.369   134989284.214        -749.525          30.000                                                                  
G22  23513117.215   123562286.169        2271.920          37.000                                                                  
G14  21857523.804   114862061.100        2153.720          40.000    21857528.719    89502947.043        1678.134          41.000  
G17  22300518.736   117189990.983         105.750          40.000    22300523.147    91316899.497          82.305          39.000  
G19  23592047.381   123977048.301        1458.298          34.000                                                                  
> 2025 04 27 02 31 58.0020000  0 12                     
G08  25685747.477   134979397.464       -2086.525          32.000    25685767.872   105178695.592       -1626.237          33.000  
G07  21882939.630   114995568.637       -2452.364          40.000    21882946.001    89606917.484       -1910.703          39.000  
G02  24859921.808   130639655.432       -3317.443          35.000                                                                  
G06  24351476.366   127967896.667        3532.587          33.000    24351491.075    99715339.688        2752.435          37.000  
G03  23424232.313   123095196.767        1650.922          35.000    23424246.630    95918423.958        1286.427          36.000  
G30  21318088.774   112027272.803        -610.272          42.000    21318094.797    87294008.445        -475.262          40.000  
G01  22017282.830   115701572.438       -2104.191          41.000    22017287.750    90157066.404       -1639.476          41.000  
G13  25687748.437   134990035.947        -751.703          30.000                                                                  
G22  23512684.723   123560014.159        2272.448          37.000                                                                  
G14  21857114.015   114859907.682        2153.332          40.000    21857118.963    89501269.069        1677.682          41.000  
G17  22300498.591   117189885.366         105.453          40.000    22300503.055    91316817.168          82.713          39.000  
G19  23591769.902   123975590.112        1458.058          34.000                                                                  
> 2025 04 27 02 31 59.0020000  0 12                     
G08  25686144.525   134981484.249       -2087.240          32.000    25686164.984   105180321.631       -1625.982          33.000  
G07  21883406.444   114998021.221       -2452.872          40.000    21883412.713    89608828.598       -1911.373          40.000  
G02  24860553.065   130642972.783       -3317.424          35.000                                                                  
G06  24350804.087   127964364.445        3531.219          33.000    24350818.932    99712587.269        2752.014          37.000  
G03  23423918.073   123093546.000        1650.406          35.000    23423932.415    95917137.663        1286.004          36.000  
G30  21318204.949   112027883.310        -610.748          42.000    21318211.020    87294484.163        -475.671          40.000  
G01  22017683.346   115703676.945       -2104.932          41.000    22017688.206    90158706.289       -1640.338          41.000  
G13  25687891.386   134990787.916        -752.054          30.000                                                                  
G22  23512252.360   123557742.186        2272.317          37.000                                                                  
G14  21856704.316   114857754.451        2153.461          40.000    21856709.182    89499591.232        1677.579          41.000  
G17  22300478.581   117189779.925         105.202          40.000    22300483.060    91316735.015          82.037          39.000  
G19  23591492.481   123974132.095        1458.277          34.000                                                                  
> 2025 04 27 02 32 00.0020000  0 12                     
G08  25686541.507   134983570.800       -2086.652          32.000    25686562.041   105181947.517       -1626.053          33.000  
G07  21883873.197   115000474.152       -2453.027          40.000    21883879.528    89610739.953       -1911.563          40.000  
G02  24861184.325   130646290.128       -3317.695          35.000                                                                  
G06  24350131.869   127960832.300        3531.579          32.000    24350146.738    99709834.972        2752.423          37.000  
G03  23423604.007   123091895.482        1650.572          35.000    23423618.279    95915851.555        1285.888          37.000  
G30  21318321.204   112028494.367        -611.292          42.000    21318327.318    87294960.324        -476.306          40.000  
G01  22018083.915   115705781.815       -2105.151          41.000    22018088.724    90160346.445       -1640.439          41.000  
G13  25688034.694   134991540.180        -752.646          30.000                                                                  
G22  23511820.064   123555470.123        2272.007          37.000                                                                  
G14  21856294.634   114855601.303        2153.059          40.000    21856299.496    89497913.450        1677.553          41.000  
G17  22300458.503   117189674.506         105.394          40.000    22300462.978    91316652.883          82.147          39.000  
G19  23591215.050   123972674.218        1457.552          34.000                                                                  
> 2025 04 27 02 32 01.0020000  0 12                     
G08  25686938.498   134985657.191       -2086.190          32.000    25686959.048   105183573.235       -1624.841          33.000  
G07  21884339.962   115002927.489       -2453.361          40.000    21884346.335    89612651.622       -1911.453          40.000  
G02  24861815.598   130649607.478       -3317.249          35.000                                                                  
G06  24349459.591   127957300.356        3532.538          32.000    24349474.598    99707082.824        2752.429          37.000  
G03  23423290.033   123090245.313        1649.849          35.000    23423304.243    95914565.684        1286.146          37.000  
G30  21318437.620   112029105.999        -611.743          42.000    21318443.593    87295436.912        -476.837          40.000  
G01  22018484.461   115707887.129       -2105.403          41.000    22018489.352    90161986.934       -1640.366          41.000  
G13  25688177.994   134992292.715        -752.795          30.000                                                                  
G22  23511387.619   123553197.967        2272.685          37.000                                                                  
G14  21855884.745   114853448.259        2153.134          40.000    21855889.866    89496235.732        1678.048          41.000  
G17  22300438.601   117189569.187         105.548          40.000    22300442.977    91316570.808          82.411          39.000  
G19  23590937.545   123971216.391        1458.119          35.000                                                                  
> 2025 04 27 02 32 02.0020000  0 12                     
G08  25687335.622   134987743.514       -2086.250          32.000    25687356.105   105185198.922       -1625.881          33.000  
G07  21884806.856   115005381.234       -2453.808          40.000    21884813.301    89614563.654       -1912.335          39.000  
G02  24862446.876   130652924.909       -3317.705          35.000                                                                  
G06  24348787.563   127953768.680        3531.598          32.000    24348802.560    99704330.879        2751.855          36.000  
G03  23422976.116   123088595.473        1649.768          36.000    23422990.298    95913280.126        1285.174          37.000  
G30  21318554.115   112029718.232        -612.469          42.000    21318560.091    87295913.974        -477.594          40.000  
G01  22018885.196   115709992.885       -2106.107          41.000    22018890.086    90163627.793       -1641.276          41.000  
G13  25688321.200   134993045.545        -752.832          29.000                                                                  
G22  23510955.245   123550925.783        2272.778          37.000                                                                  
G14  21855475.129   114851295.347        2152.926          41.000    21855480.139    89494558.154        1677.326          41.000  
G17  22300418.618   117189464.011         105.191          40.000    22300423.050    91316488.856          81.978          39.000  
G19  23590660.130   123969758.749        1457.814          35.000                                                                  
> 2025 04 27 02 32 03.0020000  0 12                     
G08  25687732.577   134989829.702       -2086.855          32.000    25687753.194   105186824.504       -1625.512          33.000  
G07  21885273.854   115007835.476       -2454.579          39.000    21885280.259    89616476.020       -1912.503          39.000  
G02  24863078.062   130656242.395       -3317.286          35.000                                                                  
G06  24348115.435   127950237.253        3531.799          32.000    24348130.519    99701579.133        2751.593          36.000  
G03  23422662.154   123086946.049        1649.033          36.000    23422676.304    95911994.841        1285.071          37.000  
G30  21318670.718   112030331.125        -613.293          42.000    21318676.761    87296391.540        -477.625          40.000  
G01  22019285.974   115712099.148       -2106.625          41.000    22019290.897    90165269.038       -1641.686          41.000  
G13  25688464.631   134993798.794        -753.519          29.000                                                                  
G22  23510522.892   123548653.631        2272.617          37.000                                                                  
G14  21855065.449   114849142.628        2152.604          41.000    21855070.478    89492880.711        1677.527          41.000  
G17  22300398.654   117189359.015         104.653          40.000    22300403.075    91316407.037          81.719          39.000  
G19  23590382.795   123968301.310        1457.132          35.000                                                                  
> 2025 04 27 02 32 04.0020000  0 12                     
G08  25688129.447   134991915.747       -2086.304          32.000    25688150.218   105188450.033       -1625.759          33.000  
G07  21885740.963   115010290.117       -2454.882          40.000    21885747.409    89618388.739       -1912.881          39.000  
G02  24863709.208   130659559.975       -3317.598          35.000                                                                  
G06  24347443.575   127946706.086        3531.030          33.000    24347458.616    99698827.557        2751.477          36.000  
G03  23422348.396   123085296.986        1649.079          35.000    23422362.542    95910709.852        1284.898          37.000  
G30  21318787.366   112030944.630        -613.855          42.000    21318793.540    87296869.587        -478.210          40.000  
G01  22019686.845   115714205.873       -2107.080          41.000    22019691.804    90166910.642       -1641.986          40.000  
G13  25688607.937   134994552.343        -753.951          29.000                                                                  
G22  23510090.488   123546381.426        2272.393          37.000                                                                  
G14  21854655.785   114846990.045        2152.654          41.000    21854660.908    89491203.354        1677.693          41.000  
G17  22300378.603   117189254.118         104.747          40.000    22300383.089    91316325.307          81.575          39.000  
G19  23590105.419   123966844.054        1456.626          35.000                                                                  
> 2025 04 27 02 32 05.0020000  0 12                     
G08  25688526.321   134994001.869       -2086.749          32.000    25688547.185   105190075.521       -1625.622          33.000  
G07  21886208.138   115012745.381       -2455.833          40.000    21886214.685    89620301.916       -1913.474          39.000  
G02  24864340.710   130662877.763       -3317.953          35.000                                                                  
G06  24346771.771   127943175.308        3530.688          33.000    24346786.711    99696076.302        2751.361          36.000  
G03  23422034.592   123083648.435        1648.509          36.000    23422048.792    95909425.270        1284.297          37.000  
G30  21318904.182   112031558.915        -614.734          42.000    21318910.433    87297348.273        -479.248          40.000  
G01  22020087.906   115716313.222       -2107.784          41.000    22020092.929    90168552.708       -1642.358          40.000  
G13  25688751.472   134995306.378        -754.521          29.000                                                                  
G22  23509658.126   123544109.401        2271.901          38.000                                                                  
G14  21854246.254   114844837.789        2152.075          41.000    21854251.365    89489526.293        1676.800          41.000  
G17  22300358.715   117189149.523         104.251          40.000    22300363.158    91316243.801          81.407          39.000  
G19  23589828.210   123965387.041        1457.321          35.000                                                                  
> 2025 04 27 02 32 06.0020000  0 12                     
G08  25688923.299   134996087.892       -2086.216          32.000    25688944.194   105191701.004       -1625.364          33.000  
G07  21886675.493   115015201.124       -2455.880          40.000    21886681.999    89622215.484       -1913.893          39.000  
G02  24864972.128   130666195.699       -3318.251          35.000                                                                  
G06  24346099.792   127939644.839        3530.572          33.000    24346114.934    99693325.325        2750.439          36.000  
G03  23421720.955   123082000.303        1647.902          35.000    23421735.192    95908141.004        1284.388          36.000  
G30  21319021.195   112032173.891        -615.582          42.000    21319027.512    87297827.457        -479.492          40.000  
G01  22020488.958   115718421.096       -2108.342          41.000    22020493.977    90170195.222       -1642.657          41.000  
G13  25688895.153   134996060.761        -754.529          29.000                                                                  
G22  23509225.820   123541837.403        2271.490          37.000                                                                  
G14  21853836.781   114842685.743        2151.932          41.000    21853841.850    89487849.371        1676.694          41.000  
G17  22300338.927   117189045.135         104.273          40.000    22300343.235    91316162.451          81.269          39.000  
G19  23589551.131   123963930.324        1456.654          35.000                                                                  
> 2025 04 27 02 32 07.0020000  0 12                     
G08  25689320.317   134998173.889       -2086.146          31.000    25689341.209   105193326.452       -1625.334          33.000  
G07  21887142.917   115017657.381       -2456.589          40.000    21887149.312    89624129.426       -1913.799          39.000  
G02  24865603.522   130669513.754       -3318.413          35.000                                                                  
G06  24345428.180   127936114.666        3530.426          32.000    24345443.167    99690574.545        2750.543          36.000  
G03  23421407.446   123080352.592        1648.083          35.000    23421421.653    95906857.093        1283.949          36.000  
G30  21319138.245   112032789.542        -615.894          42.000    21319144.644    87298307.187        -480.042          40.000  
G01  22020890.204   115720529.503       -2108.590          41.000    22020895.201    90171838.140       -1643.228          41.000  
G13  25689038.827   134996815.581        -754.731          29.000                                                                  
G22  23508793.601   123539565.422        2272.364          37.000                                                                  
G14  21853427.278   114840533.913        2152.035          41.000    21853432.290    89486172.628        1676.757          41.000  
G17  22300319.134   117188940.950         103.889          40.000    22300323.432    91316081.274          81.312          39.000  
G19  23589274.078   123962473.797        1456.387          35.000                                                                  
> 2025 04 27 02 32 08.0020000  0 12                     
G08  25689717.211   135000259.749       -2086.151          31.000    25689738.119   105194951.774       -1625.558          33.000  
G07  21887610.482   115020114.055       -2456.949          40.000    21887616.794    89626043.716       -1914.420          39.000  
G02  24866235.034   130672831.834       -3318.159          35.000                                                                  
G06  24344756.263   127932584.750        3529.468          32.000    24344771.428    99687823.944        2750.421          37.000  
G03  23421093.907   123078705.281        1647.021          35.000    23421108.135    95905573.456        1283.748          36.000  
G30  21319255.512   112033405.798        -616.492          42.000    21319261.914    87298787.381        -480.383          40.000  
G01  22021291.468   115722638.366       -2109.056          41.000    22021296.494    90173481.397       -1643.439          41.000  
G13  25689182.536   134997570.768        -755.691          29.000                                                                  
G22  23508361.258   123537293.446        2272.187          37.000                                                                  
G14  21853017.942   114838382.234        2151.727          40.000    21853022.793    89484495.985        1676.721          41.000  
G17  22300299.337   117188836.864         104.209          40.000    22300303.654    91316000.181          80.978          39.000  
G19  23588997.003   123961017.437        1455.797          36.000                                                                  
> 2025 04 27 02 32 09.0020000  0 12                     
G08  25690114.099   135002345.443       -2085.903          31.000    25690134.996   105196576.971       -1624.884          33.000  
G07  21888078.012   115022571.158       -2457.571          40.000    21888084.418    89627958.325       -1914.848          39.000  
G02  24866866.489   130676149.962       -3318.127          35.000                                                                  
G06  24344084.329   127929055.005        3529.419          32.000    24344099.701    99685073.500        2750.531          37.000  
G03  23420780.382   123077058.252        1647.385          35.000    23420794.618    95904290.096        1283.202          36.000  
G30  21319372.933   112034022.661        -616.998          42.000    21319379.264    87299268.046        -480.670          40.000  
G01  22021692.792   115724747.682       -2109.342          41.000    22021697.862    90175125.004       -1643.552          41.000  
G13  25689326.310   134998326.193        -755.184          29.000                                                                  
G22  23507928.858   123535021.408        2272.113          37.000                                                                  
G14  21852608.560   114836230.694        2151.411          40.000    21852613.300    89482819.458        1676.566          41.000  
G17  22300279.604   117188732.919         103.583          40.000    22300283.723    91315919.171          81.100          39.000  
G19  23588719.853   123959561.197        1455.939          35.000                                                                  
> 2025 04 27 02 32 10.0020000  0 12                     
G08  25690510.803   135004431.106       -2086.271          31.000    25690531.903   105198202.159       -1625.496          33.000  
G07  21888545.682   115025028.728       -2458.031          40.000    21888552.101    89629873.309       -1914.904          39.000  
G02  24867497.956   130679468.215       -3318.487          35.000                                                                  
G06  24343412.639   127925525.563        3529.858          33.000    24343428.068    99682323.316        2749.701          37.000  
G03  23420466.976   123075411.673        1646.483          35.000    23420481.145    95903007.020        1282.771          36.000  
G30  21319490.475   112034640.190        -617.871          42.000    21319496.742    87299749.252        -481.763          40.000  
G01  22022094.293   115726857.510       -2110.070          41.000    22022099.383    90176769.025       -1644.149          41.000  
G13  25689470.133   134999082.063        -756.528          29.000                                                                  
G22  23507496.352   123532749.415        2271.672          38.000                                                                  
G14  21852199.058   114834079.342        2150.953          40.000    21852203.883    89481143.081        1676.257          41.000  
G17  22300259.939   117188629.168         103.186          40.000    22300263.981    91315838.304          80.927          39.000  
G19  23588442.810   123958105.176        1455.868          36.000                                                                  
> 2025 04 27 02 32 11.0020000  0 12                     
G08  25690907.633   135006516.740       -2086.379          31.000    25690928.695   105199827.318       -1625.374          33.000  
G07  21889013.411   115027486.846       -2458.604          40.000    21889019.821    89631788.733       -1915.625          39.000  
G02  24868129.507   130682786.632       -3318.542          35.000                                                                  
G06  24342741.243   127921996.519        3529.053          33.000    24342756.520    99679573.382        2749.951          36.000  
G03  23420153.595   123073765.582        1645.544          35.000    23420167.836    95901724.335        1282.688          36.000  
G30  21319608.202   112035258.443        -618.597          42.000    21319614.301    87300230.999        -482.233          40.000  
G01  22022495.823   115728967.905       -2110.771          41.000    22022501.026    90178413.490       -1644.755          41.000  
G13  25689613.914   134999838.286        -756.210          29.000                                                                  
G22  23507063.982   123530477.489        2271.571          38.000                                                                  
G14  21851789.789   114831928.243        2150.836          40.000    21851794.494    89479466.903        1676.060          41.000  
G17  22300240.162   117188525.624         103.397          40.000    22300244.369    91315757.641          80.383          39.000  
G19  23588165.872   123956649.433        1455.385          35.000                                                                  
> 2025 04 27 02 32 12.0020000  0 12                     
G08  25691304.416   135008602.290       -2085.354          31.000    25691325.639   105201452.425       -1624.267          33.000  
G07  21889481.236   115029945.468       -2458.523          39.000    21889487.704    89633704.546       -1916.076          40.000  
G02  24868761.138   130686105.163       -3318.330          35.000                                                                  
G06  24342069.735   127918467.753        3529.297          33.000    24342085.102    99676823.716        2749.542          36.000  
G03  23419840.368   123072119.909        1645.362          35.000    23419854.690    95900441.983        1283.276          36.000  
G30  21319726.023   112035877.402        -619.092          42.000    21319732.123    87300713.290        -482.257          40.000  
G01  22022897.565   115731078.842       -2111.095          41.000    22022902.642    90180058.373       -1644.719          41.000  
G13  25689757.998   135000594.983        -756.799          29.000                                                                  
G22  23506631.753   123528205.620        2271.901          38.000                                                                  
G14  21851380.438   114829777.381        2150.945          40.000    21851385.264    89477790.917        1676.097          41.000  
G17  22300220.503   117188422.311         103.367          40.000    22300224.742    91315677.129          80.549          39.000  
G19  23587889.059   123955193.906        1455.707          36.000                                                                  
> 2025 04 27 02 32 13.0020000  0 12                     
G08  25691701.014   135010687.623       -2084.216          31.000    25691722.471   105203077.386       -1624.211          33.000  
G07  21889949.219   115032404.468       -2459.178          40.000    21889955.590    89635620.639       -1916.454          40.000  
G02  24869392.463   130689423.744       -3319.338          36.000                                                                  
G06  24341398.238   127914939.156        3528.815          33.000    24341413.610    99674074.183        2748.877          37.000  
G03  23419527.352   123070474.504        1644.966          35.000    23419541.558    95899159.896        1281.981          36.000  
G30  21319843.881   112036496.908        -620.038          42.000    21319850.064    87301196.007        -482.861          40.000  
G01  22023299.379   115733190.193       -2111.740          41.000    22023304.470    90181703.563       -1645.422          41.000  
G13  25689902.058   135001351.879        -756.677          29.000                                                                  
G22  23506199.363   123525933.660        2271.737          37.000                                                                  
G14  21850971.176   114827626.614        2150.370          41.000    21850975.974    89476114.985        1675.761          41.000  
G17  22300200.846   117188319.059         102.796          40.000    22300205.160    91315596.670          80.248          39.000  
G19  23587612.099   123953738.492        1455.191          35.000                                                                  
> 2025 04 27 02 32 14.0020000  0 12                     
G08  25692097.691   135012772.943       -2085.415          31.000    25692119.250   105204702.255       -1624.820          33.000  
G07  21890417.217   115034863.901       -2460.002          40.000    21890423.686    89637537.053       -1916.978          40.000  
G02  24870023.964   130692742.318       -3318.989          35.000                                                                  
G06  24340726.871   127911410.823        3528.009          33.000    24340742.155    99671324.821        2748.975          37.000  
G03  23419214.346   123068829.499        1644.271          35.000    23419228.579    95897878.073        1281.250          36.000  
G30  21319961.989   112037117.012        -620.746          42.000    21319967.914    87301679.219        -483.496          40.000  
G01  22023701.323   115735301.982       -2112.300          41.000    22023706.382    90183349.103       -1645.564          41.000  
G13  25690046.182   135002109.181        -757.518          29.000                                                                  
G22  23505767.045   123523661.681        2271.777          37.000                                                                  
G14  21850561.952   114825475.980        2150.080          41.000    21850566.742    89474439.161        1675.705          41.000  
G17  22300181.243   117188215.927         102.677          40.000    22300185.529    91315516.319          79.990          39.000  
G19  23587335.168   123952283.218        1455.295          35.000                                                                  
> 2025 04 27 02 32 15.0020000  0 12                     
G08  25692494.429   135014858.150       -2084.931          31.000    25692516.015   105206327.109       -1624.783          32.000  
G07  21890885.211   115037323.826       -2460.125          40.000    21890891.842    89639453.869       -1916.848          40.000  
G02  24870655.502   130696061.017       -3318.085          35.000                                                                  
G06  24340055.615   127907882.813        3527.734          33.000    24340070.818    99668575.708        2748.999          37.000  
G03  23418901.441   123067184.902        1644.777          35.000    23418915.555    95896596.580        1281.143          36.000  
G30  21320080.154   112037737.824        -621.075          42.000    21320086.093    87302162.958        -483.893          40.000  
G01  22024103.360   115737414.324       -2112.671          41.000    22024108.401    90184995.109       -1646.429          41.000  
G13  25690190.417   135002866.883        -757.827          29.000                                                                  
G22  23505334.555   123521389.743        2271.998          37.000                                                                  
G14  21850152.743   114823325.578        2150.200          41.000    21850157.609    89472763.533        1675.475          41.000  
G17  22300161.670   117188113.032         102.517          40.000    22300165.953    91315436.121          80.163          39.000  
G19  23587058.490   123950828.218        1454.741          35.000                                                                  
> 2025 04 27 02 32 16.0020000  0 12                     
G08  25692891.373   135016943.324       -2085.061          31.000    25692912.782   105207951.888       -1624.670          32.000  
G07  21891353.508   115039784.242       -2460.620          40.000    21891360.080    89641371.064       -1917.360          40.000  
G02  24871287.000   130699379.904       -3318.963          35.000                                                                  
G06  24339384.452   127904355.060        3527.624          33.000    24339399.417    99665826.810        2749.164          37.000  
G03  23418588.656   123065540.757        1643.542          36.000    23418602.706    95895315.388        1281.147          36.000  
G30  21320198.432   112038359.302        -621.783          42.000    21320204.326    87302647.243        -484.863          40.000  
G01  22024505.431   115739527.166       -2113.077          41.000    22024510.535    90186641.474       -1646.692          41.000  
G13  25690334.740   135003624.934        -758.450          29.000                                                                  
G22  23504902.279   123519117.858        2271.962          37.000                                                                  
G14  21849743.597   114821175.383        2150.050          41.000    21849748.431    89471088.046        1675.450          41.000  
G17  22300142.130   117188010.307         102.414          40.000    22300146.382    91315356.078          79.969          39.000  
G19  23586781.553   123949373.356        1455.043          35.000                                                                  
> 2025 04 27 02 32 17.0020000  0 12                     
G08  25693288.412   135019028.352       -2085.446          31.000    25693309.641   105209576.597       -1625.074          32.000  
G07  21891821.736   115042245.094       -2461.477          40.000    21891828.431    89643288.602       -1917.817          40.000  
G02  24871918.568   130702698.790       -3318.541          35.000                                                                  
G06  24338713.382   127900827.598        3526.923          33.000    24338728.144    99663078.146        2747.955          37.000  
G03  23418275.902   123063896.957        1643.135          36.000    23418289.923    95894034.512        1280.600          36.000  
G30  21320316.770   112038981.402        -622.528          42.000    21320322.778    87303131.985        -485.297          40.000  
G01  22024907.634   115741640.496       -2113.981          41.000    22024912.632    90188288.195       -1646.871          41.000  
G13  25690479.314   135004383.307        -758.434          29.000                                                                  
G22  23504469.900   123516845.958        2271.569          37.000                                                                  
G14  21849334.487   114819025.352        2149.635          41.000    21849339.229    89469412.688        1675.220          41.000  
G17  22300122.613   117187907.737         101.887          40.000    22300126.773    91315276.146          79.762          39.000  
G19  23586504.782   123947918.726        1454.271          35.000                                                                  
> 2025 04 27 02 32 18.0020000  0 12                     
G08  25693685.107   135021113.294       -2084.928          32.000    25693706.387   105211201.172       -1623.992          32.000  
G07  21892290.132   115044706.385       -2461.276          40.000    21892296.736    89645206.479       -1917.660          40.000  
G02  24872550.169   130706017.824       -3319.101          35.000                                                                  
G06  24338042.258   127897300.353        3527.258          33.000    24338056.899    99660329.661        2748.053          37.000  
G03  23417963.163   123062253.550        1643.175          36.000    23417977.222    95892753.959        1280.317          36.000  
G30  21320435.219   112039604.157        -623.309          42.000    21320441.294    87303617.249        -485.919          40.000  
G01  22025309.921   115743754.311       -2114.285          41.000    22025314.918    90189935.343       -1647.510          41.000  
G13  25690623.651   135005142.072        -759.207          29.000                                                                  
G22  23504037.512   123514574.048        2272.029          37.000                                                                  
G14  21848925.344   114816875.486        2149.621          41.000    21848930.128    89467737.482        1675.227          41.000  
G17  22300103.097   117187805.313         102.153          40.000    22300107.350    91315196.335          79.759          39.000  
G19  23586228.043   123946464.252        1454.116          35.000                                                                  
> 2025 04 27 02 32 19.0020000  0 12                     
G08  25694082.022   135023198.129       -2084.133          32.000    25694103.178   105212825.778       -1625.110          32.000  
G07  21892758.677   115047168.166       -2461.852          40.000    21892765.265    89647124.764       -1918.340          40.000  
G02  24873181.736   130709336.937       -3319.106          35.000                                                                  
G06  24337371.081   127893773.439        3526.397          32.000    24337385.802    99657581.393        2748.365          36.000  
G03  23417650.513   123060610.543        1643.221          36.000    23417664.545    95891473.725        1279.776          36.000  
G30  21320553.886   112040227.568        -623.700          42.000    21320559.911    87304103.012        -485.907          40.000  
G01  22025712.264   115745868.625       -2114.407          41.000    22025717.283    90191582.871       -1647.781          41.000  
G13  25690768.131   135005901.176        -758.825          29.000                                                                  
G22  23503605.221   123512302.190        2271.705          37.000                                                                  
G14  21848516.286   114814725.821        2149.733          41.000    21848520.968    89466062.425        1675.034          41.000  
G17  22300083.645   117187703.068         102.397          40.000    22300087.889    91315116.683          79.701          39.000  
G19  23585951.319   123945009.989        1454.409          35.000                                                                  
> 2025 04 27 02 32 20.0020000  0 12                     
G08  25694478.850   135025282.823       -2084.815          31.000    25694499.870   105214450.148       -1624.087          32.000  
G07  21893227.187   115049630.329       -2462.463          40.000    21893233.820    89649043.289       -1918.269          40.000  
G02  24873813.413   130712656.067       -3319.545          35.000                                                                  
G06  24336700.017   127890246.631        3526.947          32.000    24336714.711    99654833.272        2747.339          36.000  
G03  23417337.800   123058967.851        1642.086          36.000    23417351.885    95890193.656        1280.025          36.000  
G30  21320672.613   112040851.514        -624.390          42.000    21320678.652    87304589.197        -486.322          40.000  
G01  22026114.637   115747983.354       -2115.073          41.000    22026119.714    90193230.692       -1648.186          41.000  
G13  25690912.763   135006660.575        -759.530          28.000                                                                  
G22  23503172.910   123510030.224        2271.852          37.000                                                                  
G14  21848107.313   114812576.244        2149.639          41.000    21848111.952    89464387.411        1675.161          41.000  
G17  22300064.211   117187600.888         102.184          40.000    22300068.450    91315037.059          79.440          39.000  
G19  23585674.810   123943555.794        1454.375          35.000                                                                  
> 2025 04 27 02 32 21.0020000  0 12                     
G08  25694875.556   135027367.287       -2084.484          32.000    25694896.560   105216074.428       -1624.564          32.000  
G07  21893695.831   115052092.872       -2462.871          40.000    21893702.438    89650962.179       -1919.431          39.000  
G02  24874445.052   130715975.155       -3319.326          35.000                                                                  
G06  24336028.828   127886720.059        3526.343          33.000    24336043.620    99652085.266        2747.772          36.000  
G03  23417025.276   123057325.432        1642.335          36.000    23417039.450    95888913.887        1279.450          36.000  
G30  21320791.362   112041476.025        -625.000          42.000    21320797.607    87305075.837        -487.250          40.000  
G01  22026517.171   115750098.471       -2115.608          41.000    22026522.180    90194878.825       -1648.436          41.000  
G13  25691057.302   135007420.211        -759.881          28.000                                                                  
G22  23502740.700   123507758.170        2271.607          37.000                                                                  
G14  21847698.310   114810426.743        2149.421          41.000    21847702.938    89462712.502        1674.511          41.000  
G17  22300044.788   117187498.792         101.867          40.000    22300049.090    91314957.494          79.387          39.000  
G19  23585398.114   123942101.722        1453.925          35.000                                                                  
> 2025 04 27 02 32 22.0020000  0 12                     
G08  25695272.244   135029451.681       -2083.984          31.000    25695293.197   105217698.654       -1624.797          32.000  
G07  21894164.554   115054555.879       -2463.234          40.000    21894171.161    89652881.392       -1919.415          39.000  
G02  24875076.680   130719294.344       -3319.101          35.000                                                                  
G06  24335357.638   127883193.746        3525.958          32.000    24335372.653    99649337.497        2747.583          36.000  
G03  23416712.801   123055683.417        1641.839          35.000    23416727.109    95887634.422        1278.931          36.000  
G30  21320910.347   112042101.193        -625.446          42.000    21320916.484    87305562.973        -487.415          40.000  
G01  22026919.774   115752214.078       -2115.896          41.000    22026924.792    90196527.357       -1648.583          41.000  
G13  25691201.958   135008180.279        -760.401          28.000                                                                  
G22  23502308.343   123505486.121        2272.371          37.000                                                                  
G14  21847289.280   114808277.453        2149.153          41.000    21847294.013    89461037.731        1674.530          41.000  
G17  22300025.315   117187396.859         101.803          40.000    22300029.594    91314878.054          79.755          39.000  
G19  23585121.478   123940647.827        1453.694          35.000                                                                  
> 2025 04 27 02 32 23.0020000  0 12                     
G08  25695668.867   135031535.860       -2083.452          31.000    25695689.813   105219322.661       -1623.859          32.000  
G07  21894633.347   115057019.255       -2463.748          40.000    21894639.959    89654800.892       -1919.500          39.000  
G02  24875708.240   130722613.561       -3319.175          35.000                                                                  
G06  24334686.667   127879667.609        3525.897          33.000    24334701.637    99646589.861        2747.504          36.000  
G03  23416400.384   123054041.717        1641.348          36.000    23416414.648    95886355.166        1279.033          36.000  
G30  21321029.360   112042726.905        -625.989          42.000    21321035.562    87306050.543        -487.903          40.000  
G01  22027322.364   115754330.105       -2116.476          41.000    22027327.377    90198176.199       -1649.086          41.000  
G13  25691346.737   135008940.544        -760.349          28.000                                                                  
G22  23501875.904   123503214.005        2272.537          37.000                                                                  
G14  21846880.341   114806128.236        2149.386          41.000    21846884.939    89459363.013        1674.681          41.000  
G17  22300005.851   117187294.985         101.680          40.000    22300010.184    91314798.682          79.244          39.000  
G19  23584844.859   123939194.022        1453.754          35.000                                                                  
> 2025 04 27 02 32 24.0020000  0 12                     
G08  25696065.566   135033620.009       -2084.102          31.000    25696086.429   105220946.640       -1624.153          32.000  
G07  21895102.165   115059483.071       -2463.661          40.000    21895108.836    89656720.755       -1920.092          39.000  
G02  24876339.970   130725932.819       -3319.123          35.000                                                                  
G06  24334015.588   127876141.747        3525.757          33.000    24334030.759    99643842.434        2747.510          37.000  
G03  23416088.117   123052400.380        1641.252          35.000    23416102.285    95885076.198        1278.942          36.000  
G30  21321148.595   112043353.257        -626.379          42.000    21321154.800    87306538.584        -487.732          40.000  
G01  22027725.171   115756446.589       -2116.445          41.000    22027730.169    90199825.415       -1649.344          41.000  
G13  25691491.486   135009701.183        -760.881          28.000                                                                  
G22  23501443.608   123500941.869        2272.529          37.000                                                                  
G14  21846471.397   114803979.196        2149.352          40.000    21846476.091    89457688.429        1674.710          41.000  
G17  22299986.512   117187193.259         101.846          40.000    22299990.843    91314719.421          79.463          39.000  
G19  23584568.251   123937740.422        1453.302          35.000                                                                  
> 2025 04 27 02 32 25.0020000  0 12                     
G08  25696462.350   135035703.991       -2083.824          30.000    25696483.041   105222570.502       -1623.381          33.000  
G07  21895571.174   115061947.327       -2464.420          40.000    21895577.712    89658640.940       -1920.171          39.000  
G02  24876971.658   130729252.164       -3319.243          35.000                                                                  
G06  24333344.590   127872616.135        3525.220          33.000    24333359.837    99641095.207        2747.186          36.000  
G03  23415775.817   123050759.452        1640.507          35.000    23415790.087    95883797.532        1278.524          36.000  
G30  21321267.895   112043980.229        -627.258          42.000    21321274.037    87307027.140        -488.776          40.000  
G01  22028128.024   115758563.564       -2117.297          41.000    22028132.946    90201474.998       -1649.979          41.000  
G13  25691636.370   135010462.115        -761.421          28.000                                                                  
G22  23501011.159   123498669.742        2271.869          37.000                                                                  
G14  21846062.469   114801830.338        2148.262          40.000    21846067.135    89456013.987        1674.365          42.000  
G17  22299967.074   117187091.688         101.356          40.000    22299971.491    91314640.279          78.618          39.000  
G19  23584291.609   123936286.958        1453.175          35.000                                                                  
> 2025 04 27 02 32 26.0020000  0 12                     
G08  25696858.976   135037787.867       -2084.150          31.000    25696879.607   105224194.291       -1624.031          33.000  
G07  21896040.213   115064412.027       -2465.348          40.000    21896046.714    89660561.466       -1920.750          39.000  
G02  24877603.226   130732571.591       -3320.054          35.000                                                                  
G06  24332673.424   127869090.712        3526.135          32.000    24332688.933    99638348.168        2746.368          36.000  
G03  23415463.671   123049118.868        1640.332          35.000    23415477.918    95882519.156        1278.256          36.000  
G30  21321387.359   112044607.822        -628.009          42.000    21321393.461    87307516.173        -489.246          40.000  
G01  22028530.889   115760680.980       -2117.552          41.000    22028535.829    90203124.944       -1650.265          41.000  
G13  25691781.475   135011223.399        -761.652          28.000                                                                  
G22  23500578.796   123496397.566        2272.003          37.000                                                                  
G14  21845653.592   114799681.585        2148.542          40.000    21845658.288    89454339.657        1673.899          42.000  
G17  22299947.744   117186990.238         101.246          40.000    22299952.176    91314561.220          78.923          39.000  
G19  23584014.969   123934833.659        1453.208          35.000                                                                  
> 2025 04 27 02 32 27.0020000  0 12                     
G08  25697255.288   135039871.662       -2084.895          31.000    25697276.175   105225817.996       -1624.486          33.000  
G07  21896509.407   115066877.146       -2465.474          40.000    21896515.915    89662482.345       -1921.410          39.000  
G02  24878234.948   130735891.060       -3319.611          35.000                                                                  
G06  24332002.538   127865565.606        3524.438          32.000    24332018.020    99635601.297        2746.552          36.000  
G03  23415151.514   123047478.605        1640.426          36.000    23415165.827    95881241.056        1277.977          36.000  
G30  21321506.910   112045236.039        -628.632          42.000    21321513.126    87308005.697        -490.027          40.000  
G01  22028933.972   115762798.884       -2118.256          41.000    22028938.846    90204775.237       -1650.515          41.000  
G13  25691926.198   135011984.996        -761.384          28.000                                                                  
G22  23500146.361   123494125.386        2272.127          37.000                                                                  
G14  21845244.722   114797533.014        2148.520          41.000    21845249.375    89452665.427        1674.146          42.000  
G17  22299928.385   117186888.939         101.035          40.000    22299932.926    91314482.274          78.926          39.000  
G19  23583738.399   123933380.528        1452.803          35.000                                                                  
> 2025 04 27 02 32 28.0020000  0 12                     
G08  25697651.632   135041955.250       -2083.087          31.000    25697672.782   105227441.545       -1623.515          33.000  
G07  21896978.671   115069342.697       -2466.078          40.000    21896985.141    89664403.533       -1921.531          39.000  
G02  24878866.600   130739210.579       -3320.158          35.000                                                                  
G06  24331331.434   127862040.689        3524.896          32.000    24331347.296    99632854.612        2746.790          36.000  
G03  23414839.505   123045838.780        1639.772          36.000    23414853.740    95879963.262        1277.447          36.000  
G30  21321626.559   112045864.869        -629.425          42.000    21321632.897    87308495.684        -490.332          40.000  
G01  22029336.944   115764917.247       -2118.978          41.000    22029341.935    90206425.907       -1650.913          41.000  
G13  25692071.088   135012746.990        -762.327          28.000                                                                  
G22  23499713.964   123491853.198        2271.977          37.000                                                                  
G14  21844835.940   114795384.605        2148.041          40.000    21844840.581    89450991.354        1673.815          42.000  
G17  22299909.145   117186787.759         100.826          40.000    22299913.550    91314403.440          78.706          39.000  
G19  23583461.968   123931927.545        1453.034          35.000                                                                  
> 2025 04 27 02 32 29.0020000  0 12                     
G08  25698048.066   135044038.789       -2083.545          30.000    25698069.208   105229065.067       -1623.198          33.000  
G07  21897447.918   115071808.698       -2466.454          40.000    21897454.331    89666325.086       -1921.589          39.000  
G02  24879498.387   130742530.174       -3319.608          35.000                                                                  
G06  24330660.642   127858516.045        3524.469          33.000    24330676.617    99630108.139        2746.613          36.000  
G03  23414527.565   123044199.302        1639.208          36.000    23414541.653    95878685.743        1277.474          36.000  
G30  21321746.472   112046494.328        -629.834          42.000    21321752.727    87308986.166        -490.765          40.000  
G01  22029740.100   115767036.089       -2119.255          41.000    22029745.132    90208076.955       -1651.344          41.000  
G13  25692216.162   135013509.278        -762.643          28.000                                                                  
G22  23499281.513   123489580.985        2272.394          37.000                                                                  
G14  21844427.138   114793236.347        2147.886          41.000    21844431.802    89449317.376        1673.872          42.000  
G17  22299889.983   117186686.732         101.208          40.000    22299894.341    91314324.710          78.963          39.000  
G19  23583185.459   123930474.787        1452.279          35.000                                                                  
> 2025 04 27 02 32 30.0020000  0 12                     
G08  25698444.582   135046122.215       -2083.254          30.000    25698465.597   105230688.513       -1622.858          33.000  
G07  21897917.258   115074275.158       -2466.678          40.000    21897923.618    89668247.002       -1922.091          39.000  
G02  24880130.023   130745849.897       -3320.140          35.000                                                                  
G06  24329989.973   127854991.717        3524.347          32.000    24330006.026    99627361.905        2746.240          36.000  
G03  23414215.689   123042560.230        1638.677          35.000    23414229.806    95877408.576        1276.557          36.000  
G30  21321866.337   112047124.458        -630.530          42.000    21321872.682    87309477.170        -491.254          40.000  
G01  22030143.414   115769155.426       -2119.746          41.000    22030148.505    90209728.393       -1651.808          41.000  
G13  25692361.219   135014271.925        -762.816          27.000                                                                  
G22  23498849.281   123487308.804        2271.918          37.000                                                                  
G14  21844018.354   114791088.293        2147.830          41.000    21844023.028    89447643.577        1673.719          42.000  
G17  22299870.804   117186585.892         100.421          40.000    22299875.198    91314246.136          78.290          39.000  
G19  23582909.049   123929022.153        1452.611          35.000                                                                  
> 2025 04 27 02 32 31.0020000  0 12                     
G08  25698840.925   135048205.526       -2082.768          31.000    25698861.999   105232311.863       -1622.870          32.000  
G07  21898386.764   115076742.069       -2467.385          40.000    21898393.145    89670169.260       -1922.496          39.000  
G02  24880761.734   130749169.651       -3320.098          35.000                                                                  
G06  24329319.242   127851467.616        3523.291          32.000    24329335.374    99624615.872        2745.471          37.000  
G03  23413903.842   123040921.529        1638.702          35.000    23413917.991    95876131.649        1276.767          36.000  
G30  21321986.355   112047755.194        -631.152          42.000    21321992.666    87309968.665        -491.705          40.000  
G01  22030546.823   115771275.242       -2120.270          41.000    22030551.906    90211380.177       -1652.001          41.000  
G13  25692506.584   135015034.926        -763.206          27.000                                                                  
G22  23498416.820   123485036.592        2272.016          37.000                                                                  
G14  21843609.691   114788940.392        2147.799          41.000    21843614.288    89445969.885        1673.608          42.000  
G17  22299851.639   117186485.176         100.363          40.000    22299856.103    91314167.640          78.359          39.000  
G19  23582632.660   123927569.712        1452.418          35.000                                                                  
> 2025 04 27 02 32 32.0020000  0 12                     
G08  25699237.407   135050288.620       -2082.525          31.000    25699258.394   105233935.099       -1623.334          32.000  
G07  21898856.262   115079209.319       -2467.698          40.000    21898862.617    89672091.767       -1922.662          39.000  
G02  24881393.468   130752489.381       -3319.663          35.000                                                                  
G06  24328648.809   127847943.617        3524.530          32.000    24328664.795    99621869.917        2745.795          37.000  
G03  23413591.994   123039283.127        1637.886          35.000    23413606.136    95874854.965        1276.902          36.000  
G30  21322106.420   112048386.489        -631.750          42.000    21322112.791    87310460.564        -491.937          40.000  
G01  22030950.354   115773395.438       -2120.760          41.000    22030955.425    90213032.270       -1652.523          41.000  
G13  25692651.741   135015798.206        -763.945          27.000                                                                  
G22  23497984.415   123482764.270        2272.330          37.000                                                                  
G14  21843200.824   114786792.568        2147.769          41.000    21843205.580    89444296.266        1673.466          42.000  
G17  22299832.528   117186384.509         100.440          40.000    22299836.982    91314089.207          78.088          40.000  
G19  23582356.275   123926117.336        1452.289          36.000                                                                  
> 2025 04 27 02 32 33.0020000  0 12                     
G08  25699633.717   135052371.623       -2083.123          31.000    25699654.684   105235558.176       -1623.020          32.000  
G07  21899325.835   115081676.992       -2468.405          40.000    21899332.260    89674014.628       -1923.291          39.000  
G02  24882025.140   130755809.204       -3320.349          35.000                                                                  
G06  24327978.274   127844419.932        3523.498          32.000    24327994.223    99619124.182        2745.447          37.000  
G03  23413280.214   123037645.085        1637.407          35.000    23413294.430    95873578.569        1276.305          36.000  
G30  21322226.643   112049018.371        -632.361          42.000    21322233.068    87310952.949        -492.706          40.000  
G01  22031353.936   115775516.072       -2121.156          41.000    22031358.970    90214684.712       -1652.689          41.000  
G13  25692797.155   135016561.729        -764.134          27.000                                                                  
G22  23497551.987   123480491.935        2272.680          37.000                                                                  
G14  21842792.083   114784644.899        2147.226          41.000    21842796.930    89442622.733        1673.532          42.000  
G17  22299813.311   117186283.947         100.390          40.000    22299817.887    91314010.854          78.200          39.000  
G19  23582079.810   123924665.135        1451.508          35.000                                                                  
> 2025 04 27 02 32 34.0020000  0 12                     
G08  25700030.102   135054454.521       -2083.193          31.000    25700051.068   105237181.227       -1623.136          32.000  
G07  21899795.452   115084145.103       -2468.300          40.000    21899802.082    89675937.827       -1923.285          39.000  
G02  24882656.939   130759129.055       -3319.522          35.000                                                                  
G06  24327307.711   127840896.507        3522.980          33.000    24327323.770    99616378.661        2744.910          37.000  
G03  23412968.585   123036007.390        1637.848          35.000    23412982.889    95872302.452        1276.245          36.000  
G30  21322347.079   112049650.912        -632.672          42.000    21322353.455    87311445.831        -492.877          40.000  
G01  22031757.570   115777637.197       -2121.113          41.000    22031762.537    90216337.560       -1653.263          41.000  
G13  25692942.677   135017325.688        -764.234          28.000                                                                  
G22  23497119.664   123478219.642        2272.280          37.000                                                                  
G14  21842383.437   114782497.404        2147.480          40.000    21842388.222    89440949.373        1673.115          42.000  
G17  22299794.114   117186183.557         100.648          40.000    22299798.821    91313932.617          78.336          39.000  
G19  23581803.503   123923213.109        1451.691          35.000                                                                  
> 2025 04 27 02 32 35.0020000  0 12                     
G08  25700426.525   135056537.347       -2082.264          31.000    25700447.396   105238804.154       -1622.437          33.000  
G07  21900265.155   115086613.737       -2468.805          39.000    21900271.870    89677861.441       -1923.901          39.000  
G02  24883288.663   130762449.078       -3319.803          35.000                                                                  
G06  24326637.173   127837373.365        3522.949          33.000    24326653.345    99613633.362        2745.056          37.000  
G03  23412657.010   123034370.183        1637.112          36.000    23412671.391    95871026.702        1275.763          36.000  
G30  21322467.614   112050284.143        -633.630          42.000    21322473.954    87311939.263        -493.976          40.000  
G01  22032161.357   115779758.881       -2122.084          41.000    22032166.207    90217990.798       -1653.527          41.000  
G13  25693088.086   135018090.003        -764.781          28.000                                                                  
G22  23496687.485   123475947.363        2272.217          37.000                                                                  
G14  21841974.834   114780350.128        2147.075          40.000    21841979.575    89439276.173        1673.032          42.000  
G17  22299775.130   117186083.375         100.133          40.000    22299779.728    91313854.561          77.940          39.000  
G19  23581527.292   123921761.306        1451.460          35.000                                                                  
> 2025 04 27 02 32 36.0020000  0 12                     
G08  25700823.052   135058620.125       -2082.108          31.000    25700843.760   105240427.115       -1622.610          33.000  
G07  21900734.938   115089082.846       -2469.336          40.000    21900741.712    89679785.406       -1923.893          39.000  
G02  24883920.610   130765769.186       -3319.707          36.000                                                                  
G06  24325966.916   127833850.518        3522.931          33.000    24325982.972    99610888.302        2744.989          37.000  
G03  23412345.572   123032733.393        1636.353          35.000    23412359.934    95869751.272        1275.343          36.000  
G30  21322588.246   112050918.047        -634.497          42.000    21322594.522    87312433.212        -494.543          40.000  
G01  22032565.145   115781881.065       -2122.535          41.000    22032569.980    90219644.428       -1653.527          41.000  
G13  25693233.807   135018854.655        -764.825          28.000                                                                  
G22  23496254.981   123473675.108        2272.285          37.000                                                                  
G14  21841566.261   114778203.057        2147.022          40.000    21841571.078    89437603.130        1672.913          42.000  
G17  22299756.166   117185983.405          99.192          40.000    22299760.796    91313776.639          77.927          39.000  
G19  23581251.095   123920309.696        1451.661          35.000                                                                  
> 2025 04 27 02 32 37.0020000  0 12                     
G08  25701219.296   135060702.786       -2082.525          31.000    25701240.022   105242049.933       -1622.678          33.000  
G07  21901204.858   115091552.362       -2469.764          39.000    21901211.691    89681709.690       -1924.408          39.000  
G02  24884552.704   130769089.390       -3320.725          36.000                                                                  
G06  24325296.553   127830327.900        3522.455          33.000    24325312.676    99608143.402        2745.081          37.000  
G03  23412034.300   123031096.929        1635.775          36.000    23412048.471    95868476.121        1274.585          35.000  
G30  21322708.986   112051552.518        -635.040          42.000    21322715.311    87312927.599        -494.592          40.000  
G01  22032969.130   115784003.688       -2122.841          41.000    22032973.894    90221298.429       -1654.244          41.000  
G13  25693379.317   135019619.682        -765.100          28.000                                                                  
G22  23495822.666   123471402.829        2272.246          37.000                                                                  
G14  21841157.727   114776056.130        2146.792          40.000    21841162.452    89435930.202        1672.807          42.000  
G17  22299737.126   117185883.501          99.943          40.000    22299741.872    91313698.807          77.615          39.000  
G19  23580974.921   123918858.259        1450.879          35.000                                                                  
> 2025 04 27 02 32 38.0020000  0 12                     
G08  25701615.477   135062785.213       -2082.254          31.000    25701636.278   105243672.551       -1622.160          33.000  
G07  21901674.843   115094022.236       -2470.044          40.000    21901681.705    89683634.254       -1924.530          39.000  
G02  24885184.418   130772409.513       -3320.563          36.000                                                                  
G06  24324626.244   127826805.464        3522.406          33.000    24324642.380    99605398.647        2744.983          37.000  
G03  23411722.913   123029460.718        1636.238          36.000    23411737.192    95867201.179        1274.788          35.000  
G30  21322829.849   112052187.547        -635.181          42.000    21322836.215    87313422.425        -495.038          40.000  
G01  22033373.226   115786126.692       -2123.208          41.000    22033377.898    90222952.720       -1654.431          40.000  
G13  25693524.953   135020384.960        -765.503          29.000                                                                  
G22  23495390.278   123469130.445        2272.343          37.000                                                                  
G14  21840749.120   114773909.264        2146.732          40.000    21840753.949    89434257.322        1672.772          42.000  
G17  22299718.125   117185783.637         100.338          40.000    22299722.792    91313621.013          77.800          39.000  
G19  23580698.643   123917406.835        1451.726          35.000                                                                  
> 2025 04 27 02 32 39.0020000  0 12                     
G08  25702011.741   135064867.443       -2080.860          31.000    25702032.587   105245295.154       -1622.748          33.000  
G07  21902144.907   115096492.521       -2470.642          40.000    21902151.811    89685559.152       -1924.889          39.000  
G02  24885816.233   130775729.676       -3320.206          36.000                                                                  
G06  24323955.845   127823283.212        3522.784          33.000    24323972.123    99602654.073        2744.373          36.000  
G03  23411411.617   123027824.871        1636.012          36.000    23411425.923    95865926.492        1274.669          35.000  
G30  21322950.843   112052823.173        -635.626          42.000    21322957.174    87313917.703        -495.227          40.000  
G01  22033777.264   115788250.140       -2123.406          41.000    22033781.963    90224607.367       -1654.783          41.000  
G13  25693670.764   135021150.493        -765.820          29.000                                                                  
G22  23494957.877   123466858.012        2272.500          37.000                                                                  
G14  21840340.640   114771762.546        2146.705          41.000    21840345.535    89432584.543        1672.847          42.000  
G17  22299699.072   117185683.955          99.452          40.000    22299703.774    91313543.302          77.858          39.000  
G19  23580422.518   123915955.616        1451.267          35.000                                                                  
> 2025 04 27 02 32 40.0020000  0 12                     
G08  25702407.988   135066949.634       -2083.575          32.000    25702428.762   105246917.514       -1622.520          33.000  
G07  21902615.057   115098963.177       -2471.377          40.000    21902621.928    89687484.306       -1925.410          39.000  
G02  24886448.058   130779049.862       -3320.477          36.000                                                                  
G06  24323285.510   127819761.196        3521.851          33.000    24323301.814    99599909.616        2743.976          36.000  
G03  23411100.393   123026189.370        1635.021          36.000    23411114.660    95864652.065        1274.020          35.000  
G30  21323071.906   112053459.353        -636.774          42.000    21323078.227    87314413.437        -496.222          40.000  
G01  22034181.380   115790374.001       -2124.225          41.000    22034186.054    90226262.310       -1655.596          41.000  
G13  25693816.653   135021916.334        -766.227          30.000                                                                  
G22  23494525.475   123464585.495        2272.505          37.000                                                                  
G14  21839932.212   114769615.925        2146.173          41.000    21839936.890    89430911.840        1672.484          42.000  
G17  22299680.124   117185584.299          99.205          40.000    22299684.774    91313465.641          77.872          39.000  
G19  23580146.228   123914504.463        1451.195          34.000                                                                  
> 2025 04 27 02 32 41.0020000  0 12                     
G08  25702804.073   135069031.560       -2081.144          31.000    25702825.072   105248539.902       -1622.678          33.000  
G07  21903085.437   115101434.263       -2471.359          40.000    21903092.146    89689409.850       -1925.577          39.000  
G02  24887079.875   130782370.130       -3320.505          35.000                                                                  
G06  24322615.518   127816239.431        3521.326          33.000    24322631.668    99597165.371        2743.933          36.000  
G03  23410789.199   123024554.208        1634.963          36.000    23410803.508    95863377.940        1273.670          35.000  
G30  21323193.093   112054096.166        -636.938          42.000    21323199.340    87314909.651        -496.484          40.000  
G01  22034585.564   115792498.321       -2124.658          41.000    22034590.400    90227917.616       -1655.458          41.000  
G13  25693962.346   135022682.476        -766.354          30.000                                                                  
G22  23494093.088   123462312.970        2272.781          37.000                                                                  
G14  21839523.718   114767469.456        2146.471          41.000    21839528.594    89429239.279        1672.373          42.000  
G17  22299661.272   117185484.776          99.804          40.000    22299665.777    91313388.140          77.265          39.000  
G19  23579870.097   123913053.499        1450.117          34.000                                                                  
> 2025 04 27 02 32 42.0020000  0 12                     
G08  25703200.162   135071113.445       -2081.105          31.000    25703221.147   105250162.101       -1622.456          33.000  
G07  21903555.708   115103905.789       -2471.713          40.000    21903562.482    89691335.721       -1926.057          39.000  
G02  24887711.630   130785690.419       -3319.860          35.000                                                                  
G06  24321945.501   127812717.882        3521.478          33.000    24321961.564    99594421.330        2743.719          36.000  
G03  23410478.239   123022919.435        1634.975          36.000    23410492.408    95862104.093        1273.516          35.000  
G30  21323314.330   112054733.623        -638.043          42.000    21323320.685    87315406.360        -497.107          40.000  
G01  22034989.835   115794623.143       -2125.214          41.000    22034994.759    90229573.310       -1655.848          41.000  
G13  25694108.369   135023448.994        -766.960          30.000                                                                  
G22  23493660.611   123460040.469        2272.231          37.000                                                                  
G14  21839115.331   114765323.178        2145.890          40.000    21839120.164    89427566.843        1672.360          42.000  
G17  22299642.373   117185385.446          99.139          40.000    22299646.843    91313310.714          77.124          39.000  
G19  23579594.055   123911602.689        1450.729          34.000                                                                  
> 2025 04 27 02 32 43.0020000  0 12                     
G08  25703596.229   135073195.291       -2082.255          32.000    25703617.316   105251784.257       -1622.138          33.000  
G07  21904026.188   115106377.776       -2472.135          40.000    21904032.831    89693261.952       -1926.743          39.000  
G02  24888343.539   130789010.871       -3320.931          35.000                                                                  
G06  24321275.381   127809196.634        3521.063          33.000    24321291.598    99591677.496        2743.616          36.000  
G03  23410167.274   123021285.066        1634.167          36.000    23410181.396    95860830.546        1273.367          35.000  
G30  21323435.830   112055371.708        -638.367          42.000    21323442.155    87315903.564        -497.278          40.000  
G01  22035394.318   115796748.424       -2125.585          41.000    22035399.310    90231229.375       -1656.179          41.000  
G13  25694254.319   135024215.815        -766.729          30.000                                                                  
G22  23493228.201   123457767.928        2272.640          37.000                                                                  
G14  21838706.956   114763177.058        2146.073          40.000    21838711.808    89425894.548        1672.361          42.000  
G17  22299623.452   117185286.242          99.019          40.000    22299628.029    91313233.405          77.214          39.000  
G19  23579318.050   123910152.051        1450.628          34.000                                                                  
> 2025 04 27 02 32 44.0020000  0 12                     
G08  25703992.268   135075276.952       -2080.971          32.000    25704013.435   105253406.343       -1621.987          33.000  
G07  21904496.619   115108850.237       -2472.827          40.000    21904503.285    89695188.505       -1926.750          39.000  
G02  24888975.555   130792331.373       -3320.987          35.000                                                                  
G06  24320605.684   127805675.661        3520.654          33.000    24320621.592    99588933.882        2743.091          36.000  
G03  23409856.279   123019651.076        1633.981          36.000    23409870.418    95859557.335        1273.029          35.000  
G30  21323557.320   112056010.442        -639.240          42.000    21323563.685    87316401.280        -498.169          40.000  
G01  22035798.876   115798874.212       -2125.999          41.000    22035803.861    90232885.824       -1656.617          41.000  
G13  25694400.241   135024983.022        -767.236          31.000                                                                  
G22  23492795.777   123455495.444        2272.267          37.000                                                                  
G14  21838298.702   114761031.117        2146.090          40.000    21838303.440    89424222.419        1671.676          42.000  
G17  22299604.716   117185187.204          98.969          40.000    22299609.200    91313156.251          76.694          39.000  
G19  23579042.151   123908701.638        1449.642          34.000                                                                  
> 2025 04 27 02 32 45.0020000  0 12                     
G08  25704388.560   135077358.475       -2081.775          32.000    25704409.557   105255028.261       -1621.640          33.000  
G07  21904967.098   115111323.007       -2472.948          40.000    21904973.876    89697115.330       -1926.954          39.000  
G02  24889607.315   130795651.800       -3320.664          35.000                                                                  
G06  24319935.950   127802154.796        3520.825          33.000    24319951.572    99586190.344        2743.756          36.000  
G03  23409545.385   123018017.363        1634.184          36.000    23409559.559    95858284.320        1272.556          35.000  
G30  21323679.057   112056649.674        -639.557          42.000    21323685.407    87316899.386        -498.505          40.000  
G01  22036203.514   115801000.346       -2126.257          41.000    22036208.444    90234542.561       -1657.062          41.000  
G13  25694546.418   135025750.453        -767.721          31.000                                                                  
G22  23492363.288   123453222.788        2272.766          37.000                                                                  
G14  21837890.364   114758885.271        2145.471          40.000    21837895.133    89422550.307        1671.867          42.000  
G17  22299585.855   117185088.178          99.095          40.000    22299590.259    91313079.078          77.063          39.000  
G19  23578766.084   123907251.255        1450.436          34.000                                                                  
> 2025 04 27 02 32 46.0020000  0 12                     
G08  25704784.677   135079439.975       -2081.513          32.000    25704805.630   105256650.219       -1621.412          34.000  
G07  21905437.824   115113796.387       -2473.490          40.000    21905444.535    89699042.646       -1927.642          39.000  
G02  24890239.358   130798972.461       -3320.564          35.000                                                                  
G06  24319266.002   127798634.368        3520.581          33.000    24319281.657    99583447.183        2742.761          36.000  
G03  23409234.562   123016384.206        1632.778          36.000    23409248.762    95857011.668        1272.835          35.000  
G30  21323800.836   112057289.706        -640.088          42.000    21323807.154    87317398.115        -498.901          40.000  
G01  22036608.236   115803127.123       -2126.941          41.000    22036613.086    90236199.783       -1657.234          41.000  
G13  25694692.596   135026518.392        -767.849          31.000                                                                  
G22  23491930.752   123450950.326        2272.139          37.000                                                                  
G14  21837482.047   114756739.696        2145.690          40.000    21837486.848    89420878.446        1671.767          42.000  
G17  22299566.974   117184989.489          98.926          40.000    22299571.402    91313002.151          77.051          39.000  
G19  23578490.105   123905801.197        1449.956          34.000                                                                  
> 2025 04 27 02 32 47.0020000  0 12                     
G08  25705180.898   135081521.314       -2080.397          32.000    25705201.680   105258272.038       -1620.743          33.000  
G07  21905908.631   115116270.196       -2474.128          40.000    21905915.285    89700970.265       -1927.953          39.000  
G02  24890871.259   130802293.192       -3320.875          35.000                                                                  
G06  24318595.931   127795114.160        3520.465          33.000    24318611.832    99580704.173        2742.877          37.000  
G03  23408923.714   123014751.376        1632.832          36.000    23408938.003    95855739.348        1272.861          35.000  
G30  21323922.713   112057930.349        -641.046          42.000    21323928.941    87317897.313        -499.677          40.000  
G01  22037013.083   115805254.358       -2127.572          41.000    22037017.874    90237857.362       -1657.880          41.000  
G13  25694838.884   135027286.600        -767.997          30.000                                                                  
G22  23491498.300   123448677.804        2272.469          37.000                                                                  
G14  21837073.667   114754594.304        2145.323          40.000    21837078.516    89419206.707        1671.357          42.000  
G17  22299548.207   117184890.930          98.094          40.000    22299552.670    91312925.366          76.362          39.000  
G19  23578214.126   123904351.298        1450.224          35.000                                                                  
> 2025 04 27 02 32 48.0020000  0 12                     
G08  25705576.659   135083602.576       -2081.476          32.000    25705597.815   105259893.816       -1621.820          33.000  
G07  21906379.593   115118744.376       -2474.187          40.000    21906386.202    89702898.199       -1927.928          39.000  
G02  24891503.155   130805613.898       -3320.229          35.000                                                                  
G06  24317925.987   127791594.200        3519.885          33.000    24317941.942    99577961.331        2742.590          37.000  
G03  23408613.124   123013118.868        1632.577          36.000    23408627.357    95854467.311        1271.700          36.000  
G30  21324044.757   112058571.569        -641.565          42.000    21324050.931    87318396.942        -499.591          40.000  
G01  22037418.017   115807382.003       -2127.963          41.000    22037422.853    90239515.279       -1658.409          41.000  
G13  25694985.017   135028055.143        -768.347          30.000                                                                  
G22  23491065.829   123446405.259        2272.310          37.000                                                                  
G14  21836665.443   114752449.012        2145.224          40.000    21836670.315    89417535.041        1671.634          42.000  
G17  22299529.482   117184792.418          98.423          40.000    22299534.022    91312848.606          76.478          39.000  
G19  23577938.238   123902901.524        1449.715          35.000                                                                  
> 2025 04 27 02 32 49.0020000  0 12                     
G08  25705972.671   135085683.682       -2081.076          32.000    25705993.847   105261515.444       -1622.163          33.000  
G07  21906850.630   115121218.998       -2474.899          40.000    21906857.098    89704826.455       -1928.503          39.000  
G02  24892135.096   130808934.693       -3320.530          35.000                                                                  
G06  24317256.226   127788074.430        3519.598          33.000    24317272.198    99575218.657        2742.578          36.000  
G03  23408302.442   123011486.738        1631.688          35.000    23408316.774    95853195.506        1271.301          36.000  
G30  21324166.849   112059213.390        -642.212          42.000    21324173.090    87318897.066        -500.409          40.000  
G01  22037822.974   115809510.094       -2128.370          41.000    22037827.847    90241173.529       -1658.616          41.000  
G13  25695131.410   135028824.013        -769.022          30.000                                                                  
G22  23490633.274   123444132.637        2272.733          37.000                                                                  
G14  21836257.203   114750303.875        2145.032          40.000    21836262.104    89415863.491        1671.554          42.000  
G17  22299510.821   117184694.027          98.716          40.000    22299515.301    91312771.931          76.861          39.000  
G19  23577662.361   123901451.894        1449.394          35.000                                                                  
> 2025 04 27 02 32 50.0020000  0 12                     
G08  25706368.595   135087764.543       -2080.039          32.000    25706389.750   105263136.862       -1621.093          33.000  
G07  21907321.680   115123693.920       -2474.833          40.000    21907328.043    89706754.973       -1928.483          39.000  
G02  24892767.099   130812255.441       -3320.664          36.000                                                                  
G06  24316586.341   127784554.848        3519.568          33.000    24316602.338    99572476.123        2742.120          36.000  
G03  23407991.868   123009854.880        1631.684          35.000    23408006.307    95851923.914        1271.784          35.000  
G30  21324289.031   112059855.727        -642.572          42.000    21324295.333    87319397.594        -500.726          40.000  
G01  22038228.119   115811638.564       -2128.536          41.000    22038232.906    90242832.073       -1659.015          41.000  
G13  25695277.700   135029593.110        -769.704          30.000                                                                  
G22  23490200.825   123441859.954        2272.432          37.000                                                                  
G14  21835849.018   114748158.773        2145.263          40.000    21835854.016    89414192.012        1671.256          42.000  
G17  22299492.027   117184595.725          98.101          40.000    22299496.578    91312695.314          76.640          39.000  
G19  23577386.605   123900002.337        1449.652          35.000                                                                  
> 2025 04 27 02 32 51.0020000  0 12                     
G08  25706764.491   135089845.346       -2080.509          32.000    25706785.784   105264758.287       -1621.677          33.000  
G07  21907792.809   115126169.376       -2476.045          40.000    21907799.008    89708683.874       -1929.205          39.000  
G02  24893399.083   130815576.294       -3321.133          36.000                                                                  
G06  24315916.454   127781035.529        3519.080          33.000    24315932.560    99569733.788        2742.188          36.000  
G03  23407681.424   123008223.435        1631.260          36.000    23407695.786    95850652.671        1271.007          35.000  
G30  21324411.441   112060498.751        -643.726          42.000    21324417.757    87319898.640        -501.501          40.000  
G01  22038633.189   115813767.546       -2129.407          41.000    22038638.009    90244491.005       -1659.390          41.000  
G13  25695424.177   135030362.505        -768.933          30.000                                                                  
G22  23489768.355   123439587.279        2272.448          37.000                                                                  
G14  21835440.888   114746013.915        2144.432          40.000    21835445.929    89412520.688        1670.819          42.000  
G17  22299473.338   117184497.569          97.797          40.000    22299477.920    91312618.834          76.333          39.000  
G19  23577110.722   123898552.976        1449.230          35.000                                                                  
> 2025 04 27 02 32 52.0020000  0 12                     
G08  25707160.558   135091926.077       -2080.377          32.000    25707181.703   105266379.631       -1620.889          33.000  
G07  21908263.944   115128645.285       -2476.173          40.000    21908270.090    89710613.167       -1929.646          39.000  
G02  24894031.114   130818897.264       -3321.214          36.000                                                                  
G06  24315246.889   127777516.497        3519.202          33.000    24315262.913    99566991.697        2742.389          36.000  
G03  23407371.017   123006592.405        1630.716          36.000    23407385.371    95849381.723        1271.160          35.000  
G30  21324534.020   112061142.428        -644.055          42.000    21324540.271    87320400.209        -501.709          40.000  
G01  22039038.429   115815897.040       -2129.717          41.000    22039043.115    90246150.350       -1659.572          41.000  
G13  25695570.699   135031132.447        -770.913          30.000                                                                  
G22  23489335.762   123437314.646        2272.566          37.000                                                                  
G14  21835032.683   114743869.246        2144.539          40.000    21835037.887    89410849.518        1670.783          42.000  
G17  22299454.755   117184399.605          97.950          40.000    22299459.259    91312542.500          76.325          39.000  
G19  23576834.857   123897103.849        1449.539          35.000                                                                  
> 2025 04 27 02 32 53.0020000  0 12                     
G08  25707556.408   135094006.688       -2081.022          32.000    25707577.674   105268000.815       -1620.495          33.000  
G07  21908735.165   115131121.568       -2476.322          40.000    21908741.294    89712542.732       -1929.915          39.000  
G02  24894663.101   130822218.239       -3320.961          36.000                                                                  
G06  24314577.294   127773997.689        3519.067          33.000    24314593.226    99564249.768        2741.919          36.000  
G03  23407060.695   123004961.699        1630.619          36.000    23407075.050    95848111.065        1270.793          35.000  
G30  21324656.582   112061786.668        -644.342          42.000    21324662.834    87320902.207        -502.026          40.000  
G01  22039443.767   115818026.949       -2130.044          41.000    22039448.449    90247810.015       -1659.763          41.000  
G13  25695717.298   135031902.539        -770.167          30.000                                                                  
G22  23488903.277   123435041.932        2272.975          37.000                                                                  
G14  21834624.581   114741724.673        2144.754          40.000    21834629.763    89409178.409        1671.141          42.000  
G17  22299436.180   117184301.729          97.906          40.000    22299440.665    91312466.221          76.526          39.000  
G19  23576559.160   123895654.813        1449.440          35.000                                                                  
> 2025 04 27 02 32 54.0020000  0 12                     
G08  25707952.450   135096087.115       -2081.075          32.000    25707973.647   105269621.936       -1621.191          33.000  
G07  21909206.518   115133598.270       -2477.206          40.000    21909212.642    89714472.601       -1930.266          39.000  
G02  24895295.064   130825539.220       -3321.187          36.000                                                                  
G06  24313907.874   127770479.087        3518.121          33.000    24313923.566    99561508.016        2741.125          36.000  
G03  23406750.538   123003331.335        1629.955          36.000    23406764.819    95846840.662        1270.376          35.000  
G30  21324779.341   112062431.501        -645.227          42.000    21324785.478    87321404.672        -502.887          40.000  
G01  22039849.157   115820157.274       -2130.803          41.000    22039853.912    90249470.014       -1660.291          41.000  
G13  25695863.711   135032672.972        -771.015          30.000                                                                  
G22  23488470.756   123432769.169        2272.550          38.000                                                                  
G14  21834216.510   114739580.222        2144.572          40.000    21834221.693    89407507.418        1670.849          42.000  
G17  22299417.555   117184203.945          97.403          40.000    22299422.007    91312390.044          75.933          39.000  
G19  23576283.463   123894205.935        1448.573          35.000                                                                  
> 2025 04 27 02 32 55.0020000  0 12                     
G08  25708348.404   135098167.367       -2080.189          32.000    25708369.582   105271242.928       -1620.946          33.000  
G07  21909677.917   115136075.362       -2477.091          40.000    21909684.031    89716402.791       -1930.098          39.000  
G02  24895926.998   130828860.279       -3321.193          36.000                                                                  
G06  24313238.347   127766960.692        3518.634          32.000    24313254.004    99558766.413        2741.339          37.000  
G03  23406440.361   123001701.326        1630.088          36.000    23406454.546    95845570.538        1269.843          35.000  
G30  21324902.142   112063076.962        -645.679          42.000    21324908.331    87321907.623        -503.223          40.000  
G01  22040254.687   115822288.088       -2131.171          41.000    22040259.402    90251130.349       -1660.319          41.000  
G13  25696010.405   135033443.659        -770.488          30.000                                                                  
G22  23488038.367   123430496.378        2272.986          37.000                                                                  
G14  21833808.591   114737435.959        2144.003          40.000    21833813.616    89405836.553        1670.810          42.000  
G17  22299398.965   117184106.310          97.194          40.000    22299403.441    91312313.956          75.990          39.000  
G19  23576007.740   123892757.187        1448.474          35.000                                                                  
> 2025 04 27 02 32 56.0020000  0 12                     
G08  25708744.404   135100247.534       -2079.649          32.000    25708765.471   105272863.808       -1621.178          33.000  
G07  21910149.363   115138552.886       -2477.870          40.000    21910155.523    89718333.331       -1930.785          39.000  
G02  24896558.969   130832181.349       -3320.701          35.000                                                                  
G06  24312568.978   127763442.531        3518.768          32.000    24312584.533    99556025.011        2741.644          37.000  
G03  23406130.287   123000071.683        1629.553          36.000    23406144.375    95844300.679        1269.524          35.000  
G30  21325025.049   112063722.986        -646.198          42.000    21325031.267    87322411.020        -503.406          40.000  
G01  22040660.227   115824419.298       -2131.276          41.000    22040665.052    90252791.040       -1660.607          41.000  
G13  25696157.109   135034214.719        -770.721          29.000                                                                  
G22  23487605.891   123428223.551        2272.894          38.000                                                                  
G14  21833400.496   114735291.792        2144.130          40.000    21833405.624    89404165.780        1670.611          42.000  
G17  22299380.253   117184008.730          97.907          40.000    22299384.879    91312237.934          75.894          39.000  
G19  23575732.019   123891308.543        1448.953          35.000                                                                  
> 2025 04 27 02 32 57.0020000  0 12                     
G08  25709140.309   135102327.487       -2080.287          32.000    25709161.220   105274484.557       -1620.983          33.000  
G07  21910620.815   115141030.756       -2478.057          40.000    21910627.099    89720264.146       -1931.263          39.000  
G02  24897190.758   130835502.451       -3321.504          35.000                                                                  
G06  24311899.277   127759924.611        3516.785          32.000    24311915.044    99553283.736        2741.217          36.000  
G03  23405820.364   122998442.322        1629.119          36.000    23405834.331    95843031.049        1269.299          35.000  
G30  21325148.127   112064369.588        -647.089          42.000    21325154.334    87322914.863        -504.120          40.000  
G01  22041065.869   115826550.926       -2131.991          41.000    22041070.702    90254452.057       -1661.063          41.000  
G13  25696304.088   135034986.046        -771.815          29.000                                                                  
G22  23487173.404   123425950.641        2272.896          38.000                                                                  
G14  21832992.578   114733147.724        2143.906          40.000    21832997.631    89402495.079        1670.523          42.000  
G17  22299361.701   117183911.271          97.100          40.000    22299366.456    91312161.971          75.965          39.000  
G19  23575456.310   123889860.051        1448.035          35.000                                                                  
> 2025 04 27 02 32 58.0020000  0 12                     
G08  25709536.193   135104407.388       -2079.694          32.000    25709557.021   105276105.216       -1620.947          33.000  
G07  21911092.449   115143509.128       -2478.741          40.000    21911098.703    89722195.327       -1931.377          39.000  
G02  24897822.544   130838823.653       -3321.360          34.000                                                                  
G06  24311229.678   127756406.912        3517.431          32.000    24311245.641    99550542.720        2741.022          36.000  
G03  23405510.303   122996813.385        1628.700          36.000    23405524.380    95841761.762        1269.211          35.000  
G30  21325271.230   112065016.845        -647.418          42.000    21325277.565    87323419.235        -504.736          40.000  
G01  22041471.527   115828683.059       -2132.166          41.000    22041476.328    90256113.454       -1661.523          41.000  
G13  25696450.831   135035757.726        -772.188          29.000                                                                  
G22  23486740.886   123423677.760        2272.711          38.000                                                                  
G14  21832584.660   114731003.880        2143.760          40.000    21832589.684    89400824.556        1670.143          42.000  
G17  22299343.281   117183813.998          97.155          40.000    22299347.970    91312086.160          75.807          39.000  
G19  23575180.712   123888411.735        1448.105          35.000                                                                  
> 2025 04 27 02 32 59.0020000  0 12                     
G08  25709932.041   135106487.104       -2079.411          32.000    25709952.804   105277725.781       -1620.384          33.000  
G07  21911564.254   115145987.892       -2478.658          39.000    21911570.347    89724126.833       -1931.824          39.000  
G02  24898454.516   130842144.873       -3321.219          34.000                                                                  
G06  24310560.292   127752889.458        3517.468          33.000    24310576.341    99547801.832        2741.077          37.000  
G03  23405200.414   122995184.797        1628.242          36.000    23405214.512    95840492.712        1269.164          35.000  
G30  21325394.532   112065664.725        -648.309          42.000    21325400.846    87323924.057        -505.078          40.000  
G01  22041877.296   115830815.644       -2132.776          41.000    22041882.157    90257775.218       -1661.924          41.000  
G13  25696597.889   135036529.742        -772.639          28.000                                                                  
G22  23486308.334   123421404.844        2272.736          37.000                                                                  
G14  21832176.767   114728860.159        2143.789          40.000    21832181.809    89399154.111        1670.365          42.000  
G17  22299324.723   117183716.815          97.232          40.000    22299329.507    91312010.439          75.762          39.000  
G19  23574905.173   123886963.605        1447.542          35.000                                                                  
> 2025 04 27 02 33 00.0020000  0 12                     
G08  25710327.768   135108566.749       -2079.581          32.000    25710348.498   105279346.244       -1620.142          33.000  
G07  21912036.142   115148467.099       -2479.419          39.000    21912042.108    89726058.693       -1932.595          39.000  
G02  24899086.494   130845466.166       -3321.135          34.000                                                                  
G06  24309890.996   127749372.299        3516.711          33.000    24309907.026    99545061.179        2740.857          37.000  
G03  23404890.593   122993556.568        1628.099          36.000    23404904.706    95839224.011        1268.761          35.000  
G30  21325517.950   112066313.212        -648.993          42.000    21325524.241    87324429.355        -505.304          40.000  
G01  22042283.166   115832948.696       -2133.385          41.000    22042288.052    90259437.321       -1662.134          41.000  
G13  25696744.711   135037302.038        -772.710          28.000                                                                  
G22  23485875.955   123419131.887        2273.188          37.000                                                                  
G14  21831768.812   114726716.610        2143.382          40.000    21831773.903    89397483.818        1670.119          42.000  
G17  22299306.266   117183619.797          96.866          40.000    22299311.017    91311934.839          75.667          39.000  
G19  23574629.705   123885515.605        1447.133          35.000                                                                  
> 2025 04 27 02 33 01.0020000  0 12                     
G08  25710723.416   135110646.138       -2079.195          32.000    25710744.212   105280966.550       -1620.138          33.000  
G07  21912508.032   115150946.630       -2479.818          39.000    21912513.884    89727990.741       -1931.994          39.000  
G02  24899718.478   130848787.408       -3320.933          34.000                                                                  
G06  24309221.892   127745855.225        3517.297          33.000    24309237.842    99542320.647        2740.332          37.000  
G03  23404580.833   122991928.625        1627.701          36.000    23404594.935    95837955.500        1268.035          35.000  
G30  21325641.550   112066962.202        -649.463          42.000    21325647.768    87324935.072        -506.061          40.000  
G01  22042689.181   115835082.093       -2133.540          41.000    22042694.068    90261099.720       -1662.803          41.000  
G13  25696891.604   135038074.544        -772.339          28.000                                                                  
G22  23485443.381   123416858.832        2273.329          37.000                                                                  
G14  21831360.958   114724573.098        2143.449          40.000    21831365.949    89395813.544        1670.346          42.000  
G17  22299287.789   117183522.769          97.219          40.000    22299292.612    91311859.244          75.522          39.000  
G19  23574354.243   123884067.615        1448.241          35.000                                                                  
> 2025 04 27 02 33 02.0020000  0 12                     
G08  25711118.984   135112725.287       -2078.507          32.000    25711139.810   105282586.665       -1619.271          33.000  
G07  21912979.921   115153426.450       -2480.249          39.000    21912985.824    89729923.062       -1932.397          39.000  
G02  24900350.505   130852108.611       -3320.991          34.000                                                                  
G06  24308552.791   127742338.303        3516.949          33.000    24308568.505    99539580.190        2740.033          37.000  
G03  23404271.121   122990300.916        1627.638          36.000    23404285.171    95836687.111        1268.220          35.000  
G30  21325765.180   112067611.683        -649.780          42.000    21325771.404    87325441.150        -506.305          40.000  
G01  22043095.171   115837215.837       -2133.851          41.000    22043100.092    90262762.348       -1662.839          41.000  
G13  25697038.421   135038847.282        -773.085          28.000                                                                  
G22  23485010.926   123414585.650        2272.836          38.000                                                                  
G14  21830953.002   114722429.641        2143.335          40.000    21830958.142    89394143.313        1670.031          42.000  
G17  22299269.362   117183425.758          96.960          40.000    22299274.165    91311783.657          75.439          39.000  
G19  23574078.708   123882619.737        1447.370          34.000                                                                  
> 2025 04 27 02 33 03.0020000  0 12                     
G08  25711514.683   135114804.471       -2080.212          32.000    25711535.413   105284206.738       -1619.587          32.000  
G07  21913451.889   115155906.767       -2480.536          39.000    21913457.837    89731855.787       -1933.035          39.000  
G02  24900982.546   130855429.915       -3321.599          35.000                                                                  
G06  24307883.845   127738821.701        3516.162          33.000    24307899.396    99536839.968        2739.819          37.000  
G03  23403961.522   122988673.626        1627.394          36.000    23403975.550    95835419.113        1268.022          35.000  
G30  21325888.984   112068261.851        -650.690          42.000    21325895.193    87325947.761        -506.793          40.000  
G01  22043501.374   115839350.098       -2134.330          41.000    22043506.237    90264425.421       -1663.497          41.000  
G13  25697185.429   135039620.412        -773.251          28.000                                                                  
G22  23484578.313   123412312.490        2273.538          38.000                                                                  
G14  21830545.176   114720286.371        2143.541          40.000    21830550.283    89392473.232        1670.194          42.000  
G17  22299250.995   117183328.935          96.725          40.000    22299255.704    91311708.222          75.212          39.000  
G19  23573803.269   123881172.044        1447.312          35.000                                                                  
> 2025 04 27 02 33 04.0020000  0 12                     
G08  25711910.231   135116883.502       -2079.082          32.000    25711931.153   105285826.849       -1620.692          33.000  
G07  21913923.996   115158387.597       -2480.873          40.000    21913929.808    89733788.900       -1933.368          39.000  
G02  24901614.628   130858751.360       -3321.339          34.000                                                                  
G06  24307214.842   127735305.435        3515.704          33.000    24307230.338    99534100.000        2740.143          37.000  
G03  23403652.046   122987046.848        1626.379          36.000    23403665.846    95834151.477        1267.887          35.000  
G30  21326012.786   112068912.722        -651.190          42.000    21326019.084    87326454.958        -507.538          40.000  
G01  22043907.427   115841484.920       -2134.812          41.000    22043912.488    90266088.905       -1663.617          41.000  
G13  25697332.529   135040393.978        -774.060          28.000                                                                  
G22  23484145.754   123410039.428        2273.001          38.000                                                                  
G14  21830137.454   114718143.398        2142.980          40.000    21830142.515    89390803.374        1669.944          42.000  
G17  22299232.576   117183232.376          96.256          40.000    22299237.322    91311632.957          75.177          39.000  
G19  23573527.863   123879724.595        1447.389          35.000                                                                  
> 2025 04 27 02 33 05.0020000  0 12                     
G08  25712305.840   135118962.455       -2078.650          32.000    25712326.828   105287446.799       -1620.244          33.000  
G07  21914396.283   115160868.894       -2481.449          40.000    21914401.981    89735722.355       -1933.595          39.000  
G02  24902246.679   130862072.876       -3321.229          35.000                                                                  
G06  24306545.651   127731789.393        3515.948          33.000    24306561.326    99531360.275        2739.478          37.000  
G03  23403342.560   122985420.412        1626.281          37.000    23403356.344    95832884.147        1267.294          35.000  
G30  21326136.867   112069564.241        -651.910          42.000    21326143.119    87326962.608        -507.794          40.000  
G01  22044313.778   115843620.226       -2135.624          41.000    22044318.867    90267752.784       -1664.301          41.000  
G13  25697479.536   135041167.857        -773.853          28.000                                                                  
G22  23483713.197   123407766.370        2272.892          38.000                                                                  
G14  21829729.627   114716000.563        2142.779          40.000    21829734.684    89389133.645        1669.760          42.000  
G17  22299214.275   117183135.937          96.145          40.000    22299219.068    91311557.825          74.775          39.000  
G19  23573252.373   123878277.328        1447.418          34.000                                                                  
> 2025 04 27 02 33 06.0020000  0 12                     
G08  25712701.361   135121041.272       -2078.875          32.000    25712722.387   105289066.655       -1620.104          33.000  
G07  21914868.604   115163350.575       -2482.312          40.000    21914874.304    89737656.129       -1934.155          39.000  
G02  24902878.783   130865394.458       -3322.435          35.000                                                                  
G06  24305876.619   127728273.581        3515.863          33.000    24305892.381    99528620.665        2739.764          37.000  
G03  23403033.165   122983794.315        1626.212          36.000    23403046.960    95831617.060        1266.603          35.000  
G30  21326260.986   112070216.324        -652.679          42.000    21326267.226    87327470.720        -508.289          40.000  
G01  22044720.170   115845755.929       -2136.064          41.000    22044725.166    90269416.959       -1664.446          41.000  
G13  25697626.988   135041942.083        -774.608          28.000                                                                  
G22  23483280.704   123405493.241        2272.781          38.000                                                                  
G14  21829321.831   114713857.860        2142.493          40.000    21829326.799    89387463.995        1669.595          42.000  
G17  22299196.065   117183039.584          96.143          40.000    22299200.707    91311482.744          74.661          39.000  
G19  23572977.063   123876830.210        1446.594          35.000                                                                  
> 2025 04 27 02 33 07.0020000  0 12                     
G08  25713096.988   135123120.030       -2078.726          32.000    25713118.075   105290686.453       -1619.742          33.000  
G07  21915341.009   115165832.764       -2482.543          40.000    21915346.652    89739590.294       -1934.303          39.000  
G02  24903511.046   130868716.143       -3321.925          35.000                                                                  
G06  24305207.623   127724758.107        3515.796          34.000    24305223.371    99525881.368        2739.111          37.000  
G03  23402723.919   122982168.702        1625.189          36.000    23402737.609    95830350.345        1266.714          35.000  
G30  21326385.177   112070869.101        -653.046          42.000    21326391.482    87327979.386        -508.905          40.000  
G01  22045126.716   115847892.212       -2136.958          41.000    22045131.745    90271081.597       -1664.949          41.000  
G13  25697774.571   135042716.661        -774.913          28.000                                                                  
G22  23482848.152   123403220.170        2273.185          37.000                                                                  
G14  21828914.191   114711715.400        2142.299          40.000    21828919.191    89385794.557        1669.313          42.000  
G17  22299177.723   117182943.489          95.985          40.000    22299182.367    91311407.831          74.952          39.000  
G19  23572701.822   123875383.313        1446.534          35.000                                                                  
> 2025 04 27 02 33 08.0020000  0 12                     
G08  25713492.700   135125198.639       -2078.409          32.000    25713513.587   105292306.114       -1619.631          33.000  
G07  21915813.439   115168315.295       -2482.959          40.000    21915819.113    89741524.739       -1934.689          39.000  
G02  24904143.200   130872037.781       -3321.610          35.000                                                                  
G06  24304538.811   127721242.806        3515.076          33.000    24304554.405    99523142.148        2739.368          37.000  
G03  23402414.689   122980543.364        1624.803          36.000    23402428.365    95829083.813        1266.940          35.000  
G30  21326509.546   112071522.427        -653.540          42.000    21326515.815    87328488.471        -509.369          40.000  
G01  22045533.404   115850028.840       -2136.899          41.000    22045538.333    90272746.505       -1665.169          41.000  
G13  25697921.927   135043491.530        -775.278          28.000                                                                  
G22  23482415.597   123400947.037        2272.767          37.000                                                                  
G14  21828506.558   114709573.003        2142.289          40.000    21828511.559    89384125.159        1669.367          42.000  
G17  22299159.449   117182847.402          96.180          40.000    22299164.037    91311332.976          74.792          40.000  
G19  23572426.499   123873936.452        1447.039          35.000                                                                  
> 2025 04 27 02 33 09.0020000  0 12                     
G08  25713888.092   135127276.945       -2077.918          32.000    25713909.138   105293925.571       -1619.788          33.000  
G07  21916285.836   115170798.154       -2483.529          39.000    21916291.682    89743459.416       -1935.175          39.000  
G02  24904775.328   130875359.408       -3322.144          35.000                                                                  
G06  24303869.860   127717727.614        3514.996          33.000    24303885.426    99520403.041        2739.069          36.000  
G03  23402105.385   122978918.245        1624.831          36.000    23402119.121    95827817.510        1266.576          35.000  
G30  21326633.944   112072176.241        -654.218          42.000    21326640.247    87328997.926        -509.882          40.000  
G01  22045940.082   115852165.824       -2137.490          41.000    22045945.005    90274411.681       -1665.382          41.000  
G13  25698069.395   135044266.530        -774.782          28.000                                                                  
G22  23481983.065   123398673.718        2273.346          37.000                                                                  
G14  21828098.868   114707430.642        2142.400          41.000    21828103.846    89382455.792        1669.187          42.000  
G17  22299141.075   117182751.345          95.762          40.000    22299145.788    91311258.130          74.382          39.000  
G19  23572151.204   123872489.676        1447.112          35.000                                                                  
> 2025 04 27 02 33 10.0020000  0 12                     
G08  25714283.446   135129355.183       -2078.615          31.000    25714304.647   105295544.926       -1619.585          33.000  
G07  21916758.403   115173281.373       -2483.354          40.000    21916764.248    89745394.384       -1934.952          39.000  
G02  24905407.385   130878681.026       -3321.963          35.000                                                                  
G06  24303200.830   127714212.655        3514.514          33.000    24303216.596    99517664.118        2738.531          36.000  
G03  23401796.122   122977293.479        1624.890          36.000    23401809.914    95826551.476        1265.758          35.000  
G30  21326758.524   112072830.645        -654.572          42.000    21326764.849    87329507.843        -509.882          40.000  
G01  22046346.777   115854303.231       -2137.775          41.000    22046351.687    90276077.200       -1665.908          41.000  
G13  25698216.918   135045041.885        -774.972          28.000                                                                  
G22  23481550.489   123396400.376        2273.233          37.000                                                                  
G14  21827691.230   114705288.434        2142.079          41.000    21827696.115    89380786.523        1669.366          42.000  
G17  22299122.880   117182655.392          95.620          40.000    22299127.489    91311183.344          74.610          40.000  
G19  23571875.935   123871043.032        1446.278          35.000                                                                  
> 2025 04 27 02 33 11.0020000  0 12                     
G08  25714678.767   135131433.118       -2078.394          31.000    25714700.065   105297164.096       -1619.017          32.000  
G07  21917230.998   115175764.966       -2484.382          40.000    21917236.960    89747329.650       -1936.022          39.000  
G02  24906039.548   130882002.581       -3321.591          35.000                                                                  
G06  24302531.884   127710697.831        3514.716          33.000    24302547.714    99514925.308        2738.269          37.000  
G03  23401486.783   122975669.010        1624.108          36.000    23401500.772    95825285.657        1265.708          35.000  
G30  21326883.195   112073485.573        -655.188          42.000    21326889.572    87330018.190        -510.730          40.000  
G01  22046753.485   115856441.001       -2138.036          41.000    22046758.556    90277742.995       -1666.200          41.000  
G13  25698364.518   135045817.458        -775.252          28.000                                                                  
G22  23481117.802   123394126.903        2273.290          37.000                                                                  
G14  21827283.660   114703146.264        2142.185          41.000    21827288.400    89379117.300        1669.127          42.000  
G17  22299104.649   117182559.462          95.731          40.000    22299109.151    91311108.594          74.655          39.000  
G19  23571600.624   123869596.439        1446.732          35.000                                                                  
> 2025 04 27 02 33 12.0020000  0 12                     
G08  25715074.170   135133511.030       -2078.115          31.000    25715095.586   105298783.208       -1618.699          32.000  
G07  21917703.731   115178249.009       -2484.387          40.000    21917709.549    89749265.252       -1935.997          39.000  
G02  24906671.626   130885324.288       -3321.732          36.000                                                                  
G06  24301862.988   127707183.280        3515.015          33.000    24301878.920    99512186.708        2738.574          37.000  
G03  23401177.634   122974044.959        1623.791          36.000    23401191.676    95824020.175        1265.371          35.000  
G30  21327007.874   112074141.174        -655.664          42.000    21327014.237    87330529.039        -510.913          40.000  
G01  22047160.416   115858579.302       -2138.341          41.000    22047165.510    90279409.179       -1666.274          41.000  
G13  25698512.220   135046593.476        -776.251          28.000                                                                  
G22  23480685.151   123391853.499        2273.390          37.000                                                                  
G14  21826876.132   114701004.324        2141.771          41.000    21826880.807    89377448.257        1669.165          42.000  
G17  22299086.481   117182463.715          95.657          40.000    22299090.931    91311033.998          74.387          39.000  
G19  23571325.252   123868150.056        1446.522          35.000                                                                  
> 2025 04 27 02 33 13.0020000  0 12                     
G08  25715469.360   135135588.744       -2077.045          31.000    25715491.002   105300402.259       -1618.953          32.000  
G07  21918176.537   115180733.443       -2484.655          40.000    21918182.362    89751201.173       -1936.006          39.000  
G02  24907303.877   130888646.007       -3321.831          35.000                                                                  
G06  24301194.354   127703669.013        3514.349          33.000    24301210.126    99509448.320        2738.074          36.000  
G03  23400868.733   122972421.233        1623.200          36.000    23400882.670    95822754.913        1265.147          35.000  
G30  21327132.822   112074797.361        -656.482          42.000    21327139.104    87331040.356        -511.493          40.000  
G01  22047567.441   115860718.030       -2139.064          41.000    22047572.482    90281075.723       -1666.753          41.000  
G13  25698659.845   135047369.689        -776.628          29.000                                                                  
G22  23480252.619   123389580.024        2273.501          37.000                                                                  
G14  21826468.453   114698862.498        2141.568          40.000    21826473.223    89375779.318        1668.829          42.000  
G17  22299068.267   117182368.086          95.446          40.000    22299072.756    91310959.471          74.376          39.000  
G19  23571050.073   123866703.781        1446.395          35.000                                                                  
> 2025 04 27 02 33 14.0020000  0 12                     
G08  25715864.796   135137666.481       -2077.638          31.000    25715886.341   105302021.243       -1618.875          32.000  
G07  21918649.261   115183218.404       -2485.123          40.000    21918655.248    89753137.506       -1936.835          39.000  
G02  24907935.940   130891967.871       -3321.927          35.000                                                                  
G06  24300525.628   127700155.032        3514.581          33.000    24300541.459    99506710.154        2738.092          36.000  
G03  23400559.813   122970797.953        1623.406          37.000    23400573.692    95821490.078        1264.466          35.000  
G30  21327257.687   112075454.245        -657.281          42.000    21327264.196    87331552.201        -511.926          40.000  
G01  22047974.536   115862857.273       -2139.280          41.000    22047979.611    90282742.673       -1667.123          41.000  
G13  25698807.763   135048146.342        -776.566          29.000                                                                  
G22  23479820.006   123387306.616        2273.198          37.000                                                                  
G14  21826060.979   114696720.914        2141.378          40.000    21826065.633    89374110.545        1668.683          42.000  
G17  22299050.013   117182272.663          95.481          40.000    22299054.607    91310885.127          74.201          39.000  
G19  23570774.844   123865257.758        1446.183          35.000                                                                  
> 2025 04 27 02 33 15.0020000  0 12                     
G08  25716260.440   135139744.050       -2077.987          30.000    25716281.654   105303640.083       -1618.226          32.000  
G07  21919122.250   115185703.729       -2485.449          40.000    21919128.205    89755074.118       -1937.055          39.000  
G02  24908568.129   130895289.727       -3321.903          36.000                                                                  
G06  24299856.965   127696641.255        3514.178          33.000    24299872.712    99503972.149        2737.836          37.000  
G03  23400250.967   122969175.029        1622.288          37.000    23400264.757    95820225.408        1264.344          35.000  
G30  21327382.822   112076111.688        -657.751          42.000    21327389.231    87332064.485        -512.299          40.000  
G01  22048381.627   115864996.971       -2140.203          41.000    22048386.774    90284409.941       -1667.340          41.000  
G13  25698955.728   135048923.274        -777.062          29.000                                                                  
G22  23479387.304   123385033.141        2273.392          37.000                                                                  
G14  21825653.522   114694579.433        2141.289          41.000    21825658.181    89372441.850        1668.754          42.000  
G17  22299031.872   117182177.331          95.266          40.000    22299036.322    91310810.821          74.146          39.000  
G19  23570499.701   123863811.894        1445.466          35.000                                                                  
> 2025 04 27 02 33 16.0020000  0 12                     
G08  25716655.565   135141821.486       -2078.097          30.000    25716677.026   105305258.891       -1618.943          32.000  
G07  21919595.340   115188189.547       -2485.864          39.000    21919601.287    89757011.093       -1937.229          39.000  
G02  24909200.240   130898611.648       -3321.194          35.000                                                                  
G06  24299188.242   127693127.741        3514.227          33.000    24299204.019    99501234.373        2737.518          36.000  
G03  23399942.233   122967552.489        1622.152          37.000    23399956.004    95818961.093        1264.833          35.000  
G30  21327508.062   112076769.796        -658.380          42.000    21327514.510    87332577.293        -512.762          40.000  
G01  22048788.891   115867137.129       -2140.524          41.000    22048793.872    90286077.607       -1667.770          41.000  
G13  25699103.632   135049700.599        -777.576          30.000                                                                  
G22  23478954.664   123382759.675        2273.871          37.000                                                                  
G14  21825246.043   114692438.172        2141.010          41.000    21825250.582    89370773.324        1668.436          42.000  
G17  22299013.756   117182082.144          95.547          40.000    22299018.244    91310736.677          73.871          39.000  
G19  23570224.588   123862366.190        1445.714          35.000                                                                  
> 2025 04 27 02 33 17.0020000  0 12                     
G08  25717050.992   135143898.891       -2077.711          30.000    25717072.322   105306877.617       -1618.529          32.000  
G07  21920068.527   115190675.858       -2486.692          39.000    21920074.409    89758948.450       -1937.380          39.000  
G02  24909832.413   130901933.777       -3322.218          35.000                                                                  
G06  24298519.750   127689614.567        3513.617          33.000    24298535.467    99498496.847        2737.274          36.000  
G03  23399633.550   122965930.404        1621.746          37.000    23399647.335    95817697.126        1263.594          35.000  
G30  21327633.469   112077428.593        -659.247          42.000    21327639.910    87333090.638        -513.489          40.000  
G01  22049196.173   115869277.824       -2141.093          41.000    22049201.238    90287745.682       -1668.235          41.000  
G13  25699251.657   135050478.300        -777.893          30.000                                                                  
G22  23478521.970   123380486.310        2273.087          38.000                                                                  
G14  21824838.567   114690297.118        2140.674          41.000    21824843.176    89369104.983        1668.150          42.000  
G17  22298995.673   117181987.197          94.805          40.000    22299000.076    91310662.662          73.997          39.000  
G19  23569949.569   123860920.700        1445.522          35.000                                                                  
> 2025 04 27 02 33 18.0020000  0 12                     
G08  25717446.454   135145976.265       -2077.356          31.000    25717467.655   105308496.371       -1619.647          32.000  
G07  21920541.717   115193162.659       -2486.736          39.000    21920547.606    89760886.227       -1937.748          39.000  
G02  24910464.668   130905256.025       -3322.281          35.000                                                                  
G06  24297851.376   127686101.777        3512.567          33.000    24297867.006    99495759.560        2737.585          36.000  
G03  23399325.117   122964308.748        1621.402          37.000    23399338.797    95816433.554        1262.909          35.000  
G30  21327759.013   112078088.106        -659.796          42.000    21327765.374    87333604.540        -514.008          40.000  
G01  22049603.650   115871419.079       -2141.523          41.000    22049608.715    90289414.191       -1668.634          41.000  
G13  25699399.650   135051256.423        -778.419          30.000                                                                  
G22  23478089.400   123378213.003        2273.130          38.000                                                                  
G14  21824431.212   114688156.316        2140.797          41.000    21824435.678    89367436.819        1668.334          42.000  
G17  22298977.631   117181892.448          94.849          40.000    22298982.013    91310588.851          73.456          39.000  
G19  23569674.562   123859475.477        1445.289          35.000                                                                  
> 2025 04 27 02 33 19.0020000  0 12                     
G08  25717842.080   135148053.449       -2077.402          30.000    25717862.985   105310114.914       -1618.839          32.000  
G07  21921014.972   115195649.834       -2487.283          39.000    21921020.922    89762824.273       -1938.062          39.000  
G02  24911096.860   130908578.267       -3322.503          35.000                                                                  
G06  24297183.046   127682589.100        3512.909          33.000    24297198.523    99493022.440        2736.896          36.000  
G03  23399016.663   122962687.423        1621.019          37.000    23399030.264    95815170.143        1263.533          35.000  
G30  21327884.523   112078748.126        -660.236          42.000    21327890.986    87334118.857        -514.697          40.000  
G01  22050011.176   115873560.708       -2141.747          41.000    22050016.192    90291082.994       -1669.009          41.000  
G13  25699547.862   135052034.746        -777.956          30.000                                                                  
G22  23477656.861   123375939.561        2273.566          38.000                                                                  
G14  21824023.808   114686015.580        2140.764          41.000    21824028.413    89365768.726        1668.134          42.000  
G17  22298959.665   117181797.753          94.633          40.000    22298963.878    91310515.052          73.870          39.000  
G19  23569399.536   123858030.323        1445.199          35.000                                                                  
> 2025 04 27 02 33 20.0020000  0 12                     
G08  25718237.317   135150130.502       -2077.229          30.000    25718258.208   105311733.377       -1618.154          32.000  
G07  21921488.289   115198137.406       -2487.654          39.000    21921494.291    89764762.634       -1938.502          39.000  
G02  24911728.940   130911900.489       -3322.059          35.000                                                                  
G06  24296514.731   127679076.675        3512.720          33.000    24296530.234    99490285.480        2736.945          37.000  
G03  23398708.288   122961066.423        1620.591          37.000    23398721.829    95813907.041        1263.189          35.000  
G30  21328010.246   112079408.770        -660.986          42.000    21328016.771    87334633.639        -515.363          40.000  
G01  22050418.893   115875702.799       -2142.377          41.000    22050423.886    90292752.144       -1669.465          41.000  
G13  25699695.829   135052813.436        -778.718          29.000                                                                  
G22  23477224.240   123373666.141        2273.111          38.000                                                                  
G14  21823616.407   114683875.024        2140.284          41.000    21823621.102    89364100.741        1667.923          42.000  
G17  22298941.672   117181703.181          94.268          40.000    22298945.792    91310441.353          73.552          39.000  
G19  23569124.609   123856585.328        1444.454          35.000                                                                  
> 2025 04 27 02 33 21.0020000  0 12                     
G08  25718632.611   135152207.455       -2076.827          30.000    25718653.439   105313351.815       -1618.480          32.000  
G07  21921961.805   115200625.505       -2488.776          39.000    21921967.724    89766701.378       -1938.783          39.000  
G02  24912361.105   130915222.878       -3322.576          35.000                                                                  
G06  24295846.447   127675564.558        3512.524          33.000    24295861.882    99487548.748        2736.731          36.000  
G03  23398399.793   122959445.865        1620.468          37.000    23398413.407    95812644.260        1263.096          35.000  
G30  21328136.101   112080070.071        -661.633          42.000    21328142.581    87335148.920        -515.485          40.000  
G01  22050826.643   115877845.387       -2142.869          41.000    22050831.580    90294421.685       -1669.625          41.000  
G13  25699843.993   135053592.472        -778.992          30.000                                                                  
G22  23476791.580   123371392.727        2273.308          38.000                                                                  
G14  21823209.111   114681734.673        2140.051          41.000    21823213.818    89362432.940        1667.542          42.000  
G17  22298923.750   117181608.787          94.520          40.000    22298927.939    91310367.795          73.862          39.000  
G19  23568849.623   123855140.537        1444.658          35.000                                                                  
> 2025 04 27 02 33 22.0020000  0 12                     
G08  25719027.909   135154284.185       -2077.460          30.000    25719048.616   105314970.005       -1618.178          31.000  
G07  21922435.312   115203113.796       -2488.569          40.000    21922441.339    89768640.314       -1939.113          39.000  
G02  24912993.407   130918545.113       -3322.192          36.000                                                                  
G06  24295178.008   127672052.551        3511.688          33.000    24295193.504    99484812.111        2736.432          36.000  
G03  23398091.533   122957825.502        1620.002          37.000    23398105.103    95811381.674        1262.141          35.000  
G30  21328262.029   112080731.816        -661.963          42.000    21328268.607    87335664.575        -515.979          40.000  
G01  22051234.398   115879988.258       -2143.053          41.000    22051239.284    90296091.470       -1670.121          41.000  
G13  25699992.119   135054371.692        -779.362          30.000                                                                  
G22  23476358.862   123369119.126        2273.514          38.000                                                                  
G14  21822801.848   114679594.270        2140.367          40.000    21822806.595    89360765.101        1667.755          42.000  
G17  22298905.874   117181514.368          94.138          40.000    22298909.990    91310294.223          73.354          39.000  
G19  23568574.789   123853695.751        1444.476          34.000                                                                  
> 2025 04 27 02 33 23.0020000  0 12                     
G08  25719423.194   135156360.744       -2077.011          30.000    25719443.762   105316588.091       -1617.684          32.000  
G07  21922908.990   115205602.554       -2489.114          40.000    21922914.986    89770579.614       -1939.652          39.000  
G02  24913625.662   130921867.443       -3322.374          36.000                                                                  
G06  24294509.825   127668540.725        3511.499          33.000    24294525.290    99482075.646        2736.200          36.000  
G03  23397783.321   122956205.542        1619.930          37.000    23397796.844    95810119.346        1262.115          35.000  
G30  21328388.097   112081394.204        -662.817          42.000    21328394.611    87336180.706        -516.284          40.000  
G01  22051642.267   115882131.622       -2143.700          41.000    22051647.241    90297761.615       -1670.560          41.000  
G13  25700140.302   135055151.268        -779.985          30.000                                                                  
G22  23475926.397   123366845.523        2273.500          38.000                                                                  
G14  21822394.513   114677454.071        2140.316          41.000    21822399.399    89359097.419        1667.314          42.000  
G17  22298887.888   117181420.082          94.030          40.000    22298892.104    91310220.751          73.436          39.000  
G19  23568299.933   123852251.099        1444.326          35.000                                                                  
> 2025 04 27 02 33 24.0020000  0 12                     
G08  25719818.307   135158437.274       -2076.207          30.000    25719838.863   105318206.156       -1617.855          32.000  
G07  21923382.738   115208091.816       -2489.430          40.000    21923388.626    89772519.291       -1939.839          39.000  
G02  24914257.988   130925189.908       -3322.457          36.000                                                                  
G06  24293841.538   127665029.275        3511.279          33.000    24293857.088    99479339.438        2736.285          36.000  
G03  23397475.147   122954586.008        1619.769          37.000    23397488.646    95808857.386        1262.244          35.000  
G30  21328514.168   112082057.280        -663.208          42.000    21328520.773    87336697.394        -516.925          40.000  
G01  22052050.200   115884275.503       -2144.020          41.000    22052055.298    90299432.160       -1670.537          41.000  
G13  25700288.859   135055931.199        -779.921          30.000                                                                  
G22  23475493.884   123364572.009        2273.219          38.000                                                                  
G14  21821987.306   114675314.121        2139.672          40.000    21821992.180    89357429.916        1667.507          42.000  
G17  22298869.923   117181326.014          93.828          40.000    22298874.161    91310147.446          73.562          39.000  
G19  23568025.031   123850806.714        1444.362          35.000                                                                  
> 2025 04 27 02 33 25.0020000  0 12                     
G08  25720213.685   135160513.635       -2076.401          31.000    25720234.037   105319824.132       -1618.258          32.000  
G07  21923856.510   115210581.457       -2490.192          39.000    21923862.355    89774459.267       -1940.164          39.000  
G02  24914890.217   130928512.366       -3322.660          35.000                                                                  
G06  24293173.208   127661518.031        3510.724          33.000    24293188.993    99476603.398        2736.182          37.000  
G03  23397167.035   122952966.832        1619.176          37.000    23397180.506    95807595.700        1261.334          35.000  
G30  21328640.378   112082720.931        -663.965          42.000    21328647.013    87337214.515        -517.340          40.000  
G01  22052458.169   115886419.811       -2144.534          41.000    22052463.281    90301103.049       -1671.088          41.000  
G13  25700437.193   135056711.432        -780.678          30.000                                                                  
G22  23475061.280   123362298.384        2273.787          37.000                                                                  
G14  21821580.053   114673174.250        2140.100          41.000    21821585.016    89355762.490        1667.369          42.000  
G17  22298852.143   117181232.004          94.195          40.000    22298856.255    91310074.215          73.041          39.000  
G19  23567750.154   123849362.408        1444.371          35.000                                                                  
> 2025 04 27 02 33 26.0020000  0 12                     
G08  25720608.853   135162589.988       -2076.134          30.000    25720629.198   105321442.049       -1618.001          32.000  
G07  21924330.226   115213071.617       -2489.980          40.000    21924336.097    89776399.660       -1940.707          39.000  
G02  24915522.546   130931834.986       -3322.449          35.000                                                                  
G06  24292504.964   127658007.131        3510.577          33.000    24292520.891    99473867.654        2735.596          37.000  
G03  23396859.041   122951348.115        1618.755          37.000    23396872.503    95806334.362        1261.237          35.000  
G30  21328766.802   112083385.289        -664.410          42.000    21328773.529    87337732.209        -518.030          40.000  
G01  22052866.367   115888564.682       -2145.240          41.000    22052871.458    90302774.374       -1671.655          41.000  
G13  25700585.866   135057492.055        -780.389          29.000                                                                  
G22  23474628.699   123360024.859        2273.750          37.000                                                                  
G14  21821172.880   114671034.663        2139.555          41.000    21821177.766    89354095.277        1667.230          42.000  
G17  22298834.290   117181138.261          93.820          40.000    22298838.349    91310001.157          73.069          39.000  
G19  23567475.278   123847918.396        1444.057          35.000                                                                  
> 2025 04 27 02 33 27.0020000  0 12                     
G08  25721004.025   135164666.283       -2076.300          30.000    25721024.334   105323059.909       -1617.495          32.000  
G07  21924804.149   115215562.277       -2491.023          40.000    21924810.053    89778340.405       -1941.111          39.000  
G02  24916154.739   130935157.716       -3323.052          35.000                                                                  
G06  24291837.032   127654496.479        3511.004          33.000    24291852.832    99471132.101        2735.352          37.000  
G03  23396551.182   122949729.822        1618.109          37.000    23396564.543    95805073.352        1261.048          35.000  
G30  21328893.336   112084050.324        -665.430          42.000    21328900.003    87338250.404        -518.408          40.000  
G01  22053274.681   115890710.036       -2145.533          41.000    22053279.742    90304446.063       -1671.690          41.000  
G13  25700734.406   135058273.109        -781.401          29.000                                                                  
G22  23474195.964   123357751.386        2273.504          37.000                                                                  
G14  21820765.791   114668895.283        2139.079          40.000    21820770.662    89352428.211        1667.152          42.000  
G17  22298816.520   117181044.683          93.325          40.000    22298820.587    91309928.238          72.660          39.000  
G19  23567200.491   123846474.580        1443.910          35.000                                                                  
> 2025 04 27 02 33 28.0020000  0 12                     
G08  25721399.128   135166742.284       -2075.900          30.000    25721419.416   105324677.587       -1617.515          31.000  
G07  21925278.133   115218053.176       -2490.834          40.000    21925284.049    89780281.385       -1941.392          39.000  
G02  24916787.087   130938480.363       -3323.097          35.000                                                                  
G06  24291168.822   127650985.986        3510.449          33.000    24291184.757    99468396.640        2735.455          37.000  
G03  23396243.172   122948111.739        1617.989          37.000    23396256.601    95803812.526        1260.766          35.000  
G30  21329020.059   112084715.813        -665.686          42.000    21329026.638    87338768.969        -518.719          40.000  
G01  22053683.007   115892855.730       -2145.881          41.000    22053688.146    90306118.030       -1671.997          41.000  
G13  25700883.108   135059054.307        -781.518          29.000                                                                  
G22  23473763.299   123355477.733        2274.042          37.000                                                                  
G14  21820358.668   114666755.900        2139.403          41.000    21820363.668    89350761.175        1667.004          42.000  
G17  22298798.638   117180951.098          93.305          40.000    22298802.776    91309855.293          72.874          39.000  
G19  23566925.723   123845030.779        1443.861          35.000                                                                  
> 2025 04 27 02 33 29.0020000  0 12                     
G08  25721794.044   135168818.113       -2075.413          30.000    25721814.511   105326295.145       -1617.367          31.000  
G07  21925752.322   115220544.525       -2491.637          40.000    21925758.141    89782222.664       -1941.443          39.000  
G02  24917419.314   130941802.977       -3322.046          34.000                                                                  
G06  24290500.752   127647475.669        3510.352          33.000    24290516.715    99465661.349        2735.608          37.000  
G03  23395935.419   122946494.020        1617.349          37.000    23395948.842    95802551.955        1260.318          35.000  
G30  21329146.885   112085381.914        -666.541          42.000    21329153.310    87339287.985        -518.823          40.000  
G01  22054091.425   115895001.857       -2146.335          41.000    22054096.474    90307790.318       -1672.372          41.000  
G13  25701031.735   135059835.859        -781.982          29.000                                                                  
G22  23473330.517   123353204.050        2273.739          37.000                                                                  
G14  21819951.656   114664616.668        2139.178          41.000    21819956.730    89349094.230        1667.044          42.000  
G17  22298780.850   117180857.600          93.382          40.000    22298784.878    91309782.443          73.030          39.000  
G19  23566650.993   123843587.108        1443.604          35.000                                                                  
> 2025 04 27 02 33 30.0020000  0 12                     
G08  25722188.970   135170893.916       -2076.259          31.000    25722209.579   105327912.599       -1617.707          32.000  
G07  21926226.533   115223036.277       -2492.134          40.000    21926232.328    89784164.285       -1942.081          39.000  
G02  24918051.596   130945125.725       -3322.496          34.000                                                                  
G06  24289832.813   127643965.668        3509.308          34.000    24289848.752    99462926.260        2735.175          37.000  
G03  23395627.630   122944876.655        1616.865          37.000    23395641.087    95801291.673        1259.819          35.000  
G30  21329273.788   112086048.604        -667.169          42.000    21329280.258    87339807.500        -519.971          40.000  
G01  22054499.974   115897148.412       -2146.846          41.000    22054505.093    90309462.991       -1673.048          41.000  
G13  25701180.575   135060617.639        -781.991          29.000                                                                  
G22  23472897.825   123350930.337        2273.672          37.000                                                                  
G14  21819544.573   114662477.584        2138.727          41.000    21819549.696    89347427.426        1666.556          42.000  
G17  22298763.043   117180764.247          93.174          40.000    22298767.109    91309709.691          72.752          39.000  
G19  23566376.240   123842143.598        1443.397          35.000                                                                  
> 2025 04 27 02 33 31.0020000  0 12                     
G08  25722583.835   135172969.597       -2076.936          30.000    25722604.518   105329529.927       -1616.711          32.000  
G07  21926700.830   115225528.477       -2492.544          40.000    21926706.571    89786106.247       -1942.416          39.000  
G02  24918683.824   130948448.551       -3322.887          34.000                                                                  
G06  24289164.974   127640455.868        3509.918          33.000    24289180.821    99460191.389        2734.625          37.000  
G03  23395319.888   122943259.688        1616.259          37.000    23395333.285    95800031.674        1260.249          35.000  
G30  21329400.773   112086715.929        -667.548          42.000    21329407.269    87340327.501        -520.264          40.000  
G01  22054908.547   115899295.459       -2147.170          41.000    22054913.624    90311135.993       -1673.244          41.000  
G13  25701329.506   135061399.790        -781.730          29.000                                                                  
G22  23472465.221   123348656.628        2273.900          37.000                                                                  
G14  21819137.454   114660338.672        2138.748          41.000    21819142.672    89345760.744        1666.531          42.000  
G17  22298745.194   117180670.993          93.687          40.000    22298749.306    91309637.078          72.350          39.000  
G19  23566101.538   123840700.243        1443.302          35.000                                                                  
> 2025 04 27 02 33 32.0020000  0 12                     
G08  25722978.821   135175045.030       -2074.403          30.000    25722999.498   105331147.225       -1617.136          32.000  
G07  21927175.210   115228021.100       -2492.522          40.000    21927180.936    89788048.541       -1942.032          39.000  
G02  24919316.183   130951771.427       -3322.958          34.000                                                                  
G06  24288497.202   127636946.360        3509.259          33.000    24288512.994    99457456.700        2734.662          37.000  
G03  23395012.255   122941643.105        1616.244          37.000    23395025.696    95798772.025        1259.425          35.000  
G30  21329527.899   112087383.903        -668.329          42.000    21329534.241    87340847.976        -520.752          40.000  
G01  22055317.121   115901442.973       -2147.668          41.000    22055322.294    90312809.396       -1673.499          41.000  
G13  25701478.392   135062182.306        -782.639          29.000                                                                  
G22  23472032.508   123346382.930        2273.525          37.000                                                                  
G14  21818730.526   114658199.952        2138.569          41.000    21818735.668    89344094.195        1666.639          42.000  
G17  22298727.527   117180577.955          93.158          40.000    22298731.702    91309564.551          72.489          39.000  
G19  23565826.896   123839257.093        1442.535          35.000                                                                  
> 2025 04 27 02 33 33.0020000  0 12                     
G08  25723373.924   135177120.339       -2075.129          30.000    25723394.426   105332764.315       -1617.412          32.000  
G07  21927649.623   115230514.039       -2493.214          40.000    21927655.322    89789991.097       -1942.980          39.000  
G02  24919948.524   130955094.207       -3323.079          34.000                                                                  
G06  24287829.579   127633436.933        3509.589          33.000    24287845.155    99454722.103        2734.399          37.000  
G03  23394704.730   122940026.743        1616.386          37.000    23394718.080    95797512.538        1259.333          35.000  
G30  21329655.130   112088052.349        -668.726          42.000    21329661.411    87341368.833        -521.045          40.000  
G01  22055725.923   115903590.822       -2147.985          41.000    22055731.066    90314483.032       -1673.868          41.000  
G13  25701627.340   135062965.021        -783.051          29.000                                                                  
G22  23471599.834   123344109.052        2274.003          37.000                                                                  
G14  21818323.529   114656061.246        2138.728          41.000    21818328.623    89342427.670        1666.462          42.000  
G17  22298709.796   117180484.892          92.950          40.000    22298713.954    91309492.010          72.788          39.000  
G19  23565552.227   123837813.950        1442.809          35.000                                                                  
> 2025 04 27 02 33 34.0020000  0 12                     
G08  25723768.641   135179195.593       -2075.004          30.000    25723789.390   105334381.383       -1617.004          32.000  
G07  21928124.111   115233007.463       -2493.450          40.000    21928129.753    89791934.005       -1942.836          39.000  
G02  24920580.945   130958417.128       -3323.306          35.000                                                                  
G06  24287161.694   127629927.905        3508.679          33.000    24287177.417    99451987.772        2734.149          37.000  
G03  23394397.258   122938410.879        1615.091          37.000    23394410.463    95796253.407        1258.902          35.000  
G30  21329782.468   112088721.493        -669.574          42.000    21329788.827    87341890.241        -521.515          40.000  
G01  22056134.723   115905739.201       -2148.591          41.000    22056139.884    90316157.100       -1674.403          41.000  
G13  25701776.334   135063748.100        -783.115          29.000                                                                  
G22  23471167.176   123341835.243        2273.854          37.000                                                                  
G14  21817916.566   114653922.767        2138.374          41.000    21817921.730    89340761.330        1666.314          42.000  
G17  22298692.151   117180392.043          92.560          40.000    22298696.318    91309419.665          72.338          39.000  
G19  23565277.635   123836371.017        1442.943          35.000                                                                  
> 2025 04 27 02 33 35.0020000  0 12                     
G08  25724163.387   135181270.592       -2075.549          30.000    25724184.326   105335998.265       -1617.404          32.000  
G07  21928598.658   115235501.227       -2494.219          40.000    21928604.298    89793877.186       -1943.362          39.000  
G02  24921213.365   130961740.001       -3323.380          35.000                                                                  
G06  24286493.956   127626418.971        3508.496          33.000    24286509.627    99449253.563        2733.838          37.000  
G03  23394089.814   122936795.229        1615.205          37.000    23394103.046    95794994.479        1258.480          35.000  
G30  21329909.874   112089391.138        -670.270          42.000    21329916.264    87342412.048        -522.229          40.000  
G01  22056543.606   115907887.944       -2149.222          41.000    22056548.746    90317831.444       -1674.841          41.000  
G13  25701925.314   135064531.425        -783.637          29.000                                                                  
G22  23470734.397   123339561.349        2273.315          37.000                                                                  
G14  21817509.593   114651784.340        2138.411          41.000    21817514.773    89339095.044        1665.977          42.000  
G17  22298674.401   117180299.200          92.626          40.000    22298678.633    91309347.334          71.879          39.000  
G19  23565003.139   123834928.168        1442.739          35.000                                                                  
> 2025 04 27 02 33 36.0020000  0 12                     
G08  25724558.255   135183345.507       -2074.675          31.000    25724579.253   105337615.055       -1616.451          32.000  
G07  21929073.303   115237995.430       -2494.412          40.000    21929078.918    89795820.731       -1943.821          39.000  
G02  24921845.794   130965062.959       -3323.274          35.000                                                                  
G06  24285826.088   127622910.286        3508.929          33.000    24285841.993    99446519.562        2733.527          37.000  
G03  23393782.454   122935179.999        1615.122          37.000    23393795.619    95793735.874        1258.210          35.000  
G30  21330037.432   112090061.425        -670.721          42.000    21330043.805    87342934.357        -522.443          40.000  
G01  22056952.645   115910037.164       -2149.618          41.000    22056957.711    90319506.143       -1675.117          41.000  
G13  25702074.535   135065315.056        -783.503          29.000                                                                  
G22  23470301.590   123337287.428        2274.005          38.000                                                                  
G14  21817102.775   114649646.139        2138.211          41.000    21817107.655    89337428.897        1665.814          42.000  
G17  22298656.865   117180206.531          92.571          40.000    22298661.099    91309275.122          72.039          39.000  
G19  23564728.691   123833485.487        1442.858          35.000                                                                  
> 2025 04 27 02 33 37.0020000  0 12                     
G08  25724953.198   135185420.309       -2075.600          31.000    25724974.066   105339231.728       -1616.030          32.000  
G07  21929547.908   115240490.026       -2495.096          40.000    21929553.731    89797764.549       -1943.959          39.000  
G02  24922478.174   130968385.897       -3323.005          35.000                                                                  
G06  24285158.597   127619401.849        3507.813          33.000    24285174.407    99443785.704        2733.356          37.000  
G03  23393475.105   122933565.117        1614.525          37.000    23393488.343    95792477.523        1257.613          35.000  
G30  21330165.184   112090732.289        -671.185          42.000    21330171.526    87343457.085        -522.852          40.000  
G01  22057361.583   115912186.798       -2150.181          41.000    22057366.785    90321181.161       -1675.110          41.000  
G13  25702223.656   135066099.010        -784.338          29.000                                                                  
G22  23469868.895   123335013.451        2273.839          37.000                                                                  
G14  21816695.943   114647508.019        2137.810          41.000    21816700.765    89335762.823        1665.926          42.000  
G17  22298639.261   117180113.936          92.580          40.000    22298643.495    91309202.963          72.200          39.000  
G19  23564454.204   123832042.940        1442.172          35.000                                                                  
> 2025 04 27 02 33 38.0020000  0 12                     
G08  25725347.962   135187494.928       -2074.443          31.000    25725368.925   105340848.337       -1616.385          32.000  
G07  21930022.696   115242985.092       -2495.363          39.000    21930028.533    89799708.729       -1944.203          39.000  
G02  24923110.589   130971708.956       -3322.751          35.000                                                                  
G06  24284490.994   127615893.705        3507.806          34.000    24284506.750    99441052.090        2733.234          37.000  
G03  23393167.708   122931950.628        1614.556          37.000    23393181.057    95791219.479        1257.807          35.000  
G30  21330292.939   112091403.819        -671.906          42.000    21330299.316    87343980.353        -523.273          40.000  
G01  22057770.822   115914336.937       -2150.477          41.000    22057776.033    90322856.603       -1675.602          41.000  
G13  25702372.747   135066883.318        -784.274          30.000                                                                  
G22  23469436.117   123332739.520        2273.640          37.000                                                                  
G14  21816289.234   114645370.123        2137.697          41.000    21816293.879    89334096.926        1665.675          42.000  
G17  22298621.688   117180021.536          92.473          40.000    22298625.992    91309130.959          72.009          39.000  
G19  23564179.724   123830600.558        1442.855          35.000                                                                  
> 2025 04 27 02 33 39.0020000  0 12                     
G08  25725742.696   135189569.541       -2074.360          30.000    25725763.702   105342464.910       -1616.769          32.000  
G07  21930497.520   115245480.591       -2495.760          39.000    21930503.464    89801653.275       -1944.598          39.000  
G02  24923742.959   130975032.094       -3323.309          36.000                                                                  
G06  24283823.330   127612385.812        3508.014          34.000    24283839.204    99438318.632        2733.875          36.000  
G03  23392860.595   122930336.569        1613.743          37.000    23392873.893    95789961.769        1257.373          35.000  
G30  21330420.819   112092075.975        -672.693          42.000    21330427.217    87344504.129        -524.139          40.000  
G01  22058180.098   115916487.545       -2150.847          41.000    22058185.407    90324532.396       -1675.919          41.000  
G13  25702521.942   135067668.007        -784.957          30.000                                                                  
G22  23469003.407   123330465.601        2273.614          37.000                                                                  
G14  21815882.596   114643232.390        2137.718          41.000    21815887.097    89332431.169        1665.762          42.000  
G17  22298604.098   117179929.267          92.162          40.000    22298608.397    91309059.067          71.845          39.000  
G19  23563905.358   123829158.414        1442.455          35.000                                                                  
> 2025 04 27 02 33 40.0020000  0 12                     
G08  25726137.489   135191643.968       -2075.013          30.000    25726158.417   105344081.281       -1615.935          32.000  
G07  21930972.647   115247976.440       -2495.852          40.000    21930978.397    89803598.104       -1945.067          39.000  
G02  24924375.421   130978355.196       -3322.905          36.000                                                                  
G06  24283155.760   127608878.133        3507.329          33.000    24283171.731    99435585.409        2732.945          36.000  
G03  23392553.546   122928722.775        1613.434          37.000    23392566.733    95788704.277        1257.445          35.000  
G30  21330548.896   112092748.673        -673.029          42.000    21330555.244    87345028.295        -524.396          40.000  
G01  22058589.545   115918638.544       -2151.248          41.000    22058594.707    90326208.500       -1676.256          41.000  
G13  25702671.218   135068452.927        -785.882          30.000                                                                  
G22  23468570.672   123328191.553        2274.061          38.000                                                                  
G14  21815475.877   114641094.754        2137.580          41.000    21815480.355    89330765.469        1665.755          42.000  
G17  22298586.480   117179837.056          92.207          40.000    22298590.901    91308987.209          71.909          39.000  
G19  23563631.012   123827716.330        1442.089          35.000                                                                  
> 2025 04 27 02 33 41.0020000  0 12                     
G08  25726532.331   135193718.264       -2075.119          30.000    25726553.140   105345697.611       -1616.451          32.000  
G07  21931447.692   115250472.744       -2496.755          40.000    21931453.427    89805543.238       -1945.377          39.000  
G02  24925007.831   130981678.387       -3323.251          36.000                                                                  
G06  24282488.283   127605370.675        3507.151          33.000    24282504.235    99432852.304        2733.094          36.000  
G03  23392246.580   122927109.367        1613.252          37.000    23392259.622    95787447.089        1256.756          35.000  
G30  21330677.023   112093422.003        -673.914          42.000    21330683.306    87345552.948        -524.487          40.000  
G01  22058999.016   115920790.003       -2151.598          41.000    22059004.082    90327884.979       -1677.017          41.000  
G13  25702820.539   135069238.186        -785.831          30.000                                                                  
G22  23468137.955   123325917.516        2274.067          38.000                                                                  
G14  21815069.093   114638957.282        2137.123          41.000    21815073.546    89329099.917        1665.365          42.000  
G17  22298568.952   117179745.003          91.531          40.000    22298573.345    91308915.464          71.721          39.000  
G19  23563356.717   123826274.412        1441.764          35.000                                                                  
> 2025 04 27 02 33 42.0020000  0 12                     
G08  25726926.964   135195792.333       -2074.100          30.000    25726947.907   105347313.766       -1615.637          32.000  
G07  21931922.802   115252969.411       -2496.807          40.000    21931928.501    89807488.691       -1945.724          39.000  
G02  24925640.331   130985001.544       -3322.817          35.000                                                                  
G06  24281820.798   127601863.438        3507.104          33.000    24281836.853    99430119.411        2732.850          36.000  
G03  23391939.697   122925496.308        1612.876          37.000    23391952.752    95786190.159        1256.779          35.000  
G30  21330805.299   112094095.882        -673.956          42.000    21330811.605    87346078.083        -525.500          40.000  
G01  22059408.516   115922941.901       -2152.258          41.000    22059413.554    90329561.752       -1676.836          41.000  
G13  25702969.853   135070023.675        -785.593          30.000                                                                  
G22  23467705.166   123323643.412        2274.388          38.000                                                                  
G14  21814662.336   114636819.929        2137.362          41.000    21814666.758    89327434.441        1665.385          42.000  
G17  22298551.556   117179653.004          92.004          40.000    22298555.802    91308843.813          71.492          39.000  
G19  23563082.307   123824832.597        1441.828          35.000                                                                  
> 2025 04 27 02 33 43.0020000  0 12                     
G08  25727321.722   135197866.320       -2073.808          30.000    25727342.658   105348929.911       -1616.135          33.000  
G07  21932398.034   115255466.512       -2497.274          40.000    21932403.745    89809434.496       -1945.890          39.000  
G02  24926272.679   130988324.826       -3323.575          35.000                                                                  
G06  24281153.332   127598356.445        3507.148          33.000    24281169.513    99427386.708        2732.457          36.000  
G03  23391632.952   122923883.628        1612.342          37.000    23391645.957    95784933.532        1256.530          35.000  
G30  21330933.632   112094770.430        -675.092          42.000    21330939.973    87346603.680        -525.958          40.000  
G01  22059818.044   115925094.246       -2152.896          41.000    22059823.112    90331238.921       -1677.439          41.000  
G13  25703119.360   135070809.536        -785.896          30.000                                                                  
G22  23467272.313   123321369.350        2273.541          37.000                                                                  
G14  21814255.656   114634682.781        2136.613          41.000    21814260.083    89325769.124        1664.927          42.000  
G17  22298534.091   117179561.170          91.883          40.000    22298538.281    91308772.243          71.463          39.000  
G19  23562807.856   123823390.983        1440.708          35.000                                                                  
> 2025 04 27 02 33 44.0020000  0 12                     
G08  25727716.212   135199940.419       -2074.651          30.000    25727737.436   105350546.029       -1616.269          33.000  
G07  21932873.256   115257964.213       -2497.848          40.000    21932879.055    89811380.753       -1946.716          39.000  
G02  24926905.008   130991648.302       -3323.538          35.000                                                                  
G06  24280486.068   127594849.923        3505.631          33.000    24280502.254    99424654.333        2732.306          37.000  
G03  23391326.087   122922271.497        1611.838          38.000    23391339.202    95783677.325        1255.909          35.000  
G30  21331062.069   112095445.729        -675.366          42.000    21331068.508    87347129.902        -526.471          40.000  
G01  22060227.775   115927247.232       -2153.165          41.000    22060232.726    90332916.556       -1677.792          41.000  
G13  25703268.888   135071595.895        -786.260          30.000                                                                  
G22  23466839.786   123319095.414        2273.849          37.000                                                                  
G14  21813849.110   114632545.909        2136.977          41.000    21813853.533    89324104.050        1664.880          42.000  
G17  22298516.697   117179469.661          91.068          40.000    22298520.815    91308700.907          71.612          39.000  
G19  23562533.489   123821949.674        1441.199          35.000                                                                  
> 2025 04 27 02 33 45.0020000  0 12                     
G08  25728110.785   135202014.405       -2073.824          31.000    25728132.088   105352162.146       -1616.147          33.000  
G07  21933348.674   115260462.417       -2498.492          40.000    21933354.567    89813327.411       -1947.011          39.000  
G02  24927537.430   130994971.930       -3323.886          35.000                                                                  
G06  24279818.947   127591343.672        3506.147          33.000    24279835.027    99421922.218        2731.926          37.000  
G03  23391019.418   122920659.816        1611.423          37.000    23391032.514    95782421.474        1255.882          35.000  
G30  21331190.644   112096121.752        -676.410          42.000    21331197.083    87347656.663        -526.953          40.000  
G01  22060637.703   115929400.734       -2153.549          41.000    22060642.480    90334594.607       -1678.167          41.000  
G13  25703418.615   135072382.688        -787.464          30.000                                                                  
G22  23466407.131   123316821.539        2274.171          37.000                                                                  
G14  21813442.437   114630409.307        2136.676          41.000    21813446.946    89322439.163        1664.724          42.000  
G17  22298499.394   117179378.333          91.287          40.000    22298503.424    91308629.746          71.103          39.000  
G19  23562259.437   123820508.591        1441.321          35.000                                                                  
> 2025 04 27 02 33 46.0020000  0 12                     
G08  25728505.391   135204088.363       -2074.639          31.000    25728526.738   105353778.152       -1615.388          33.000  
G07  21933824.201   115262961.116       -2498.955          40.000    21933829.947    89815274.414       -1947.294          39.000  
G02  24928169.921   130998295.629       -3323.593          35.000                                                                  
G06  24279151.877   127587837.724        3505.815          33.000    24279167.946    99419190.309        2732.120          37.000  
G03  23390712.816   122919048.544        1611.153          37.000    23390725.938    95781165.924        1255.994          35.000  
G30  21331319.522   112096798.413        -677.008          42.000    21331325.838    87348183.927        -527.576          40.000  
G01  22061047.621   115931554.786       -2154.720          41.000    22061052.353    90336273.059       -1678.560          41.000  
G13  25703568.162   135073169.793        -787.576          30.000                                                                  
G22  23465974.308   123314547.723        2273.595          37.000                                                                  
G14  21813035.899   114628272.900        2136.461          41.000    21813040.357    89320774.428        1664.664          42.000  
G17  22298482.024   117179287.189          91.218          40.000    22298486.022    91308558.732          71.014          39.000  
G19  23561985.181   123819067.729        1441.477          35.000                                                                  
> 2025 04 27 02 33 47.0020000  0 12                     
G08  25728900.047   135206162.272       -2073.604          31.000    25728921.410   105355394.203       -1616.450          33.000  
G07  21934299.660   115265460.303       -2499.821          40.000    21934305.589    89817221.830       -1947.826          39.000  
G02  24928802.432   131001619.491       -3324.149          36.000                                                                  
G06  24278484.823   127584332.153        3505.419          33.000    24278500.895    99416458.706        2731.475          36.000  
G03  23390406.269   122917437.765        1610.375          37.000    23390419.463    95779910.780        1254.788          35.000  
G30  21331448.489   112097475.807        -677.814          42.000    21331454.795    87348711.765        -528.229          40.000  
G01  22061457.732   115933709.326       -2154.833          41.000    22061462.335    90337951.945       -1679.336          41.000  
G13  25703717.974   135073957.335        -787.641          30.000                                                                  
G22  23465541.582   123312273.934        2273.843          37.000                                                                  
G14  21812629.398   114626136.767        2135.744          41.000    21812633.822    89319109.908        1664.228          42.000  
G17  22298464.797   117179196.273          90.654          40.000    22298468.649    91308487.910          70.404          39.000  
G19  23561711.134   123817627.149        1440.443          35.000                                                                  
> 2025 04 27 02 33 48.0020000  0 12                     
G08  25729294.764   135208236.221       -2073.777          31.000    25729316.098   105357010.265       -1616.385          33.000  
G07  21934775.391   115267960.058       -2500.200          40.000    21934781.310    89819169.691       -1948.274          39.000  
G02  24929435.096   131004943.560       -3324.396          36.000                                                                  
G06  24277817.944   127580826.952        3504.874          33.000    24277834.029    99413727.382        2730.967          36.000  
G03  23390099.974   122915827.480        1610.041          37.000    23390112.998    95778656.012        1254.522          35.000  
G30  21331577.402   112098153.938        -678.436          42.000    21331583.663    87349240.163        -528.650          40.000  
G01  22061867.873   115935864.511       -2155.475          41.000    22061872.465    90339631.300       -1679.711          41.000  
G13  25703868.018   135074745.340        -787.985          30.000                                                                  
G22  23465108.990   123310000.314        2273.458          37.000                                                                  
G14  21812222.851   114624000.922        2135.708          41.000    21812227.321    89317445.608        1664.207          42.000  
G17  22298447.533   117179105.617          90.424          40.000    22298451.411    91308417.257          70.603          39.000  
G19  23561437.212   123816186.864        1440.213          35.000                                                                  
> 2025 04 27 02 33 49.0020000  0 12                     
G08  25729689.401   135210310.058       -2073.939          31.000    25729710.695   105358626.216       -1615.682          33.000  
G07  21935251.075   115270460.256       -2500.439          40.000    21935257.030    89821117.881       -1948.315          39.000  
G02  24930067.533   131008267.681       -3324.265          36.000                                                                  
G06  24277150.974   127577322.035        3504.952          34.000    24277167.247    99410996.297        2730.753          36.000  
G03  23389793.780   122914217.609        1609.401          37.000    23389806.571    95777401.600        1253.790          35.000  
G30  21331706.611   112098832.715        -679.205          42.000    21331712.878    87349769.084        -529.297          40.000  
G01  22062278.143   115938020.145       -2155.819          41.000    22062282.674    90341311.026       -1680.168          41.000  
G13  25704018.042   135075533.669        -787.985          30.000                                                                  
G22  23464676.302   123307726.688        2273.237          37.000                                                                  
G14  21811816.424   114621865.251        2135.712          41.000    21811820.936    89315781.456        1663.972          41.000  
G17  22298430.310   117179015.132          90.191          40.000    22298434.176    91308346.735          70.650          39.000  
G19  23561163.141   123814746.753        1439.606          35.000                                                                  
> 2025 04 27 02 33 50.0020000  0 12                     
G08  25730084.002   135212383.739       -2072.597          31.000    25730105.325   105360242.096       -1615.396          33.000  
G07  21935726.921   115272960.898       -2500.704          40.000    21935732.909    89823066.432       -1948.634          39.000  
G02  24930700.119   131011591.855       -3323.757          36.000                                                                  
G06  24276484.113   127573817.364        3505.063          33.000    24276500.314    99408265.377        2730.641          37.000  
G03  23389487.408   122912608.085        1609.762          37.000    23389500.356    95776147.405        1254.186          35.000  
G30  21331835.956   112099512.092        -679.236          42.000    21331842.163    87350298.468        -529.376          40.000  
G01  22062688.429   115940176.264       -2156.338          41.000    22062692.960    90342991.095       -1680.071          41.000  
G13  25704168.081   135076322.328        -787.685          30.000                                                                  
G22  23464243.667   123305453.045        2273.842          37.000                                                                  
G14  21811410.134   114619729.758        2135.837          41.000    21811414.491    89314117.427        1664.159          41.000  
G17  22298413.044   117178924.760          90.472          40.000    22298416.882    91308276.316          70.574          39.000  
G19  23560889.088   123813306.764        1440.240          35.000                                                                  
